{
  "1:00-2:00AM": [
    {
      "SegmentID": "8152",
      "RoadwayName": "BRIELLE AVENUE",
      "From": "Suffolk Avenue",
      "To": "Livingston Avenue",
      "Direction": "EB",
      "Date": "2020-10-07",
      "flow": 0.02027027027027027,
      "Latitude": "40.5989787",
      "Longitude": "-74.1230537"
    },
    {
      "SegmentID": "8152",
      "RoadwayName": "BRIELLE AVENUE",
      "From": "Suffolk Avenue",
      "To": "Livingston Avenue",
      "Direction": "WB",
      "Date": "2020-10-07",
      "flow": 0.04054054054054054,
      "Latitude": "40.5989787",
      "Longitude": "-74.1230537"
    },
    {
      "SegmentID": "147673",
      "RoadwayName": "BROADWAY",
      "From": "Van Cortlandt Park South",
      "To": "West 242nd Street",
      "Direction": "SB",
      "Date": "2020-10-07",
      "flow": 0.15878378378378377,
      "Latitude": "40.8020029",
      "Longitude": "-73.9679456"
    },
    {
      "SegmentID": "255653",
      "RoadwayName": "BROADWAY",
      "From": "Broadway/ 7 Avenue Line",
      "To": "Broadway/ 7 Avenue Line",
      "Direction": "SB",
      "Date": "2020-10-07",
      "flow": 0.11486486486486487,
      "Latitude": "40.8020029",
      "Longitude": "-73.9679456"
    },
    {
      "SegmentID": "158447",
      "RoadwayName": "BROADWAY",
      "From": "West 242nd Street",
      "To": "Van Cortlandt Park South",
      "Direction": "NB",
      "Date": "2020-10-07",
      "flow": 0.24324324324324326,
      "Latitude": "40.8020029",
      "Longitude": "-73.9679456"
    },
    {
      "SegmentID": "221955",
      "RoadwayName": "BROADWAY",
      "From": "West 260th Street",
      "To": "West 261st Street",
      "Direction": "NB",
      "Date": "2020-10-07",
      "flow": 0.375,
      "Latitude": "40.8020029",
      "Longitude": "-73.9679456"
    },
    {
      "SegmentID": "221955",
      "RoadwayName": "BROADWAY",
      "From": "West 260th Street",
      "To": "West 261st Street",
      "Direction": "SB",
      "Date": "2020-10-07",
      "flow": 0.30743243243243246,
      "Latitude": "40.8020029",
      "Longitude": "-73.9679456"
    },
    {
      "SegmentID": "9003976",
      "RoadwayName": "BURKE AVENUE",
      "From": "Yates Avenue",
      "To": "Bouck Avenue",
      "Direction": "EB",
      "Date": "2020-10-07",
      "flow": 0.08445945945945946,
      "Latitude": "40.8714348",
      "Longitude": "-73.8671748"
    },
    {
      "SegmentID": "9003976",
      "RoadwayName": "BURKE AVENUE",
      "From": "Yates Avenue",
      "To": "Bouck Avenue",
      "Direction": "WB",
      "Date": "2020-10-07",
      "flow": 0.0472972972972973,
      "Latitude": "40.8714348",
      "Longitude": "-73.8671748"
    },
    {
      "SegmentID": "9002977",
      "RoadwayName": "CALHOUN AVENUE",
      "From": "East 177th Street",
      "To": "Dewey Avenue",
      "Direction": "NB",
      "Date": "2020-10-07",
      "flow": 0.016891891891891893,
      "Latitude": "40.8363101",
      "Longitude": "-73.874253"
    },
    {
      "SegmentID": "9002977",
      "RoadwayName": "CALHOUN AVENUE",
      "From": "East 177th Street",
      "To": "Dewey Avenue",
      "Direction": "SB",
      "Date": "2020-10-07",
      "flow": 0.037162162162162164,
      "Latitude": "40.8363101",
      "Longitude": "-73.874253"
    },
    {
      "SegmentID": "160467",
      "RoadwayName": "CLOVE ROAD",
      "From": "Narrows Road North",
      "To": "Staten Island Expressway",
      "Direction": "NB",
      "Date": "2020-10-07",
      "flow": 0.2195945945945946,
      "Latitude": "40.6139911",
      "Longitude": "-74.1012626"
    },
    {
      "SegmentID": "160467",
      "RoadwayName": "CLOVE ROAD",
      "From": "Narrows Road North",
      "To": "Staten Island Expressway",
      "Direction": "SB",
      "Date": "2020-10-07",
      "flow": 0.17229729729729729,
      "Latitude": "40.6139911",
      "Longitude": "-74.1012626"
    },
    {
      "SegmentID": "254747",
      "RoadwayName": "DUTCH KILLS STREET",
      "From": "Jackson Avenue",
      "To": "Thomson Avenue",
      "Direction": "NB",
      "Date": "2020-10-07",
      "flow": 0.6148648648648649,
      "Latitude": "40.7467382",
      "Longitude": "-73.940016"
    },
    {
      "SegmentID": "254742",
      "RoadwayName": "DUTCH KILLS STREET",
      "From": "Jackson Avenue",
      "To": "Thomson Avenue",
      "Direction": "NB",
      "Date": "2020-10-07",
      "flow": 0,
      "Latitude": "40.7467382",
      "Longitude": "-73.940016"
    },
    {
      "SegmentID": "254742",
      "RoadwayName": "DUTCH KILLS STREET",
      "From": "Jackson Avenue",
      "To": "Thomson Avenue",
      "Direction": "SB",
      "Date": "2020-10-07",
      "flow": 0,
      "Latitude": "40.7467382",
      "Longitude": "-73.940016"
    },
    {
      "SegmentID": "95624",
      "RoadwayName": "DYRE AVENUE",
      "From": "Lustre Street",
      "To": "West Kingsbridge Road",
      "Direction": "NB",
      "Date": "2020-10-07",
      "flow": 0.057432432432432436,
      "Latitude": "40.8906855",
      "Longitude": "-73.8311288"
    },
    {
      "SegmentID": "95624",
      "RoadwayName": "DYRE AVENUE",
      "From": "Lustre Street",
      "To": "West Kingsbridge Road",
      "Direction": "SB",
      "Date": "2020-10-07",
      "flow": 0.10472972972972973,
      "Latitude": "40.8906855",
      "Longitude": "-73.8311288"
    },
    {
      "SegmentID": "89278",
      "RoadwayName": "EAST 241st STREET",
      "From": "Carpenter Avenue",
      "To": "Matilda Avenue",
      "Direction": "EB",
      "Date": "2020-10-07",
      "flow": 0.20608108108108109,
      "Latitude": "40.886608",
      "Longitude": "-73.864505"
    },
    {
      "SegmentID": "89278",
      "RoadwayName": "EAST 241st STREET",
      "From": "Carpenter Avenue",
      "To": "Matilda Avenue",
      "Direction": "WB",
      "Date": "2020-10-07",
      "flow": 0.19932432432432431,
      "Latitude": "40.886608",
      "Longitude": "-73.864505"
    },
    {
      "SegmentID": "133279",
      "RoadwayName": "EAST FORDHAM ROAD",
      "From": "Bronx River Shoreline",
      "To": "Pelham Parkway",
      "Direction": "EB",
      "Date": "2020-10-07",
      "flow": 1,
      "Latitude": "40.8554124",
      "Longitude": "-73.8767367"
    },
    {
      "SegmentID": "88518",
      "RoadwayName": "EASTCHESTER ROAD",
      "From": "Givan Avenue",
      "To": "Tillotson Avenue",
      "Direction": "NB",
      "Date": "2020-10-07",
      "flow": 0.14527027027027026,
      "Latitude": "40.8775139",
      "Longitude": "-73.8364539"
    },
    {
      "SegmentID": "88518",
      "RoadwayName": "EASTCHESTER ROAD",
      "From": "Givan Avenue",
      "To": "Tillotson Avenue",
      "Direction": "SB",
      "Date": "2020-10-07",
      "flow": 0.13175675675675674,
      "Latitude": "40.8775139",
      "Longitude": "-73.8364539"
    },
    {
      "SegmentID": "226748",
      "RoadwayName": "EDSON AVENUE",
      "From": "New England Thruway/ Edson Avenue",
      "To": "Bartow Avenue",
      "Direction": "SB",
      "Date": "2020-10-07",
      "flow": 0.38175675675675674,
      "Latitude": "40.8682393",
      "Longitude": "-73.8335456"
    },
    {
      "SegmentID": "154911",
      "RoadwayName": "ESPLANADE",
      "From": "Hone Avenue",
      "To": "Lurting Avenue",
      "Direction": "NB",
      "Date": "2020-10-07",
      "flow": 0.010135135135135136,
      "Latitude": "40.8562345",
      "Longitude": "-73.8598498"
    },
    {
      "SegmentID": "154664",
      "RoadwayName": "ESPLANADE",
      "From": "Hone Avenue",
      "To": "Lurting Avenue",
      "Direction": "SB",
      "Date": "2020-10-07",
      "flow": 0.02027027027027027,
      "Latitude": "40.8562345",
      "Longitude": "-73.8598498"
    },
    {
      "SegmentID": "19259",
      "RoadwayName": "NEPTUNE AVENUE",
      "From": "West 12th Street",
      "To": "West End/ Sea Beach Line",
      "Direction": "EB",
      "Date": "2020-10-07",
      "flow": 0.1891891891891892,
      "Latitude": "40.5747728",
      "Longitude": "-73.9796628"
    },
    {
      "SegmentID": "19259",
      "RoadwayName": "NEPTUNE AVENUE",
      "From": "West 12th Street",
      "To": "West End/ Sea Beach Line",
      "Direction": "WB",
      "Date": "2020-10-07",
      "flow": 0.11824324324324324,
      "Latitude": "40.5747728",
      "Longitude": "-73.9796628"
    },
    {
      "SegmentID": "120618",
      "RoadwayName": "POLY PLACE",
      "From": "7th Avenue",
      "To": "Cropsey Avenue",
      "Direction": "EB",
      "Date": "2020-10-07",
      "flow": 0.08445945945945946,
      "Latitude": "40.7509212",
      "Longitude": "-73.9906766"
    },
    {
      "SegmentID": "120618",
      "RoadwayName": "POLY PLACE",
      "From": "7th Avenue",
      "To": "Cropsey Avenue",
      "Direction": "WB",
      "Date": "2020-10-07",
      "flow": 0.09797297297297297,
      "Latitude": "40.7509212",
      "Longitude": "-73.9906766"
    },
    {
      "SegmentID": "192425",
      "RoadwayName": "PROVOST AVENUE",
      "From": "East 233rd Street",
      "To": "East Kingsbridge Road",
      "Direction": "NB",
      "Date": "2020-10-07",
      "flow": 0.20608108108108109,
      "Latitude": "40.8943484",
      "Longitude": "-73.8603418"
    },
    {
      "SegmentID": "192425",
      "RoadwayName": "PROVOST AVENUE",
      "From": "East 233rd Street",
      "To": "East Kingsbridge Road",
      "Direction": "SB",
      "Date": "2020-10-07",
      "flow": 0.10810810810810811,
      "Latitude": "40.8943484",
      "Longitude": "-73.8603418"
    },
    {
      "SegmentID": "179513",
      "RoadwayName": "RANDALL AVENUE",
      "From": "East 177th Street",
      "To": "Cross Bronx Expressway",
      "Direction": "EB",
      "Date": "2020-10-07",
      "flow": 0.3108108108108108,
      "Latitude": "40.8363101",
      "Longitude": "-73.874253"
    },
    {
      "SegmentID": "179513",
      "RoadwayName": "RANDALL AVENUE",
      "From": "East 177th Street",
      "To": "Cross Bronx Expressway",
      "Direction": "WB",
      "Date": "2020-10-07",
      "flow": 0.05405405405405406,
      "Latitude": "40.8363101",
      "Longitude": "-73.874253"
    },
    {
      "SegmentID": "149201",
      "RoadwayName": "RICHMOND AVENUE",
      "From": "Forest Hill Road",
      "To": "Forest Hill Bridge",
      "Direction": "SB",
      "Date": "2020-10-07",
      "flow": 0.3783783783783784,
      "Latitude": "40.5864271",
      "Longitude": "-74.1462521"
    },
    {
      "SegmentID": "155387",
      "RoadwayName": "RICHMOND AVENUE",
      "From": "Forest Hill Road",
      "To": "Forest Hill Bridge",
      "Direction": "NB",
      "Date": "2020-10-07",
      "flow": 0.32094594594594594,
      "Latitude": "40.5864271",
      "Longitude": "-74.1462521"
    },
    {
      "SegmentID": "8288",
      "RoadwayName": "RICHMOND",
      "From": "Hillman Avenue",
      "To": "Akron Street",
      "Direction": "NB",
      "Date": "2020-10-07",
      "flow": 0.09797297297297297,
      "Latitude": "40.612573",
      "Longitude": "-74.160427"
    },
    {
      "SegmentID": "8288",
      "RoadwayName": "RICHMOND",
      "From": "Hillman Avenue",
      "To": "Akron Street",
      "Direction": "SB",
      "Date": "2020-10-07",
      "flow": 0.15878378378378377,
      "Latitude": "40.612573",
      "Longitude": "-74.160427"
    },
    {
      "SegmentID": "73436",
      "RoadwayName": "RIVERDALE AVENUE",
      "From": "West 238th Street",
      "To": "West 239th Street",
      "Direction": "NB",
      "Date": "2020-10-07",
      "flow": 0.10135135135135136,
      "Latitude": "40.9122215",
      "Longitude": "-73.9026588"
    },
    {
      "SegmentID": "73436",
      "RoadwayName": "RIVERDALE AVENUE",
      "From": "West 238th Street",
      "To": "West 239th Street",
      "Direction": "SB",
      "Date": "2020-10-07",
      "flow": 0.0945945945945946,
      "Latitude": "40.9122215",
      "Longitude": "-73.9026588"
    },
    {
      "SegmentID": "150579",
      "RoadwayName": "SOUTH AVENUE",
      "From": "Lois Lane",
      "To": "Fahy Avenue",
      "Direction": "SB",
      "Date": "2020-10-07",
      "flow": 0.13513513513513514,
      "Latitude": "40.6156603",
      "Longitude": "-74.1728195"
    },
    {
      "SegmentID": "150578",
      "RoadwayName": "SOUTH AVENUE",
      "From": "Lois Lane",
      "To": "Fahy Avenue",
      "Direction": "NB",
      "Date": "2020-10-07",
      "flow": 0.06756756756756757,
      "Latitude": "40.6156603",
      "Longitude": "-74.1728195"
    },
    {
      "SegmentID": "112206",
      "RoadwayName": "TODT HILL ROAD",
      "From": "Sussex Avenue",
      "To": "Ocean Terrace",
      "Direction": "NB",
      "Date": "2020-10-07",
      "flow": 0.125,
      "Latitude": "40.60327",
      "Longitude": "-74.115893"
    },
    {
      "SegmentID": "112206",
      "RoadwayName": "TODT HILL ROAD",
      "From": "Sussex Avenue",
      "To": "Ocean Terrace",
      "Direction": "SB",
      "Date": "2020-10-07",
      "flow": 0.11824324324324324,
      "Latitude": "40.60327",
      "Longitude": "-74.115893"
    },
    {
      "SegmentID": "114953",
      "RoadwayName": "VAN DUZER STREET",
      "From": "Court Street",
      "To": "Gordon Street",
      "Direction": "EB",
      "Date": "2020-10-07",
      "flow": 0.16554054054054054,
      "Latitude": "40.6255943",
      "Longitude": "-74.0844979"
    },
    {
      "SegmentID": "4832",
      "RoadwayName": "VICTORY BOULEVARD",
      "From": "Dinsmore Street",
      "To": "Signs Road",
      "Direction": "EB",
      "Date": "2020-10-07",
      "flow": 0.037162162162162164,
      "Latitude": "40.6042894",
      "Longitude": "-74.1701652"
    },
    {
      "SegmentID": "4832",
      "RoadwayName": "VICTORY BOULEVARD",
      "From": "Dinsmore Street",
      "To": "Signs Road",
      "Direction": "WB",
      "Date": "2020-10-07",
      "flow": 0.07094594594594594,
      "Latitude": "40.6042894",
      "Longitude": "-74.1701652"
    },
    {
      "SegmentID": "256800",
      "RoadwayName": "WEBSTER AVENUE",
      "From": "East 233rd Street",
      "To": "Orio J. Palmer Way",
      "Direction": "NB",
      "Date": "2020-10-07",
      "flow": 0.3547297297297297,
      "Latitude": "40.8943484",
      "Longitude": "-73.8603418"
    },
    {
      "SegmentID": "256800",
      "RoadwayName": "WEBSTER AVENUE",
      "From": "East 233rd Street",
      "To": "Orio J. Palmer Way",
      "Direction": "SB",
      "Date": "2020-10-07",
      "flow": 0.20945945945945946,
      "Latitude": "40.8943484",
      "Longitude": "-73.8603418"
    },
    {
      "SegmentID": "81384",
      "RoadwayName": "WEBSTER AVENUE",
      "From": "Woodlawn Cemetery Boundary",
      "To": "East Gun Hill Rd",
      "Direction": "NB",
      "Date": "2020-10-07",
      "flow": 0.14189189189189189,
      "Latitude": "40.8640107",
      "Longitude": "-73.8339775"
    },
    {
      "SegmentID": "81384",
      "RoadwayName": "WEBSTER AVENUE",
      "From": "Woodlawn Cemetery Boundary",
      "To": "East Gun Hill Rd",
      "Direction": "SB",
      "Date": "2020-10-07",
      "flow": 0.15202702702702703,
      "Latitude": "40.8640107",
      "Longitude": "-73.8339775"
    },
    {
      "SegmentID": "95195",
      "RoadwayName": "WESTCHESTER AVENUE",
      "From": "Bruckner Boulevard",
      "To": "Burr Avenue",
      "Direction": "SB",
      "Date": "2020-10-07",
      "flow": 0.3310810810810811,
      "Latitude": "40.8301747",
      "Longitude": "-73.8375135"
    },
    {
      "SegmentID": "147032",
      "RoadwayName": "WHITE PLAINS ROAD",
      "From": "East 215th Street",
      "To": "East 216th Street",
      "Direction": "NB",
      "Date": "2020-10-07",
      "flow": 0.2195945945945946,
      "Latitude": "40.8941458",
      "Longitude": "-73.8569108"
    },
    {
      "SegmentID": "132595",
      "RoadwayName": "WHITE PLAINS ROAD",
      "From": "East 215th Street",
      "To": "East 216th Street",
      "Direction": "SB",
      "Date": "2020-10-07",
      "flow": 0.4391891891891892,
      "Latitude": "40.8941458",
      "Longitude": "-73.8569108"
    }
  ],
  "2:00-3:00AM": [
    {
      "SegmentID": "8152",
      "RoadwayName": "BRIELLE AVENUE",
      "From": "Suffolk Avenue",
      "To": "Livingston Avenue",
      "Direction": "EB",
      "Date": "2020-10-07",
      "flow": 0.017167381974248927,
      "Latitude": "40.5989787",
      "Longitude": "-74.1230537"
    },
    {
      "SegmentID": "8152",
      "RoadwayName": "BRIELLE AVENUE",
      "From": "Suffolk Avenue",
      "To": "Livingston Avenue",
      "Direction": "WB",
      "Date": "2020-10-07",
      "flow": 0.017167381974248927,
      "Latitude": "40.5989787",
      "Longitude": "-74.1230537"
    },
    {
      "SegmentID": "147673",
      "RoadwayName": "BROADWAY",
      "From": "Van Cortlandt Park South",
      "To": "West 242nd Street",
      "Direction": "SB",
      "Date": "2020-10-07",
      "flow": 0.18454935622317598,
      "Latitude": "40.8020029",
      "Longitude": "-73.9679456"
    },
    {
      "SegmentID": "255653",
      "RoadwayName": "BROADWAY",
      "From": "Broadway/ 7 Avenue Line",
      "To": "Broadway/ 7 Avenue Line",
      "Direction": "SB",
      "Date": "2020-10-07",
      "flow": 0.09012875536480687,
      "Latitude": "40.8020029",
      "Longitude": "-73.9679456"
    },
    {
      "SegmentID": "158447",
      "RoadwayName": "BROADWAY",
      "From": "West 242nd Street",
      "To": "Van Cortlandt Park South",
      "Direction": "NB",
      "Date": "2020-10-07",
      "flow": 0.17167381974248927,
      "Latitude": "40.8020029",
      "Longitude": "-73.9679456"
    },
    {
      "SegmentID": "221955",
      "RoadwayName": "BROADWAY",
      "From": "West 260th Street",
      "To": "West 261st Street",
      "Direction": "NB",
      "Date": "2020-10-07",
      "flow": 0.34334763948497854,
      "Latitude": "40.8020029",
      "Longitude": "-73.9679456"
    },
    {
      "SegmentID": "221955",
      "RoadwayName": "BROADWAY",
      "From": "West 260th Street",
      "To": "West 261st Street",
      "Direction": "SB",
      "Date": "2020-10-07",
      "flow": 0.2532188841201717,
      "Latitude": "40.8020029",
      "Longitude": "-73.9679456"
    },
    {
      "SegmentID": "9003976",
      "RoadwayName": "BURKE AVENUE",
      "From": "Yates Avenue",
      "To": "Bouck Avenue",
      "Direction": "EB",
      "Date": "2020-10-07",
      "flow": 0.09871244635193133,
      "Latitude": "40.8714348",
      "Longitude": "-73.8671748"
    },
    {
      "SegmentID": "9003976",
      "RoadwayName": "BURKE AVENUE",
      "From": "Yates Avenue",
      "To": "Bouck Avenue",
      "Direction": "WB",
      "Date": "2020-10-07",
      "flow": 0.03862660944206009,
      "Latitude": "40.8714348",
      "Longitude": "-73.8671748"
    },
    {
      "SegmentID": "9002977",
      "RoadwayName": "CALHOUN AVENUE",
      "From": "East 177th Street",
      "To": "Dewey Avenue",
      "Direction": "NB",
      "Date": "2020-10-07",
      "flow": 0.02575107296137339,
      "Latitude": "40.8363101",
      "Longitude": "-73.874253"
    },
    {
      "SegmentID": "9002977",
      "RoadwayName": "CALHOUN AVENUE",
      "From": "East 177th Street",
      "To": "Dewey Avenue",
      "Direction": "SB",
      "Date": "2020-10-07",
      "flow": 0.06437768240343347,
      "Latitude": "40.8363101",
      "Longitude": "-73.874253"
    },
    {
      "SegmentID": "160467",
      "RoadwayName": "CLOVE ROAD",
      "From": "Narrows Road North",
      "To": "Staten Island Expressway",
      "Direction": "NB",
      "Date": "2020-10-07",
      "flow": 0.21030042918454936,
      "Latitude": "40.6139911",
      "Longitude": "-74.1012626"
    },
    {
      "SegmentID": "160467",
      "RoadwayName": "CLOVE ROAD",
      "From": "Narrows Road North",
      "To": "Staten Island Expressway",
      "Direction": "SB",
      "Date": "2020-10-07",
      "flow": 0.2532188841201717,
      "Latitude": "40.6139911",
      "Longitude": "-74.1012626"
    },
    {
      "SegmentID": "254747",
      "RoadwayName": "DUTCH KILLS STREET",
      "From": "Jackson Avenue",
      "To": "Thomson Avenue",
      "Direction": "NB",
      "Date": "2020-10-07",
      "flow": 0.7081545064377682,
      "Latitude": "40.7467382",
      "Longitude": "-73.940016"
    },
    {
      "SegmentID": "254742",
      "RoadwayName": "DUTCH KILLS STREET",
      "From": "Jackson Avenue",
      "To": "Thomson Avenue",
      "Direction": "NB",
      "Date": "2020-10-07",
      "flow": 0,
      "Latitude": "40.7467382",
      "Longitude": "-73.940016"
    },
    {
      "SegmentID": "254742",
      "RoadwayName": "DUTCH KILLS STREET",
      "From": "Jackson Avenue",
      "To": "Thomson Avenue",
      "Direction": "SB",
      "Date": "2020-10-07",
      "flow": 0,
      "Latitude": "40.7467382",
      "Longitude": "-73.940016"
    },
    {
      "SegmentID": "95624",
      "RoadwayName": "DYRE AVENUE",
      "From": "Lustre Street",
      "To": "West Kingsbridge Road",
      "Direction": "NB",
      "Date": "2020-10-07",
      "flow": 0.0815450643776824,
      "Latitude": "40.8906855",
      "Longitude": "-73.8311288"
    },
    {
      "SegmentID": "95624",
      "RoadwayName": "DYRE AVENUE",
      "From": "Lustre Street",
      "To": "West Kingsbridge Road",
      "Direction": "SB",
      "Date": "2020-10-07",
      "flow": 0.0815450643776824,
      "Latitude": "40.8906855",
      "Longitude": "-73.8311288"
    },
    {
      "SegmentID": "89278",
      "RoadwayName": "EAST 241st STREET",
      "From": "Carpenter Avenue",
      "To": "Matilda Avenue",
      "Direction": "EB",
      "Date": "2020-10-07",
      "flow": 0.14163090128755365,
      "Latitude": "40.886608",
      "Longitude": "-73.864505"
    },
    {
      "SegmentID": "89278",
      "RoadwayName": "EAST 241st STREET",
      "From": "Carpenter Avenue",
      "To": "Matilda Avenue",
      "Direction": "WB",
      "Date": "2020-10-07",
      "flow": 0.23605150214592274,
      "Latitude": "40.886608",
      "Longitude": "-73.864505"
    },
    {
      "SegmentID": "133279",
      "RoadwayName": "EAST FORDHAM ROAD",
      "From": "Bronx River Shoreline",
      "To": "Pelham Parkway",
      "Direction": "EB",
      "Date": "2020-10-07",
      "flow": 1,
      "Latitude": "40.8554124",
      "Longitude": "-73.8767367"
    },
    {
      "SegmentID": "88518",
      "RoadwayName": "EASTCHESTER ROAD",
      "From": "Givan Avenue",
      "To": "Tillotson Avenue",
      "Direction": "NB",
      "Date": "2020-10-07",
      "flow": 0.07725321888412018,
      "Latitude": "40.8775139",
      "Longitude": "-73.8364539"
    },
    {
      "SegmentID": "88518",
      "RoadwayName": "EASTCHESTER ROAD",
      "From": "Givan Avenue",
      "To": "Tillotson Avenue",
      "Direction": "SB",
      "Date": "2020-10-07",
      "flow": 0.12875536480686695,
      "Latitude": "40.8775139",
      "Longitude": "-73.8364539"
    },
    {
      "SegmentID": "226748",
      "RoadwayName": "EDSON AVENUE",
      "From": "New England Thruway/ Edson Avenue",
      "To": "Bartow Avenue",
      "Direction": "SB",
      "Date": "2020-10-07",
      "flow": 0.27467811158798283,
      "Latitude": "40.8682393",
      "Longitude": "-73.8335456"
    },
    {
      "SegmentID": "154911",
      "RoadwayName": "ESPLANADE",
      "From": "Hone Avenue",
      "To": "Lurting Avenue",
      "Direction": "NB",
      "Date": "2020-10-07",
      "flow": 0.008583690987124463,
      "Latitude": "40.8562345",
      "Longitude": "-73.8598498"
    },
    {
      "SegmentID": "154664",
      "RoadwayName": "ESPLANADE",
      "From": "Hone Avenue",
      "To": "Lurting Avenue",
      "Direction": "SB",
      "Date": "2020-10-07",
      "flow": 0.02145922746781116,
      "Latitude": "40.8562345",
      "Longitude": "-73.8598498"
    },
    {
      "SegmentID": "19259",
      "RoadwayName": "NEPTUNE AVENUE",
      "From": "West 12th Street",
      "To": "West End/ Sea Beach Line",
      "Direction": "EB",
      "Date": "2020-10-07",
      "flow": 0.13733905579399142,
      "Latitude": "40.5747728",
      "Longitude": "-73.9796628"
    },
    {
      "SegmentID": "19259",
      "RoadwayName": "NEPTUNE AVENUE",
      "From": "West 12th Street",
      "To": "West End/ Sea Beach Line",
      "Direction": "WB",
      "Date": "2020-10-07",
      "flow": 0.08583690987124463,
      "Latitude": "40.5747728",
      "Longitude": "-73.9796628"
    },
    {
      "SegmentID": "120618",
      "RoadwayName": "POLY PLACE",
      "From": "7th Avenue",
      "To": "Cropsey Avenue",
      "Direction": "EB",
      "Date": "2020-10-07",
      "flow": 0.05150214592274678,
      "Latitude": "40.7509212",
      "Longitude": "-73.9906766"
    },
    {
      "SegmentID": "120618",
      "RoadwayName": "POLY PLACE",
      "From": "7th Avenue",
      "To": "Cropsey Avenue",
      "Direction": "WB",
      "Date": "2020-10-07",
      "flow": 0.09871244635193133,
      "Latitude": "40.7509212",
      "Longitude": "-73.9906766"
    },
    {
      "SegmentID": "192425",
      "RoadwayName": "PROVOST AVENUE",
      "From": "East 233rd Street",
      "To": "East Kingsbridge Road",
      "Direction": "NB",
      "Date": "2020-10-07",
      "flow": 0.15879828326180256,
      "Latitude": "40.8943484",
      "Longitude": "-73.8603418"
    },
    {
      "SegmentID": "192425",
      "RoadwayName": "PROVOST AVENUE",
      "From": "East 233rd Street",
      "To": "East Kingsbridge Road",
      "Direction": "SB",
      "Date": "2020-10-07",
      "flow": 0.13733905579399142,
      "Latitude": "40.8943484",
      "Longitude": "-73.8603418"
    },
    {
      "SegmentID": "179513",
      "RoadwayName": "RANDALL AVENUE",
      "From": "East 177th Street",
      "To": "Cross Bronx Expressway",
      "Direction": "EB",
      "Date": "2020-10-07",
      "flow": 0.351931330472103,
      "Latitude": "40.8363101",
      "Longitude": "-73.874253"
    },
    {
      "SegmentID": "179513",
      "RoadwayName": "RANDALL AVENUE",
      "From": "East 177th Street",
      "To": "Cross Bronx Expressway",
      "Direction": "WB",
      "Date": "2020-10-07",
      "flow": 0.04721030042918455,
      "Latitude": "40.8363101",
      "Longitude": "-73.874253"
    },
    {
      "SegmentID": "149201",
      "RoadwayName": "RICHMOND AVENUE",
      "From": "Forest Hill Road",
      "To": "Forest Hill Bridge",
      "Direction": "SB",
      "Date": "2020-10-07",
      "flow": 0.21888412017167383,
      "Latitude": "40.5864271",
      "Longitude": "-74.1462521"
    },
    {
      "SegmentID": "155387",
      "RoadwayName": "RICHMOND AVENUE",
      "From": "Forest Hill Road",
      "To": "Forest Hill Bridge",
      "Direction": "NB",
      "Date": "2020-10-07",
      "flow": 0.34334763948497854,
      "Latitude": "40.5864271",
      "Longitude": "-74.1462521"
    },
    {
      "SegmentID": "8288",
      "RoadwayName": "RICHMOND",
      "From": "Hillman Avenue",
      "To": "Akron Street",
      "Direction": "NB",
      "Date": "2020-10-07",
      "flow": 0.12017167381974249,
      "Latitude": "40.612573",
      "Longitude": "-74.160427"
    },
    {
      "SegmentID": "8288",
      "RoadwayName": "RICHMOND",
      "From": "Hillman Avenue",
      "To": "Akron Street",
      "Direction": "SB",
      "Date": "2020-10-07",
      "flow": 0.09871244635193133,
      "Latitude": "40.612573",
      "Longitude": "-74.160427"
    },
    {
      "SegmentID": "73436",
      "RoadwayName": "RIVERDALE AVENUE",
      "From": "West 238th Street",
      "To": "West 239th Street",
      "Direction": "NB",
      "Date": "2020-10-07",
      "flow": 0.055793991416309016,
      "Latitude": "40.9122215",
      "Longitude": "-73.9026588"
    },
    {
      "SegmentID": "73436",
      "RoadwayName": "RIVERDALE AVENUE",
      "From": "West 238th Street",
      "To": "West 239th Street",
      "Direction": "SB",
      "Date": "2020-10-07",
      "flow": 0.04721030042918455,
      "Latitude": "40.9122215",
      "Longitude": "-73.9026588"
    },
    {
      "SegmentID": "150579",
      "RoadwayName": "SOUTH AVENUE",
      "From": "Lois Lane",
      "To": "Fahy Avenue",
      "Direction": "SB",
      "Date": "2020-10-07",
      "flow": 0.19742489270386265,
      "Latitude": "40.6156603",
      "Longitude": "-74.1728195"
    },
    {
      "SegmentID": "150578",
      "RoadwayName": "SOUTH AVENUE",
      "From": "Lois Lane",
      "To": "Fahy Avenue",
      "Direction": "NB",
      "Date": "2020-10-07",
      "flow": 0.0944206008583691,
      "Latitude": "40.6156603",
      "Longitude": "-74.1728195"
    },
    {
      "SegmentID": "112206",
      "RoadwayName": "TODT HILL ROAD",
      "From": "Sussex Avenue",
      "To": "Ocean Terrace",
      "Direction": "NB",
      "Date": "2020-10-07",
      "flow": 0.15021459227467812,
      "Latitude": "40.60327",
      "Longitude": "-74.115893"
    },
    {
      "SegmentID": "112206",
      "RoadwayName": "TODT HILL ROAD",
      "From": "Sussex Avenue",
      "To": "Ocean Terrace",
      "Direction": "SB",
      "Date": "2020-10-07",
      "flow": 0.12017167381974249,
      "Latitude": "40.60327",
      "Longitude": "-74.115893"
    },
    {
      "SegmentID": "114953",
      "RoadwayName": "VAN DUZER STREET",
      "From": "Court Street",
      "To": "Gordon Street",
      "Direction": "EB",
      "Date": "2020-10-07",
      "flow": 0.12875536480686695,
      "Latitude": "40.6255943",
      "Longitude": "-74.0844979"
    },
    {
      "SegmentID": "4832",
      "RoadwayName": "VICTORY BOULEVARD",
      "From": "Dinsmore Street",
      "To": "Signs Road",
      "Direction": "EB",
      "Date": "2020-10-07",
      "flow": 0.07296137339055794,
      "Latitude": "40.6042894",
      "Longitude": "-74.1701652"
    },
    {
      "SegmentID": "4832",
      "RoadwayName": "VICTORY BOULEVARD",
      "From": "Dinsmore Street",
      "To": "Signs Road",
      "Direction": "WB",
      "Date": "2020-10-07",
      "flow": 0.11587982832618025,
      "Latitude": "40.6042894",
      "Longitude": "-74.1701652"
    },
    {
      "SegmentID": "256800",
      "RoadwayName": "WEBSTER AVENUE",
      "From": "East 233rd Street",
      "To": "Orio J. Palmer Way",
      "Direction": "NB",
      "Date": "2020-10-07",
      "flow": 0.3261802575107296,
      "Latitude": "40.8943484",
      "Longitude": "-73.8603418"
    },
    {
      "SegmentID": "256800",
      "RoadwayName": "WEBSTER AVENUE",
      "From": "East 233rd Street",
      "To": "Orio J. Palmer Way",
      "Direction": "SB",
      "Date": "2020-10-07",
      "flow": 0.23605150214592274,
      "Latitude": "40.8943484",
      "Longitude": "-73.8603418"
    },
    {
      "SegmentID": "81384",
      "RoadwayName": "WEBSTER AVENUE",
      "From": "Woodlawn Cemetery Boundary",
      "To": "East Gun Hill Rd",
      "Direction": "NB",
      "Date": "2020-10-07",
      "flow": 0.12017167381974249,
      "Latitude": "40.8640107",
      "Longitude": "-73.8339775"
    },
    {
      "SegmentID": "81384",
      "RoadwayName": "WEBSTER AVENUE",
      "From": "Woodlawn Cemetery Boundary",
      "To": "East Gun Hill Rd",
      "Direction": "SB",
      "Date": "2020-10-07",
      "flow": 0.11158798283261803,
      "Latitude": "40.8640107",
      "Longitude": "-73.8339775"
    },
    {
      "SegmentID": "95195",
      "RoadwayName": "WESTCHESTER AVENUE",
      "From": "Bruckner Boulevard",
      "To": "Burr Avenue",
      "Direction": "SB",
      "Date": "2020-10-07",
      "flow": 0.34334763948497854,
      "Latitude": "40.8301747",
      "Longitude": "-73.8375135"
    },
    {
      "SegmentID": "147032",
      "RoadwayName": "WHITE PLAINS ROAD",
      "From": "East 215th Street",
      "To": "East 216th Street",
      "Direction": "NB",
      "Date": "2020-10-07",
      "flow": 0.33905579399141633,
      "Latitude": "40.8941458",
      "Longitude": "-73.8569108"
    },
    {
      "SegmentID": "132595",
      "RoadwayName": "WHITE PLAINS ROAD",
      "From": "East 215th Street",
      "To": "East 216th Street",
      "Direction": "SB",
      "Date": "2020-10-07",
      "flow": 0.49356223175965663,
      "Latitude": "40.8941458",
      "Longitude": "-73.8569108"
    }
  ],
  "3:00-4:00AM": [
    {
      "SegmentID": "8152",
      "RoadwayName": "BRIELLE AVENUE",
      "From": "Suffolk Avenue",
      "To": "Livingston Avenue",
      "Direction": "EB",
      "Date": "2020-10-07",
      "flow": 0.02422145328719723,
      "Latitude": "40.5989787",
      "Longitude": "-74.1230537"
    },
    {
      "SegmentID": "8152",
      "RoadwayName": "BRIELLE AVENUE",
      "From": "Suffolk Avenue",
      "To": "Livingston Avenue",
      "Direction": "WB",
      "Date": "2020-10-07",
      "flow": 0.020761245674740483,
      "Latitude": "40.5989787",
      "Longitude": "-74.1230537"
    },
    {
      "SegmentID": "147673",
      "RoadwayName": "BROADWAY",
      "From": "Van Cortlandt Park South",
      "To": "West 242nd Street",
      "Direction": "SB",
      "Date": "2020-10-07",
      "flow": 0.11764705882352941,
      "Latitude": "40.8020029",
      "Longitude": "-73.9679456"
    },
    {
      "SegmentID": "255653",
      "RoadwayName": "BROADWAY",
      "From": "Broadway/ 7 Avenue Line",
      "To": "Broadway/ 7 Avenue Line",
      "Direction": "SB",
      "Date": "2020-10-07",
      "flow": 0.07958477508650519,
      "Latitude": "40.8020029",
      "Longitude": "-73.9679456"
    },
    {
      "SegmentID": "158447",
      "RoadwayName": "BROADWAY",
      "From": "West 242nd Street",
      "To": "Van Cortlandt Park South",
      "Direction": "NB",
      "Date": "2020-10-07",
      "flow": 0.1903114186851211,
      "Latitude": "40.8020029",
      "Longitude": "-73.9679456"
    },
    {
      "SegmentID": "221955",
      "RoadwayName": "BROADWAY",
      "From": "West 260th Street",
      "To": "West 261st Street",
      "Direction": "NB",
      "Date": "2020-10-07",
      "flow": 0.1972318339100346,
      "Latitude": "40.8020029",
      "Longitude": "-73.9679456"
    },
    {
      "SegmentID": "221955",
      "RoadwayName": "BROADWAY",
      "From": "West 260th Street",
      "To": "West 261st Street",
      "Direction": "SB",
      "Date": "2020-10-07",
      "flow": 0.2041522491349481,
      "Latitude": "40.8020029",
      "Longitude": "-73.9679456"
    },
    {
      "SegmentID": "9003976",
      "RoadwayName": "BURKE AVENUE",
      "From": "Yates Avenue",
      "To": "Bouck Avenue",
      "Direction": "EB",
      "Date": "2020-10-07",
      "flow": 0.08996539792387544,
      "Latitude": "40.8714348",
      "Longitude": "-73.8671748"
    },
    {
      "SegmentID": "9003976",
      "RoadwayName": "BURKE AVENUE",
      "From": "Yates Avenue",
      "To": "Bouck Avenue",
      "Direction": "WB",
      "Date": "2020-10-07",
      "flow": 0.03460207612456748,
      "Latitude": "40.8714348",
      "Longitude": "-73.8671748"
    },
    {
      "SegmentID": "9002977",
      "RoadwayName": "CALHOUN AVENUE",
      "From": "East 177th Street",
      "To": "Dewey Avenue",
      "Direction": "NB",
      "Date": "2020-10-07",
      "flow": 0.0034602076124567475,
      "Latitude": "40.8363101",
      "Longitude": "-73.874253"
    },
    {
      "SegmentID": "9002977",
      "RoadwayName": "CALHOUN AVENUE",
      "From": "East 177th Street",
      "To": "Dewey Avenue",
      "Direction": "SB",
      "Date": "2020-10-07",
      "flow": 0.031141868512110725,
      "Latitude": "40.8363101",
      "Longitude": "-73.874253"
    },
    {
      "SegmentID": "160467",
      "RoadwayName": "CLOVE ROAD",
      "From": "Narrows Road North",
      "To": "Staten Island Expressway",
      "Direction": "NB",
      "Date": "2020-10-07",
      "flow": 0.2041522491349481,
      "Latitude": "40.6139911",
      "Longitude": "-74.1012626"
    },
    {
      "SegmentID": "160467",
      "RoadwayName": "CLOVE ROAD",
      "From": "Narrows Road North",
      "To": "Staten Island Expressway",
      "Direction": "SB",
      "Date": "2020-10-07",
      "flow": 0.14186851211072665,
      "Latitude": "40.6139911",
      "Longitude": "-74.1012626"
    },
    {
      "SegmentID": "254747",
      "RoadwayName": "DUTCH KILLS STREET",
      "From": "Jackson Avenue",
      "To": "Thomson Avenue",
      "Direction": "NB",
      "Date": "2020-10-07",
      "flow": 1,
      "Latitude": "40.7467382",
      "Longitude": "-73.940016"
    },
    {
      "SegmentID": "254742",
      "RoadwayName": "DUTCH KILLS STREET",
      "From": "Jackson Avenue",
      "To": "Thomson Avenue",
      "Direction": "NB",
      "Date": "2020-10-07",
      "flow": 0,
      "Latitude": "40.7467382",
      "Longitude": "-73.940016"
    },
    {
      "SegmentID": "254742",
      "RoadwayName": "DUTCH KILLS STREET",
      "From": "Jackson Avenue",
      "To": "Thomson Avenue",
      "Direction": "SB",
      "Date": "2020-10-07",
      "flow": 0,
      "Latitude": "40.7467382",
      "Longitude": "-73.940016"
    },
    {
      "SegmentID": "95624",
      "RoadwayName": "DYRE AVENUE",
      "From": "Lustre Street",
      "To": "West Kingsbridge Road",
      "Direction": "NB",
      "Date": "2020-10-07",
      "flow": 0.04152249134948097,
      "Latitude": "40.8906855",
      "Longitude": "-73.8311288"
    },
    {
      "SegmentID": "95624",
      "RoadwayName": "DYRE AVENUE",
      "From": "Lustre Street",
      "To": "West Kingsbridge Road",
      "Direction": "SB",
      "Date": "2020-10-07",
      "flow": 0.06920415224913495,
      "Latitude": "40.8906855",
      "Longitude": "-73.8311288"
    },
    {
      "SegmentID": "89278",
      "RoadwayName": "EAST 241st STREET",
      "From": "Carpenter Avenue",
      "To": "Matilda Avenue",
      "Direction": "EB",
      "Date": "2020-10-07",
      "flow": 0.09342560553633218,
      "Latitude": "40.886608",
      "Longitude": "-73.864505"
    },
    {
      "SegmentID": "89278",
      "RoadwayName": "EAST 241st STREET",
      "From": "Carpenter Avenue",
      "To": "Matilda Avenue",
      "Direction": "WB",
      "Date": "2020-10-07",
      "flow": 0.1245674740484429,
      "Latitude": "40.886608",
      "Longitude": "-73.864505"
    },
    {
      "SegmentID": "133279",
      "RoadwayName": "EAST FORDHAM ROAD",
      "From": "Bronx River Shoreline",
      "To": "Pelham Parkway",
      "Direction": "EB",
      "Date": "2020-10-07",
      "flow": 0.6608996539792388,
      "Latitude": "40.8554124",
      "Longitude": "-73.8767367"
    },
    {
      "SegmentID": "88518",
      "RoadwayName": "EASTCHESTER ROAD",
      "From": "Givan Avenue",
      "To": "Tillotson Avenue",
      "Direction": "NB",
      "Date": "2020-10-07",
      "flow": 0.06228373702422145,
      "Latitude": "40.8775139",
      "Longitude": "-73.8364539"
    },
    {
      "SegmentID": "88518",
      "RoadwayName": "EASTCHESTER ROAD",
      "From": "Givan Avenue",
      "To": "Tillotson Avenue",
      "Direction": "SB",
      "Date": "2020-10-07",
      "flow": 0.058823529411764705,
      "Latitude": "40.8775139",
      "Longitude": "-73.8364539"
    },
    {
      "SegmentID": "226748",
      "RoadwayName": "EDSON AVENUE",
      "From": "New England Thruway/ Edson Avenue",
      "To": "Bartow Avenue",
      "Direction": "SB",
      "Date": "2020-10-07",
      "flow": 0.3079584775086505,
      "Latitude": "40.8682393",
      "Longitude": "-73.8335456"
    },
    {
      "SegmentID": "154911",
      "RoadwayName": "ESPLANADE",
      "From": "Hone Avenue",
      "To": "Lurting Avenue",
      "Direction": "NB",
      "Date": "2020-10-07",
      "flow": 0.006920415224913495,
      "Latitude": "40.8562345",
      "Longitude": "-73.8598498"
    },
    {
      "SegmentID": "154664",
      "RoadwayName": "ESPLANADE",
      "From": "Hone Avenue",
      "To": "Lurting Avenue",
      "Direction": "SB",
      "Date": "2020-10-07",
      "flow": 0.020761245674740483,
      "Latitude": "40.8562345",
      "Longitude": "-73.8598498"
    },
    {
      "SegmentID": "19259",
      "RoadwayName": "NEPTUNE AVENUE",
      "From": "West 12th Street",
      "To": "West End/ Sea Beach Line",
      "Direction": "EB",
      "Date": "2020-10-07",
      "flow": 0.17301038062283736,
      "Latitude": "40.5747728",
      "Longitude": "-73.9796628"
    },
    {
      "SegmentID": "19259",
      "RoadwayName": "NEPTUNE AVENUE",
      "From": "West 12th Street",
      "To": "West End/ Sea Beach Line",
      "Direction": "WB",
      "Date": "2020-10-07",
      "flow": 0.06228373702422145,
      "Latitude": "40.5747728",
      "Longitude": "-73.9796628"
    },
    {
      "SegmentID": "120618",
      "RoadwayName": "POLY PLACE",
      "From": "7th Avenue",
      "To": "Cropsey Avenue",
      "Direction": "EB",
      "Date": "2020-10-07",
      "flow": 0.0657439446366782,
      "Latitude": "40.7509212",
      "Longitude": "-73.9906766"
    },
    {
      "SegmentID": "120618",
      "RoadwayName": "POLY PLACE",
      "From": "7th Avenue",
      "To": "Cropsey Avenue",
      "Direction": "WB",
      "Date": "2020-10-07",
      "flow": 0.0657439446366782,
      "Latitude": "40.7509212",
      "Longitude": "-73.9906766"
    },
    {
      "SegmentID": "192425",
      "RoadwayName": "PROVOST AVENUE",
      "From": "East 233rd Street",
      "To": "East Kingsbridge Road",
      "Direction": "NB",
      "Date": "2020-10-07",
      "flow": 0.11418685121107267,
      "Latitude": "40.8943484",
      "Longitude": "-73.8603418"
    },
    {
      "SegmentID": "192425",
      "RoadwayName": "PROVOST AVENUE",
      "From": "East 233rd Street",
      "To": "East Kingsbridge Road",
      "Direction": "SB",
      "Date": "2020-10-07",
      "flow": 0.09342560553633218,
      "Latitude": "40.8943484",
      "Longitude": "-73.8603418"
    },
    {
      "SegmentID": "179513",
      "RoadwayName": "RANDALL AVENUE",
      "From": "East 177th Street",
      "To": "Cross Bronx Expressway",
      "Direction": "EB",
      "Date": "2020-10-07",
      "flow": 0.2422145328719723,
      "Latitude": "40.8363101",
      "Longitude": "-73.874253"
    },
    {
      "SegmentID": "179513",
      "RoadwayName": "RANDALL AVENUE",
      "From": "East 177th Street",
      "To": "Cross Bronx Expressway",
      "Direction": "WB",
      "Date": "2020-10-07",
      "flow": 0.03460207612456748,
      "Latitude": "40.8363101",
      "Longitude": "-73.874253"
    },
    {
      "SegmentID": "149201",
      "RoadwayName": "RICHMOND AVENUE",
      "From": "Forest Hill Road",
      "To": "Forest Hill Bridge",
      "Direction": "SB",
      "Date": "2020-10-07",
      "flow": 0.2422145328719723,
      "Latitude": "40.5864271",
      "Longitude": "-74.1462521"
    },
    {
      "SegmentID": "155387",
      "RoadwayName": "RICHMOND AVENUE",
      "From": "Forest Hill Road",
      "To": "Forest Hill Bridge",
      "Direction": "NB",
      "Date": "2020-10-07",
      "flow": 0.4186851211072664,
      "Latitude": "40.5864271",
      "Longitude": "-74.1462521"
    },
    {
      "SegmentID": "8288",
      "RoadwayName": "RICHMOND",
      "From": "Hillman Avenue",
      "To": "Akron Street",
      "Direction": "NB",
      "Date": "2020-10-07",
      "flow": 0.2041522491349481,
      "Latitude": "40.612573",
      "Longitude": "-74.160427"
    },
    {
      "SegmentID": "8288",
      "RoadwayName": "RICHMOND",
      "From": "Hillman Avenue",
      "To": "Akron Street",
      "Direction": "SB",
      "Date": "2020-10-07",
      "flow": 0.10380622837370242,
      "Latitude": "40.612573",
      "Longitude": "-74.160427"
    },
    {
      "SegmentID": "73436",
      "RoadwayName": "RIVERDALE AVENUE",
      "From": "West 238th Street",
      "To": "West 239th Street",
      "Direction": "NB",
      "Date": "2020-10-07",
      "flow": 0.02422145328719723,
      "Latitude": "40.9122215",
      "Longitude": "-73.9026588"
    },
    {
      "SegmentID": "73436",
      "RoadwayName": "RIVERDALE AVENUE",
      "From": "West 238th Street",
      "To": "West 239th Street",
      "Direction": "SB",
      "Date": "2020-10-07",
      "flow": 0.04498269896193772,
      "Latitude": "40.9122215",
      "Longitude": "-73.9026588"
    },
    {
      "SegmentID": "150579",
      "RoadwayName": "SOUTH AVENUE",
      "From": "Lois Lane",
      "To": "Fahy Avenue",
      "Direction": "SB",
      "Date": "2020-10-07",
      "flow": 0.12110726643598616,
      "Latitude": "40.6156603",
      "Longitude": "-74.1728195"
    },
    {
      "SegmentID": "150578",
      "RoadwayName": "SOUTH AVENUE",
      "From": "Lois Lane",
      "To": "Fahy Avenue",
      "Direction": "NB",
      "Date": "2020-10-07",
      "flow": 0.08304498269896193,
      "Latitude": "40.6156603",
      "Longitude": "-74.1728195"
    },
    {
      "SegmentID": "112206",
      "RoadwayName": "TODT HILL ROAD",
      "From": "Sussex Avenue",
      "To": "Ocean Terrace",
      "Direction": "NB",
      "Date": "2020-10-07",
      "flow": 0.07612456747404844,
      "Latitude": "40.60327",
      "Longitude": "-74.115893"
    },
    {
      "SegmentID": "112206",
      "RoadwayName": "TODT HILL ROAD",
      "From": "Sussex Avenue",
      "To": "Ocean Terrace",
      "Direction": "SB",
      "Date": "2020-10-07",
      "flow": 0.0657439446366782,
      "Latitude": "40.60327",
      "Longitude": "-74.115893"
    },
    {
      "SegmentID": "114953",
      "RoadwayName": "VAN DUZER STREET",
      "From": "Court Street",
      "To": "Gordon Street",
      "Direction": "EB",
      "Date": "2020-10-07",
      "flow": 0.1314878892733564,
      "Latitude": "40.6255943",
      "Longitude": "-74.0844979"
    },
    {
      "SegmentID": "4832",
      "RoadwayName": "VICTORY BOULEVARD",
      "From": "Dinsmore Street",
      "To": "Signs Road",
      "Direction": "EB",
      "Date": "2020-10-07",
      "flow": 0.05190311418685121,
      "Latitude": "40.6042894",
      "Longitude": "-74.1701652"
    },
    {
      "SegmentID": "4832",
      "RoadwayName": "VICTORY BOULEVARD",
      "From": "Dinsmore Street",
      "To": "Signs Road",
      "Direction": "WB",
      "Date": "2020-10-07",
      "flow": 0.02422145328719723,
      "Latitude": "40.6042894",
      "Longitude": "-74.1701652"
    },
    {
      "SegmentID": "256800",
      "RoadwayName": "WEBSTER AVENUE",
      "From": "East 233rd Street",
      "To": "Orio J. Palmer Way",
      "Direction": "NB",
      "Date": "2020-10-07",
      "flow": 0.1903114186851211,
      "Latitude": "40.8943484",
      "Longitude": "-73.8603418"
    },
    {
      "SegmentID": "256800",
      "RoadwayName": "WEBSTER AVENUE",
      "From": "East 233rd Street",
      "To": "Orio J. Palmer Way",
      "Direction": "SB",
      "Date": "2020-10-07",
      "flow": 0.19377162629757785,
      "Latitude": "40.8943484",
      "Longitude": "-73.8603418"
    },
    {
      "SegmentID": "81384",
      "RoadwayName": "WEBSTER AVENUE",
      "From": "Woodlawn Cemetery Boundary",
      "To": "East Gun Hill Rd",
      "Direction": "NB",
      "Date": "2020-10-07",
      "flow": 0.07612456747404844,
      "Latitude": "40.8640107",
      "Longitude": "-73.8339775"
    },
    {
      "SegmentID": "81384",
      "RoadwayName": "WEBSTER AVENUE",
      "From": "Woodlawn Cemetery Boundary",
      "To": "East Gun Hill Rd",
      "Direction": "SB",
      "Date": "2020-10-07",
      "flow": 0.1453287197231834,
      "Latitude": "40.8640107",
      "Longitude": "-73.8339775"
    },
    {
      "SegmentID": "95195",
      "RoadwayName": "WESTCHESTER AVENUE",
      "From": "Bruckner Boulevard",
      "To": "Burr Avenue",
      "Direction": "SB",
      "Date": "2020-10-07",
      "flow": 0.15916955017301038,
      "Latitude": "40.8301747",
      "Longitude": "-73.8375135"
    },
    {
      "SegmentID": "147032",
      "RoadwayName": "WHITE PLAINS ROAD",
      "From": "East 215th Street",
      "To": "East 216th Street",
      "Direction": "NB",
      "Date": "2020-10-07",
      "flow": 0.21453287197231835,
      "Latitude": "40.8941458",
      "Longitude": "-73.8569108"
    },
    {
      "SegmentID": "132595",
      "RoadwayName": "WHITE PLAINS ROAD",
      "From": "East 215th Street",
      "To": "East 216th Street",
      "Direction": "SB",
      "Date": "2020-10-07",
      "flow": 0.30103806228373703,
      "Latitude": "40.8941458",
      "Longitude": "-73.8569108"
    }
  ],
  "4:00-5:00AM": [
    {
      "SegmentID": "8152",
      "RoadwayName": "BRIELLE AVENUE",
      "From": "Suffolk Avenue",
      "To": "Livingston Avenue",
      "Direction": "EB",
      "Date": "2020-10-07",
      "flow": 0.01263537906137184,
      "Latitude": "40.5989787",
      "Longitude": "-74.1230537"
    },
    {
      "SegmentID": "8152",
      "RoadwayName": "BRIELLE AVENUE",
      "From": "Suffolk Avenue",
      "To": "Livingston Avenue",
      "Direction": "WB",
      "Date": "2020-10-07",
      "flow": 0.01263537906137184,
      "Latitude": "40.5989787",
      "Longitude": "-74.1230537"
    },
    {
      "SegmentID": "147673",
      "RoadwayName": "BROADWAY",
      "From": "Van Cortlandt Park South",
      "To": "West 242nd Street",
      "Direction": "SB",
      "Date": "2020-10-07",
      "flow": 0.0740072202166065,
      "Latitude": "40.8020029",
      "Longitude": "-73.9679456"
    },
    {
      "SegmentID": "255653",
      "RoadwayName": "BROADWAY",
      "From": "Broadway/ 7 Avenue Line",
      "To": "Broadway/ 7 Avenue Line",
      "Direction": "SB",
      "Date": "2020-10-07",
      "flow": 0.05595667870036101,
      "Latitude": "40.8020029",
      "Longitude": "-73.9679456"
    },
    {
      "SegmentID": "158447",
      "RoadwayName": "BROADWAY",
      "From": "West 242nd Street",
      "To": "Van Cortlandt Park South",
      "Direction": "NB",
      "Date": "2020-10-07",
      "flow": 0.12454873646209386,
      "Latitude": "40.8020029",
      "Longitude": "-73.9679456"
    },
    {
      "SegmentID": "221955",
      "RoadwayName": "BROADWAY",
      "From": "West 260th Street",
      "To": "West 261st Street",
      "Direction": "NB",
      "Date": "2020-10-07",
      "flow": 0.11732851985559567,
      "Latitude": "40.8020029",
      "Longitude": "-73.9679456"
    },
    {
      "SegmentID": "221955",
      "RoadwayName": "BROADWAY",
      "From": "West 260th Street",
      "To": "West 261st Street",
      "Direction": "SB",
      "Date": "2020-10-07",
      "flow": 0.16787003610108303,
      "Latitude": "40.8020029",
      "Longitude": "-73.9679456"
    },
    {
      "SegmentID": "9003976",
      "RoadwayName": "BURKE AVENUE",
      "From": "Yates Avenue",
      "To": "Bouck Avenue",
      "Direction": "EB",
      "Date": "2020-10-07",
      "flow": 0.030685920577617327,
      "Latitude": "40.8714348",
      "Longitude": "-73.8671748"
    },
    {
      "SegmentID": "9003976",
      "RoadwayName": "BURKE AVENUE",
      "From": "Yates Avenue",
      "To": "Bouck Avenue",
      "Direction": "WB",
      "Date": "2020-10-07",
      "flow": 0.01444043321299639,
      "Latitude": "40.8714348",
      "Longitude": "-73.8671748"
    },
    {
      "SegmentID": "9002977",
      "RoadwayName": "CALHOUN AVENUE",
      "From": "East 177th Street",
      "To": "Dewey Avenue",
      "Direction": "NB",
      "Date": "2020-10-07",
      "flow": 0,
      "Latitude": "40.8363101",
      "Longitude": "-73.874253"
    },
    {
      "SegmentID": "9002977",
      "RoadwayName": "CALHOUN AVENUE",
      "From": "East 177th Street",
      "To": "Dewey Avenue",
      "Direction": "SB",
      "Date": "2020-10-07",
      "flow": 0.019855595667870037,
      "Latitude": "40.8363101",
      "Longitude": "-73.874253"
    },
    {
      "SegmentID": "160467",
      "RoadwayName": "CLOVE ROAD",
      "From": "Narrows Road North",
      "To": "Staten Island Expressway",
      "Direction": "NB",
      "Date": "2020-10-07",
      "flow": 0.1407942238267148,
      "Latitude": "40.6139911",
      "Longitude": "-74.1012626"
    },
    {
      "SegmentID": "160467",
      "RoadwayName": "CLOVE ROAD",
      "From": "Narrows Road North",
      "To": "Staten Island Expressway",
      "Direction": "SB",
      "Date": "2020-10-07",
      "flow": 0.26353790613718414,
      "Latitude": "40.6139911",
      "Longitude": "-74.1012626"
    },
    {
      "SegmentID": "254747",
      "RoadwayName": "DUTCH KILLS STREET",
      "From": "Jackson Avenue",
      "To": "Thomson Avenue",
      "Direction": "NB",
      "Date": "2020-10-07",
      "flow": 1,
      "Latitude": "40.7467382",
      "Longitude": "-73.940016"
    },
    {
      "SegmentID": "254742",
      "RoadwayName": "DUTCH KILLS STREET",
      "From": "Jackson Avenue",
      "To": "Thomson Avenue",
      "Direction": "NB",
      "Date": "2020-10-07",
      "flow": 0,
      "Latitude": "40.7467382",
      "Longitude": "-73.940016"
    },
    {
      "SegmentID": "254742",
      "RoadwayName": "DUTCH KILLS STREET",
      "From": "Jackson Avenue",
      "To": "Thomson Avenue",
      "Direction": "SB",
      "Date": "2020-10-07",
      "flow": 0,
      "Latitude": "40.7467382",
      "Longitude": "-73.940016"
    },
    {
      "SegmentID": "95624",
      "RoadwayName": "DYRE AVENUE",
      "From": "Lustre Street",
      "To": "West Kingsbridge Road",
      "Direction": "NB",
      "Date": "2020-10-07",
      "flow": 0.030685920577617327,
      "Latitude": "40.8906855",
      "Longitude": "-73.8311288"
    },
    {
      "SegmentID": "95624",
      "RoadwayName": "DYRE AVENUE",
      "From": "Lustre Street",
      "To": "West Kingsbridge Road",
      "Direction": "SB",
      "Date": "2020-10-07",
      "flow": 0.0740072202166065,
      "Latitude": "40.8906855",
      "Longitude": "-73.8311288"
    },
    {
      "SegmentID": "89278",
      "RoadwayName": "EAST 241st STREET",
      "From": "Carpenter Avenue",
      "To": "Matilda Avenue",
      "Direction": "EB",
      "Date": "2020-10-07",
      "flow": 0.0812274368231047,
      "Latitude": "40.886608",
      "Longitude": "-73.864505"
    },
    {
      "SegmentID": "89278",
      "RoadwayName": "EAST 241st STREET",
      "From": "Carpenter Avenue",
      "To": "Matilda Avenue",
      "Direction": "WB",
      "Date": "2020-10-07",
      "flow": 0.09205776173285199,
      "Latitude": "40.886608",
      "Longitude": "-73.864505"
    },
    {
      "SegmentID": "133279",
      "RoadwayName": "EAST FORDHAM ROAD",
      "From": "Bronx River Shoreline",
      "To": "Pelham Parkway",
      "Direction": "EB",
      "Date": "2020-10-07",
      "flow": 0.5487364620938628,
      "Latitude": "40.8554124",
      "Longitude": "-73.8767367"
    },
    {
      "SegmentID": "88518",
      "RoadwayName": "EASTCHESTER ROAD",
      "From": "Givan Avenue",
      "To": "Tillotson Avenue",
      "Direction": "NB",
      "Date": "2020-10-07",
      "flow": 0.03429602888086643,
      "Latitude": "40.8775139",
      "Longitude": "-73.8364539"
    },
    {
      "SegmentID": "88518",
      "RoadwayName": "EASTCHESTER ROAD",
      "From": "Givan Avenue",
      "To": "Tillotson Avenue",
      "Direction": "SB",
      "Date": "2020-10-07",
      "flow": 0.052346570397111915,
      "Latitude": "40.8775139",
      "Longitude": "-73.8364539"
    },
    {
      "SegmentID": "226748",
      "RoadwayName": "EDSON AVENUE",
      "From": "New England Thruway/ Edson Avenue",
      "To": "Bartow Avenue",
      "Direction": "SB",
      "Date": "2020-10-07",
      "flow": 0.2490974729241877,
      "Latitude": "40.8682393",
      "Longitude": "-73.8335456"
    },
    {
      "SegmentID": "154911",
      "RoadwayName": "ESPLANADE",
      "From": "Hone Avenue",
      "To": "Lurting Avenue",
      "Direction": "NB",
      "Date": "2020-10-07",
      "flow": 0.0036101083032490976,
      "Latitude": "40.8562345",
      "Longitude": "-73.8598498"
    },
    {
      "SegmentID": "154664",
      "RoadwayName": "ESPLANADE",
      "From": "Hone Avenue",
      "To": "Lurting Avenue",
      "Direction": "SB",
      "Date": "2020-10-07",
      "flow": 0.018050541516245487,
      "Latitude": "40.8562345",
      "Longitude": "-73.8598498"
    },
    {
      "SegmentID": "19259",
      "RoadwayName": "NEPTUNE AVENUE",
      "From": "West 12th Street",
      "To": "West End/ Sea Beach Line",
      "Direction": "EB",
      "Date": "2020-10-07",
      "flow": 0.06859205776173286,
      "Latitude": "40.5747728",
      "Longitude": "-73.9796628"
    },
    {
      "SegmentID": "19259",
      "RoadwayName": "NEPTUNE AVENUE",
      "From": "West 12th Street",
      "To": "West End/ Sea Beach Line",
      "Direction": "WB",
      "Date": "2020-10-07",
      "flow": 0.048736462093862815,
      "Latitude": "40.5747728",
      "Longitude": "-73.9796628"
    },
    {
      "SegmentID": "120618",
      "RoadwayName": "POLY PLACE",
      "From": "7th Avenue",
      "To": "Cropsey Avenue",
      "Direction": "EB",
      "Date": "2020-10-07",
      "flow": 0.04151624548736462,
      "Latitude": "40.7509212",
      "Longitude": "-73.9906766"
    },
    {
      "SegmentID": "120618",
      "RoadwayName": "POLY PLACE",
      "From": "7th Avenue",
      "To": "Cropsey Avenue",
      "Direction": "WB",
      "Date": "2020-10-07",
      "flow": 0.05054151624548736,
      "Latitude": "40.7509212",
      "Longitude": "-73.9906766"
    },
    {
      "SegmentID": "192425",
      "RoadwayName": "PROVOST AVENUE",
      "From": "East 233rd Street",
      "To": "East Kingsbridge Road",
      "Direction": "NB",
      "Date": "2020-10-07",
      "flow": 0.11913357400722022,
      "Latitude": "40.8943484",
      "Longitude": "-73.8603418"
    },
    {
      "SegmentID": "192425",
      "RoadwayName": "PROVOST AVENUE",
      "From": "East 233rd Street",
      "To": "East Kingsbridge Road",
      "Direction": "SB",
      "Date": "2020-10-07",
      "flow": 0.08664259927797834,
      "Latitude": "40.8943484",
      "Longitude": "-73.8603418"
    },
    {
      "SegmentID": "179513",
      "RoadwayName": "RANDALL AVENUE",
      "From": "East 177th Street",
      "To": "Cross Bronx Expressway",
      "Direction": "EB",
      "Date": "2020-10-07",
      "flow": 0.17870036101083034,
      "Latitude": "40.8363101",
      "Longitude": "-73.874253"
    },
    {
      "SegmentID": "179513",
      "RoadwayName": "RANDALL AVENUE",
      "From": "East 177th Street",
      "To": "Cross Bronx Expressway",
      "Direction": "WB",
      "Date": "2020-10-07",
      "flow": 0.02888086642599278,
      "Latitude": "40.8363101",
      "Longitude": "-73.874253"
    },
    {
      "SegmentID": "149201",
      "RoadwayName": "RICHMOND AVENUE",
      "From": "Forest Hill Road",
      "To": "Forest Hill Bridge",
      "Direction": "SB",
      "Date": "2020-10-07",
      "flow": 0.18231046931407943,
      "Latitude": "40.5864271",
      "Longitude": "-74.1462521"
    },
    {
      "SegmentID": "155387",
      "RoadwayName": "RICHMOND AVENUE",
      "From": "Forest Hill Road",
      "To": "Forest Hill Bridge",
      "Direction": "NB",
      "Date": "2020-10-07",
      "flow": 0.516245487364621,
      "Latitude": "40.5864271",
      "Longitude": "-74.1462521"
    },
    {
      "SegmentID": "8288",
      "RoadwayName": "RICHMOND",
      "From": "Hillman Avenue",
      "To": "Akron Street",
      "Direction": "NB",
      "Date": "2020-10-07",
      "flow": 0.2870036101083033,
      "Latitude": "40.612573",
      "Longitude": "-74.160427"
    },
    {
      "SegmentID": "8288",
      "RoadwayName": "RICHMOND",
      "From": "Hillman Avenue",
      "To": "Akron Street",
      "Direction": "SB",
      "Date": "2020-10-07",
      "flow": 0.06678700361010831,
      "Latitude": "40.612573",
      "Longitude": "-74.160427"
    },
    {
      "SegmentID": "73436",
      "RoadwayName": "RIVERDALE AVENUE",
      "From": "West 238th Street",
      "To": "West 239th Street",
      "Direction": "NB",
      "Date": "2020-10-07",
      "flow": 0.021660649819494584,
      "Latitude": "40.9122215",
      "Longitude": "-73.9026588"
    },
    {
      "SegmentID": "73436",
      "RoadwayName": "RIVERDALE AVENUE",
      "From": "West 238th Street",
      "To": "West 239th Street",
      "Direction": "SB",
      "Date": "2020-10-07",
      "flow": 0.04512635379061372,
      "Latitude": "40.9122215",
      "Longitude": "-73.9026588"
    },
    {
      "SegmentID": "150579",
      "RoadwayName": "SOUTH AVENUE",
      "From": "Lois Lane",
      "To": "Fahy Avenue",
      "Direction": "SB",
      "Date": "2020-10-07",
      "flow": 0.09566787003610108,
      "Latitude": "40.6156603",
      "Longitude": "-74.1728195"
    },
    {
      "SegmentID": "150578",
      "RoadwayName": "SOUTH AVENUE",
      "From": "Lois Lane",
      "To": "Fahy Avenue",
      "Direction": "NB",
      "Date": "2020-10-07",
      "flow": 0.0740072202166065,
      "Latitude": "40.6156603",
      "Longitude": "-74.1728195"
    },
    {
      "SegmentID": "112206",
      "RoadwayName": "TODT HILL ROAD",
      "From": "Sussex Avenue",
      "To": "Ocean Terrace",
      "Direction": "NB",
      "Date": "2020-10-07",
      "flow": 0.05956678700361011,
      "Latitude": "40.60327",
      "Longitude": "-74.115893"
    },
    {
      "SegmentID": "112206",
      "RoadwayName": "TODT HILL ROAD",
      "From": "Sussex Avenue",
      "To": "Ocean Terrace",
      "Direction": "SB",
      "Date": "2020-10-07",
      "flow": 0.061371841155234655,
      "Latitude": "40.60327",
      "Longitude": "-74.115893"
    },
    {
      "SegmentID": "114953",
      "RoadwayName": "VAN DUZER STREET",
      "From": "Court Street",
      "To": "Gordon Street",
      "Direction": "EB",
      "Date": "2020-10-07",
      "flow": 0.09566787003610108,
      "Latitude": "40.6255943",
      "Longitude": "-74.0844979"
    },
    {
      "SegmentID": "4832",
      "RoadwayName": "VICTORY BOULEVARD",
      "From": "Dinsmore Street",
      "To": "Signs Road",
      "Direction": "EB",
      "Date": "2020-10-07",
      "flow": 0.05956678700361011,
      "Latitude": "40.6042894",
      "Longitude": "-74.1701652"
    },
    {
      "SegmentID": "4832",
      "RoadwayName": "VICTORY BOULEVARD",
      "From": "Dinsmore Street",
      "To": "Signs Road",
      "Direction": "WB",
      "Date": "2020-10-07",
      "flow": 0.05054151624548736,
      "Latitude": "40.6042894",
      "Longitude": "-74.1701652"
    },
    {
      "SegmentID": "256800",
      "RoadwayName": "WEBSTER AVENUE",
      "From": "East 233rd Street",
      "To": "Orio J. Palmer Way",
      "Direction": "NB",
      "Date": "2020-10-07",
      "flow": 0.18953068592057762,
      "Latitude": "40.8943484",
      "Longitude": "-73.8603418"
    },
    {
      "SegmentID": "256800",
      "RoadwayName": "WEBSTER AVENUE",
      "From": "East 233rd Street",
      "To": "Orio J. Palmer Way",
      "Direction": "SB",
      "Date": "2020-10-07",
      "flow": 0.12274368231046931,
      "Latitude": "40.8943484",
      "Longitude": "-73.8603418"
    },
    {
      "SegmentID": "81384",
      "RoadwayName": "WEBSTER AVENUE",
      "From": "Woodlawn Cemetery Boundary",
      "To": "East Gun Hill Rd",
      "Direction": "NB",
      "Date": "2020-10-07",
      "flow": 0.09566787003610108,
      "Latitude": "40.8640107",
      "Longitude": "-73.8339775"
    },
    {
      "SegmentID": "81384",
      "RoadwayName": "WEBSTER AVENUE",
      "From": "Woodlawn Cemetery Boundary",
      "To": "East Gun Hill Rd",
      "Direction": "SB",
      "Date": "2020-10-07",
      "flow": 0.06498194945848375,
      "Latitude": "40.8640107",
      "Longitude": "-73.8339775"
    },
    {
      "SegmentID": "95195",
      "RoadwayName": "WESTCHESTER AVENUE",
      "From": "Bruckner Boulevard",
      "To": "Burr Avenue",
      "Direction": "SB",
      "Date": "2020-10-07",
      "flow": 0.17870036101083034,
      "Latitude": "40.8301747",
      "Longitude": "-73.8375135"
    },
    {
      "SegmentID": "147032",
      "RoadwayName": "WHITE PLAINS ROAD",
      "From": "East 215th Street",
      "To": "East 216th Street",
      "Direction": "NB",
      "Date": "2020-10-07",
      "flow": 0.10649819494584838,
      "Latitude": "40.8941458",
      "Longitude": "-73.8569108"
    },
    {
      "SegmentID": "132595",
      "RoadwayName": "WHITE PLAINS ROAD",
      "From": "East 215th Street",
      "To": "East 216th Street",
      "Direction": "SB",
      "Date": "2020-10-07",
      "flow": 0.1624548736462094,
      "Latitude": "40.8941458",
      "Longitude": "-73.8569108"
    }
  ],
  "5:00-6:00AM": [
    {
      "SegmentID": "8152",
      "RoadwayName": "BRIELLE AVENUE",
      "From": "Suffolk Avenue",
      "To": "Livingston Avenue",
      "Direction": "EB",
      "Date": "2020-10-07",
      "flow": 0.01728608470181504,
      "Latitude": "40.5989787",
      "Longitude": "-74.1230537"
    },
    {
      "SegmentID": "8152",
      "RoadwayName": "BRIELLE AVENUE",
      "From": "Suffolk Avenue",
      "To": "Livingston Avenue",
      "Direction": "WB",
      "Date": "2020-10-07",
      "flow": 0.006050129645635264,
      "Latitude": "40.5989787",
      "Longitude": "-74.1230537"
    },
    {
      "SegmentID": "147673",
      "RoadwayName": "BROADWAY",
      "From": "Van Cortlandt Park South",
      "To": "West 242nd Street",
      "Direction": "SB",
      "Date": "2020-10-07",
      "flow": 0.08124459809853068,
      "Latitude": "40.8020029",
      "Longitude": "-73.9679456"
    },
    {
      "SegmentID": "255653",
      "RoadwayName": "BROADWAY",
      "From": "Broadway/ 7 Avenue Line",
      "To": "Broadway/ 7 Avenue Line",
      "Direction": "SB",
      "Date": "2020-10-07",
      "flow": 0.07173725151253241,
      "Latitude": "40.8020029",
      "Longitude": "-73.9679456"
    },
    {
      "SegmentID": "158447",
      "RoadwayName": "BROADWAY",
      "From": "West 242nd Street",
      "To": "Van Cortlandt Park South",
      "Direction": "NB",
      "Date": "2020-10-07",
      "flow": 0.14866032843560933,
      "Latitude": "40.8020029",
      "Longitude": "-73.9679456"
    },
    {
      "SegmentID": "221955",
      "RoadwayName": "BROADWAY",
      "From": "West 260th Street",
      "To": "West 261st Street",
      "Direction": "NB",
      "Date": "2020-10-07",
      "flow": 0.09939498703543648,
      "Latitude": "40.8020029",
      "Longitude": "-73.9679456"
    },
    {
      "SegmentID": "221955",
      "RoadwayName": "BROADWAY",
      "From": "West 260th Street",
      "To": "West 261st Street",
      "Direction": "SB",
      "Date": "2020-10-07",
      "flow": 0.20743301642178047,
      "Latitude": "40.8020029",
      "Longitude": "-73.9679456"
    },
    {
      "SegmentID": "9003976",
      "RoadwayName": "BURKE AVENUE",
      "From": "Yates Avenue",
      "To": "Bouck Avenue",
      "Direction": "EB",
      "Date": "2020-10-07",
      "flow": 0.03975799481417459,
      "Latitude": "40.8714348",
      "Longitude": "-73.8671748"
    },
    {
      "SegmentID": "9003976",
      "RoadwayName": "BURKE AVENUE",
      "From": "Yates Avenue",
      "To": "Bouck Avenue",
      "Direction": "WB",
      "Date": "2020-10-07",
      "flow": 0.024200518582541054,
      "Latitude": "40.8714348",
      "Longitude": "-73.8671748"
    },
    {
      "SegmentID": "9002977",
      "RoadwayName": "CALHOUN AVENUE",
      "From": "East 177th Street",
      "To": "Dewey Avenue",
      "Direction": "NB",
      "Date": "2020-10-07",
      "flow": 0.001728608470181504,
      "Latitude": "40.8363101",
      "Longitude": "-73.874253"
    },
    {
      "SegmentID": "9002977",
      "RoadwayName": "CALHOUN AVENUE",
      "From": "East 177th Street",
      "To": "Dewey Avenue",
      "Direction": "SB",
      "Date": "2020-10-07",
      "flow": 0.007778738115816767,
      "Latitude": "40.8363101",
      "Longitude": "-73.874253"
    },
    {
      "SegmentID": "160467",
      "RoadwayName": "CLOVE ROAD",
      "From": "Narrows Road North",
      "To": "Staten Island Expressway",
      "Direction": "NB",
      "Date": "2020-10-07",
      "flow": 0.12186689714779603,
      "Latitude": "40.6139911",
      "Longitude": "-74.1012626"
    },
    {
      "SegmentID": "160467",
      "RoadwayName": "CLOVE ROAD",
      "From": "Narrows Road North",
      "To": "Staten Island Expressway",
      "Direction": "SB",
      "Date": "2020-10-07",
      "flow": 0.31892826274848746,
      "Latitude": "40.6139911",
      "Longitude": "-74.1012626"
    },
    {
      "SegmentID": "254747",
      "RoadwayName": "DUTCH KILLS STREET",
      "From": "Jackson Avenue",
      "To": "Thomson Avenue",
      "Direction": "NB",
      "Date": "2020-10-07",
      "flow": 1,
      "Latitude": "40.7467382",
      "Longitude": "-73.940016"
    },
    {
      "SegmentID": "254742",
      "RoadwayName": "DUTCH KILLS STREET",
      "From": "Jackson Avenue",
      "To": "Thomson Avenue",
      "Direction": "NB",
      "Date": "2020-10-07",
      "flow": 0,
      "Latitude": "40.7467382",
      "Longitude": "-73.940016"
    },
    {
      "SegmentID": "254742",
      "RoadwayName": "DUTCH KILLS STREET",
      "From": "Jackson Avenue",
      "To": "Thomson Avenue",
      "Direction": "SB",
      "Date": "2020-10-07",
      "flow": 0.1365600691443388,
      "Latitude": "40.7467382",
      "Longitude": "-73.940016"
    },
    {
      "SegmentID": "95624",
      "RoadwayName": "DYRE AVENUE",
      "From": "Lustre Street",
      "To": "West Kingsbridge Road",
      "Direction": "NB",
      "Date": "2020-10-07",
      "flow": 0.05012964563526361,
      "Latitude": "40.8906855",
      "Longitude": "-73.8311288"
    },
    {
      "SegmentID": "95624",
      "RoadwayName": "DYRE AVENUE",
      "From": "Lustre Street",
      "To": "West Kingsbridge Road",
      "Direction": "SB",
      "Date": "2020-10-07",
      "flow": 0.08210890233362143,
      "Latitude": "40.8906855",
      "Longitude": "-73.8311288"
    },
    {
      "SegmentID": "89278",
      "RoadwayName": "EAST 241st STREET",
      "From": "Carpenter Avenue",
      "To": "Matilda Avenue",
      "Direction": "EB",
      "Date": "2020-10-07",
      "flow": 0.09593777009507347,
      "Latitude": "40.886608",
      "Longitude": "-73.864505"
    },
    {
      "SegmentID": "89278",
      "RoadwayName": "EAST 241st STREET",
      "From": "Carpenter Avenue",
      "To": "Matilda Avenue",
      "Direction": "WB",
      "Date": "2020-10-07",
      "flow": 0.1097666378565255,
      "Latitude": "40.886608",
      "Longitude": "-73.864505"
    },
    {
      "SegmentID": "133279",
      "RoadwayName": "EAST FORDHAM ROAD",
      "From": "Bronx River Shoreline",
      "To": "Pelham Parkway",
      "Direction": "EB",
      "Date": "2020-10-07",
      "flow": 0.4641313742437338,
      "Latitude": "40.8554124",
      "Longitude": "-73.8767367"
    },
    {
      "SegmentID": "88518",
      "RoadwayName": "EASTCHESTER ROAD",
      "From": "Givan Avenue",
      "To": "Tillotson Avenue",
      "Direction": "NB",
      "Date": "2020-10-07",
      "flow": 0.045808124459809856,
      "Latitude": "40.8775139",
      "Longitude": "-73.8364539"
    },
    {
      "SegmentID": "88518",
      "RoadwayName": "EASTCHESTER ROAD",
      "From": "Givan Avenue",
      "To": "Tillotson Avenue",
      "Direction": "SB",
      "Date": "2020-10-07",
      "flow": 0.05445116681071737,
      "Latitude": "40.8775139",
      "Longitude": "-73.8364539"
    },
    {
      "SegmentID": "226748",
      "RoadwayName": "EDSON AVENUE",
      "From": "New England Thruway/ Edson Avenue",
      "To": "Bartow Avenue",
      "Direction": "SB",
      "Date": "2020-10-07",
      "flow": 0.31201382886776147,
      "Latitude": "40.8682393",
      "Longitude": "-73.8335456"
    },
    {
      "SegmentID": "154911",
      "RoadwayName": "ESPLANADE",
      "From": "Hone Avenue",
      "To": "Lurting Avenue",
      "Direction": "NB",
      "Date": "2020-10-07",
      "flow": 0.005185825410544511,
      "Latitude": "40.8562345",
      "Longitude": "-73.8598498"
    },
    {
      "SegmentID": "154664",
      "RoadwayName": "ESPLANADE",
      "From": "Hone Avenue",
      "To": "Lurting Avenue",
      "Direction": "SB",
      "Date": "2020-10-07",
      "flow": 0.010371650821089023,
      "Latitude": "40.8562345",
      "Longitude": "-73.8598498"
    },
    {
      "SegmentID": "19259",
      "RoadwayName": "NEPTUNE AVENUE",
      "From": "West 12th Street",
      "To": "West End/ Sea Beach Line",
      "Direction": "EB",
      "Date": "2020-10-07",
      "flow": 0.10371650821089023,
      "Latitude": "40.5747728",
      "Longitude": "-73.9796628"
    },
    {
      "SegmentID": "19259",
      "RoadwayName": "NEPTUNE AVENUE",
      "From": "West 12th Street",
      "To": "West End/ Sea Beach Line",
      "Direction": "WB",
      "Date": "2020-10-07",
      "flow": 0.03802938634399308,
      "Latitude": "40.5747728",
      "Longitude": "-73.9796628"
    },
    {
      "SegmentID": "120618",
      "RoadwayName": "POLY PLACE",
      "From": "7th Avenue",
      "To": "Cropsey Avenue",
      "Direction": "EB",
      "Date": "2020-10-07",
      "flow": 0.058772687986171135,
      "Latitude": "40.7509212",
      "Longitude": "-73.9906766"
    },
    {
      "SegmentID": "120618",
      "RoadwayName": "POLY PLACE",
      "From": "7th Avenue",
      "To": "Cropsey Avenue",
      "Direction": "WB",
      "Date": "2020-10-07",
      "flow": 0.06914433880726016,
      "Latitude": "40.7509212",
      "Longitude": "-73.9906766"
    },
    {
      "SegmentID": "192425",
      "RoadwayName": "PROVOST AVENUE",
      "From": "East 233rd Street",
      "To": "East Kingsbridge Road",
      "Direction": "NB",
      "Date": "2020-10-07",
      "flow": 0.11927398444252377,
      "Latitude": "40.8943484",
      "Longitude": "-73.8603418"
    },
    {
      "SegmentID": "192425",
      "RoadwayName": "PROVOST AVENUE",
      "From": "East 233rd Street",
      "To": "East Kingsbridge Road",
      "Direction": "SB",
      "Date": "2020-10-07",
      "flow": 0.12013828867761452,
      "Latitude": "40.8943484",
      "Longitude": "-73.8603418"
    },
    {
      "SegmentID": "179513",
      "RoadwayName": "RANDALL AVENUE",
      "From": "East 177th Street",
      "To": "Cross Bronx Expressway",
      "Direction": "EB",
      "Date": "2020-10-07",
      "flow": 0.15384615384615385,
      "Latitude": "40.8363101",
      "Longitude": "-73.874253"
    },
    {
      "SegmentID": "179513",
      "RoadwayName": "RANDALL AVENUE",
      "From": "East 177th Street",
      "To": "Cross Bronx Expressway",
      "Direction": "WB",
      "Date": "2020-10-07",
      "flow": 0.027657735522904063,
      "Latitude": "40.8363101",
      "Longitude": "-73.874253"
    },
    {
      "SegmentID": "149201",
      "RoadwayName": "RICHMOND AVENUE",
      "From": "Forest Hill Road",
      "To": "Forest Hill Bridge",
      "Direction": "SB",
      "Date": "2020-10-07",
      "flow": 0.15903197925669835,
      "Latitude": "40.5864271",
      "Longitude": "-74.1462521"
    },
    {
      "SegmentID": "155387",
      "RoadwayName": "RICHMOND AVENUE",
      "From": "Forest Hill Road",
      "To": "Forest Hill Bridge",
      "Direction": "NB",
      "Date": "2020-10-07",
      "flow": 0.5211754537597234,
      "Latitude": "40.5864271",
      "Longitude": "-74.1462521"
    },
    {
      "SegmentID": "8288",
      "RoadwayName": "RICHMOND",
      "From": "Hillman Avenue",
      "To": "Akron Street",
      "Direction": "NB",
      "Date": "2020-10-07",
      "flow": 0.31547104580812446,
      "Latitude": "40.612573",
      "Longitude": "-74.160427"
    },
    {
      "SegmentID": "8288",
      "RoadwayName": "RICHMOND",
      "From": "Hillman Avenue",
      "To": "Akron Street",
      "Direction": "SB",
      "Date": "2020-10-07",
      "flow": 0.05704407951598963,
      "Latitude": "40.612573",
      "Longitude": "-74.160427"
    },
    {
      "SegmentID": "73436",
      "RoadwayName": "RIVERDALE AVENUE",
      "From": "West 238th Street",
      "To": "West 239th Street",
      "Direction": "NB",
      "Date": "2020-10-07",
      "flow": 0.06050129645635264,
      "Latitude": "40.9122215",
      "Longitude": "-73.9026588"
    },
    {
      "SegmentID": "73436",
      "RoadwayName": "RIVERDALE AVENUE",
      "From": "West 238th Street",
      "To": "West 239th Street",
      "Direction": "SB",
      "Date": "2020-10-07",
      "flow": 0.06482281763180639,
      "Latitude": "40.9122215",
      "Longitude": "-73.9026588"
    },
    {
      "SegmentID": "150579",
      "RoadwayName": "SOUTH AVENUE",
      "From": "Lois Lane",
      "To": "Fahy Avenue",
      "Direction": "SB",
      "Date": "2020-10-07",
      "flow": 0.15038893690579083,
      "Latitude": "40.6156603",
      "Longitude": "-74.1728195"
    },
    {
      "SegmentID": "150578",
      "RoadwayName": "SOUTH AVENUE",
      "From": "Lois Lane",
      "To": "Fahy Avenue",
      "Direction": "NB",
      "Date": "2020-10-07",
      "flow": 0.08124459809853068,
      "Latitude": "40.6156603",
      "Longitude": "-74.1728195"
    },
    {
      "SegmentID": "112206",
      "RoadwayName": "TODT HILL ROAD",
      "From": "Sussex Avenue",
      "To": "Ocean Terrace",
      "Direction": "NB",
      "Date": "2020-10-07",
      "flow": 0.12791702679343128,
      "Latitude": "40.60327",
      "Longitude": "-74.115893"
    },
    {
      "SegmentID": "112206",
      "RoadwayName": "TODT HILL ROAD",
      "From": "Sussex Avenue",
      "To": "Ocean Terrace",
      "Direction": "SB",
      "Date": "2020-10-07",
      "flow": 0.08729472774416594,
      "Latitude": "40.60327",
      "Longitude": "-74.115893"
    },
    {
      "SegmentID": "114953",
      "RoadwayName": "VAN DUZER STREET",
      "From": "Court Street",
      "To": "Gordon Street",
      "Direction": "EB",
      "Date": "2020-10-07",
      "flow": 0.0847018150388937,
      "Latitude": "40.6255943",
      "Longitude": "-74.0844979"
    },
    {
      "SegmentID": "4832",
      "RoadwayName": "VICTORY BOULEVARD",
      "From": "Dinsmore Street",
      "To": "Signs Road",
      "Direction": "EB",
      "Date": "2020-10-07",
      "flow": 0.056179775280898875,
      "Latitude": "40.6042894",
      "Longitude": "-74.1701652"
    },
    {
      "SegmentID": "4832",
      "RoadwayName": "VICTORY BOULEVARD",
      "From": "Dinsmore Street",
      "To": "Signs Road",
      "Direction": "WB",
      "Date": "2020-10-07",
      "flow": 0.046672428694900604,
      "Latitude": "40.6042894",
      "Longitude": "-74.1701652"
    },
    {
      "SegmentID": "256800",
      "RoadwayName": "WEBSTER AVENUE",
      "From": "East 233rd Street",
      "To": "Orio J. Palmer Way",
      "Direction": "NB",
      "Date": "2020-10-07",
      "flow": 0.18668971477960242,
      "Latitude": "40.8943484",
      "Longitude": "-73.8603418"
    },
    {
      "SegmentID": "256800",
      "RoadwayName": "WEBSTER AVENUE",
      "From": "East 233rd Street",
      "To": "Orio J. Palmer Way",
      "Direction": "SB",
      "Date": "2020-10-07",
      "flow": 0.12791702679343128,
      "Latitude": "40.8943484",
      "Longitude": "-73.8603418"
    },
    {
      "SegmentID": "81384",
      "RoadwayName": "WEBSTER AVENUE",
      "From": "Woodlawn Cemetery Boundary",
      "To": "East Gun Hill Rd",
      "Direction": "NB",
      "Date": "2020-10-07",
      "flow": 0.08729472774416594,
      "Latitude": "40.8640107",
      "Longitude": "-73.8339775"
    },
    {
      "SegmentID": "81384",
      "RoadwayName": "WEBSTER AVENUE",
      "From": "Woodlawn Cemetery Boundary",
      "To": "East Gun Hill Rd",
      "Direction": "SB",
      "Date": "2020-10-07",
      "flow": 0.10198789974070872,
      "Latitude": "40.8640107",
      "Longitude": "-73.8339775"
    },
    {
      "SegmentID": "95195",
      "RoadwayName": "WESTCHESTER AVENUE",
      "From": "Bruckner Boulevard",
      "To": "Burr Avenue",
      "Direction": "SB",
      "Date": "2020-10-07",
      "flow": 0.22731201382886776,
      "Latitude": "40.8301747",
      "Longitude": "-73.8375135"
    },
    {
      "SegmentID": "147032",
      "RoadwayName": "WHITE PLAINS ROAD",
      "From": "East 215th Street",
      "To": "East 216th Street",
      "Direction": "NB",
      "Date": "2020-10-07",
      "flow": 0.07087294727744166,
      "Latitude": "40.8941458",
      "Longitude": "-73.8569108"
    },
    {
      "SegmentID": "132595",
      "RoadwayName": "WHITE PLAINS ROAD",
      "From": "East 215th Street",
      "To": "East 216th Street",
      "Direction": "SB",
      "Date": "2020-10-07",
      "flow": 0.13742437337942956,
      "Latitude": "40.8941458",
      "Longitude": "-73.8569108"
    }
  ],
  "6:00-7:00AM": [
    {
      "SegmentID": "8152",
      "RoadwayName": "BRIELLE AVENUE",
      "From": "Suffolk Avenue",
      "To": "Livingston Avenue",
      "Direction": "EB",
      "Date": "2020-10-07",
      "flow": 0.04849279161205767,
      "Latitude": "40.5989787",
      "Longitude": "-74.1230537"
    },
    {
      "SegmentID": "8152",
      "RoadwayName": "BRIELLE AVENUE",
      "From": "Suffolk Avenue",
      "To": "Livingston Avenue",
      "Direction": "WB",
      "Date": "2020-10-07",
      "flow": 0.02948885976408912,
      "Latitude": "40.5989787",
      "Longitude": "-74.1230537"
    },
    {
      "SegmentID": "147673",
      "RoadwayName": "BROADWAY",
      "From": "Van Cortlandt Park South",
      "To": "West 242nd Street",
      "Direction": "SB",
      "Date": "2020-10-07",
      "flow": 0.14416775884665792,
      "Latitude": "40.8020029",
      "Longitude": "-73.9679456"
    },
    {
      "SegmentID": "255653",
      "RoadwayName": "BROADWAY",
      "From": "Broadway/ 7 Avenue Line",
      "To": "Broadway/ 7 Avenue Line",
      "Direction": "SB",
      "Date": "2020-10-07",
      "flow": 0.0727391874180865,
      "Latitude": "40.8020029",
      "Longitude": "-73.9679456"
    },
    {
      "SegmentID": "158447",
      "RoadwayName": "BROADWAY",
      "From": "West 242nd Street",
      "To": "Van Cortlandt Park South",
      "Direction": "NB",
      "Date": "2020-10-07",
      "flow": 0.21035386631716907,
      "Latitude": "40.8020029",
      "Longitude": "-73.9679456"
    },
    {
      "SegmentID": "221955",
      "RoadwayName": "BROADWAY",
      "From": "West 260th Street",
      "To": "West 261st Street",
      "Direction": "NB",
      "Date": "2020-10-07",
      "flow": 0.16710353866317168,
      "Latitude": "40.8020029",
      "Longitude": "-73.9679456"
    },
    {
      "SegmentID": "221955",
      "RoadwayName": "BROADWAY",
      "From": "West 260th Street",
      "To": "West 261st Street",
      "Direction": "SB",
      "Date": "2020-10-07",
      "flow": 0.30013106159895153,
      "Latitude": "40.8020029",
      "Longitude": "-73.9679456"
    },
    {
      "SegmentID": "9003976",
      "RoadwayName": "BURKE AVENUE",
      "From": "Yates Avenue",
      "To": "Bouck Avenue",
      "Direction": "EB",
      "Date": "2020-10-07",
      "flow": 0.05111402359108781,
      "Latitude": "40.8714348",
      "Longitude": "-73.8671748"
    },
    {
      "SegmentID": "9003976",
      "RoadwayName": "BURKE AVENUE",
      "From": "Yates Avenue",
      "To": "Bouck Avenue",
      "Direction": "WB",
      "Date": "2020-10-07",
      "flow": 0.05111402359108781,
      "Latitude": "40.8714348",
      "Longitude": "-73.8671748"
    },
    {
      "SegmentID": "9002977",
      "RoadwayName": "CALHOUN AVENUE",
      "From": "East 177th Street",
      "To": "Dewey Avenue",
      "Direction": "NB",
      "Date": "2020-10-07",
      "flow": 0.002621231979030144,
      "Latitude": "40.8363101",
      "Longitude": "-73.874253"
    },
    {
      "SegmentID": "9002977",
      "RoadwayName": "CALHOUN AVENUE",
      "From": "East 177th Street",
      "To": "Dewey Avenue",
      "Direction": "SB",
      "Date": "2020-10-07",
      "flow": 0.014416775884665793,
      "Latitude": "40.8363101",
      "Longitude": "-73.874253"
    },
    {
      "SegmentID": "160467",
      "RoadwayName": "CLOVE ROAD",
      "From": "Narrows Road North",
      "To": "Staten Island Expressway",
      "Direction": "NB",
      "Date": "2020-10-07",
      "flow": 0.15727391874180865,
      "Latitude": "40.6139911",
      "Longitude": "-74.1012626"
    },
    {
      "SegmentID": "160467",
      "RoadwayName": "CLOVE ROAD",
      "From": "Narrows Road North",
      "To": "Staten Island Expressway",
      "Direction": "SB",
      "Date": "2020-10-07",
      "flow": 0.46068152031454784,
      "Latitude": "40.6139911",
      "Longitude": "-74.1012626"
    },
    {
      "SegmentID": "254747",
      "RoadwayName": "DUTCH KILLS STREET",
      "From": "Jackson Avenue",
      "To": "Thomson Avenue",
      "Direction": "NB",
      "Date": "2020-10-07",
      "flow": 0.7116644823066841,
      "Latitude": "40.7467382",
      "Longitude": "-73.940016"
    },
    {
      "SegmentID": "254742",
      "RoadwayName": "DUTCH KILLS STREET",
      "From": "Jackson Avenue",
      "To": "Thomson Avenue",
      "Direction": "NB",
      "Date": "2020-10-07",
      "flow": 0.4521625163826999,
      "Latitude": "40.7467382",
      "Longitude": "-73.940016"
    },
    {
      "SegmentID": "254742",
      "RoadwayName": "DUTCH KILLS STREET",
      "From": "Jackson Avenue",
      "To": "Thomson Avenue",
      "Direction": "SB",
      "Date": "2020-10-07",
      "flow": 0,
      "Latitude": "40.7467382",
      "Longitude": "-73.940016"
    },
    {
      "SegmentID": "95624",
      "RoadwayName": "DYRE AVENUE",
      "From": "Lustre Street",
      "To": "West Kingsbridge Road",
      "Direction": "NB",
      "Date": "2020-10-07",
      "flow": 0.062254259501965926,
      "Latitude": "40.8906855",
      "Longitude": "-73.8311288"
    },
    {
      "SegmentID": "95624",
      "RoadwayName": "DYRE AVENUE",
      "From": "Lustre Street",
      "To": "West Kingsbridge Road",
      "Direction": "SB",
      "Date": "2020-10-07",
      "flow": 0.13695937090432503,
      "Latitude": "40.8906855",
      "Longitude": "-73.8311288"
    },
    {
      "SegmentID": "89278",
      "RoadwayName": "EAST 241st STREET",
      "From": "Carpenter Avenue",
      "To": "Matilda Avenue",
      "Direction": "EB",
      "Date": "2020-10-07",
      "flow": 0.15203145478374835,
      "Latitude": "40.886608",
      "Longitude": "-73.864505"
    },
    {
      "SegmentID": "89278",
      "RoadwayName": "EAST 241st STREET",
      "From": "Carpenter Avenue",
      "To": "Matilda Avenue",
      "Direction": "WB",
      "Date": "2020-10-07",
      "flow": 0.1913499344692005,
      "Latitude": "40.886608",
      "Longitude": "-73.864505"
    },
    {
      "SegmentID": "133279",
      "RoadwayName": "EAST FORDHAM ROAD",
      "From": "Bronx River Shoreline",
      "To": "Pelham Parkway",
      "Direction": "EB",
      "Date": "2020-10-07",
      "flow": 0.5786369593709043,
      "Latitude": "40.8554124",
      "Longitude": "-73.8767367"
    },
    {
      "SegmentID": "88518",
      "RoadwayName": "EASTCHESTER ROAD",
      "From": "Givan Avenue",
      "To": "Tillotson Avenue",
      "Direction": "NB",
      "Date": "2020-10-07",
      "flow": 0.07732634338138926,
      "Latitude": "40.8775139",
      "Longitude": "-73.8364539"
    },
    {
      "SegmentID": "88518",
      "RoadwayName": "EASTCHESTER ROAD",
      "From": "Givan Avenue",
      "To": "Tillotson Avenue",
      "Direction": "SB",
      "Date": "2020-10-07",
      "flow": 0.1127129750982962,
      "Latitude": "40.8775139",
      "Longitude": "-73.8364539"
    },
    {
      "SegmentID": "226748",
      "RoadwayName": "EDSON AVENUE",
      "From": "New England Thruway/ Edson Avenue",
      "To": "Bartow Avenue",
      "Direction": "SB",
      "Date": "2020-10-07",
      "flow": 0.3761467889908257,
      "Latitude": "40.8682393",
      "Longitude": "-73.8335456"
    },
    {
      "SegmentID": "154911",
      "RoadwayName": "ESPLANADE",
      "From": "Hone Avenue",
      "To": "Lurting Avenue",
      "Direction": "NB",
      "Date": "2020-10-07",
      "flow": 0.011140235910878113,
      "Latitude": "40.8562345",
      "Longitude": "-73.8598498"
    },
    {
      "SegmentID": "154664",
      "RoadwayName": "ESPLANADE",
      "From": "Hone Avenue",
      "To": "Lurting Avenue",
      "Direction": "SB",
      "Date": "2020-10-07",
      "flow": 0.020314547837483616,
      "Latitude": "40.8562345",
      "Longitude": "-73.8598498"
    },
    {
      "SegmentID": "19259",
      "RoadwayName": "NEPTUNE AVENUE",
      "From": "West 12th Street",
      "To": "West End/ Sea Beach Line",
      "Direction": "EB",
      "Date": "2020-10-07",
      "flow": 0.17627785058977719,
      "Latitude": "40.5747728",
      "Longitude": "-73.9796628"
    },
    {
      "SegmentID": "19259",
      "RoadwayName": "NEPTUNE AVENUE",
      "From": "West 12th Street",
      "To": "West End/ Sea Beach Line",
      "Direction": "WB",
      "Date": "2020-10-07",
      "flow": 0.09239842726081259,
      "Latitude": "40.5747728",
      "Longitude": "-73.9796628"
    },
    {
      "SegmentID": "120618",
      "RoadwayName": "POLY PLACE",
      "From": "7th Avenue",
      "To": "Cropsey Avenue",
      "Direction": "EB",
      "Date": "2020-10-07",
      "flow": 0.1310615989515072,
      "Latitude": "40.7509212",
      "Longitude": "-73.9906766"
    },
    {
      "SegmentID": "120618",
      "RoadwayName": "POLY PLACE",
      "From": "7th Avenue",
      "To": "Cropsey Avenue",
      "Direction": "WB",
      "Date": "2020-10-07",
      "flow": 0.10484927916120576,
      "Latitude": "40.7509212",
      "Longitude": "-73.9906766"
    },
    {
      "SegmentID": "192425",
      "RoadwayName": "PROVOST AVENUE",
      "From": "East 233rd Street",
      "To": "East Kingsbridge Road",
      "Direction": "NB",
      "Date": "2020-10-07",
      "flow": 0.19397116644823068,
      "Latitude": "40.8943484",
      "Longitude": "-73.8603418"
    },
    {
      "SegmentID": "192425",
      "RoadwayName": "PROVOST AVENUE",
      "From": "East 233rd Street",
      "To": "East Kingsbridge Road",
      "Direction": "SB",
      "Date": "2020-10-07",
      "flow": 0.18479685452162517,
      "Latitude": "40.8943484",
      "Longitude": "-73.8603418"
    },
    {
      "SegmentID": "179513",
      "RoadwayName": "RANDALL AVENUE",
      "From": "East 177th Street",
      "To": "Cross Bronx Expressway",
      "Direction": "EB",
      "Date": "2020-10-07",
      "flow": 0.22083879423328964,
      "Latitude": "40.8363101",
      "Longitude": "-73.874253"
    },
    {
      "SegmentID": "179513",
      "RoadwayName": "RANDALL AVENUE",
      "From": "East 177th Street",
      "To": "Cross Bronx Expressway",
      "Direction": "WB",
      "Date": "2020-10-07",
      "flow": 0.045871559633027525,
      "Latitude": "40.8363101",
      "Longitude": "-73.874253"
    },
    {
      "SegmentID": "149201",
      "RoadwayName": "RICHMOND AVENUE",
      "From": "Forest Hill Road",
      "To": "Forest Hill Bridge",
      "Direction": "SB",
      "Date": "2020-10-07",
      "flow": 0.24508519003931847,
      "Latitude": "40.5864271",
      "Longitude": "-74.1462521"
    },
    {
      "SegmentID": "155387",
      "RoadwayName": "RICHMOND AVENUE",
      "From": "Forest Hill Road",
      "To": "Forest Hill Bridge",
      "Direction": "NB",
      "Date": "2020-10-07",
      "flow": 1,
      "Latitude": "40.5864271",
      "Longitude": "-74.1462521"
    },
    {
      "SegmentID": "8288",
      "RoadwayName": "RICHMOND",
      "From": "Hillman Avenue",
      "To": "Akron Street",
      "Direction": "NB",
      "Date": "2020-10-07",
      "flow": 0.4895150720838794,
      "Latitude": "40.612573",
      "Longitude": "-74.160427"
    },
    {
      "SegmentID": "8288",
      "RoadwayName": "RICHMOND",
      "From": "Hillman Avenue",
      "To": "Akron Street",
      "Direction": "SB",
      "Date": "2020-10-07",
      "flow": 0.11664482306684142,
      "Latitude": "40.612573",
      "Longitude": "-74.160427"
    },
    {
      "SegmentID": "73436",
      "RoadwayName": "RIVERDALE AVENUE",
      "From": "West 238th Street",
      "To": "West 239th Street",
      "Direction": "NB",
      "Date": "2020-10-07",
      "flow": 0.10157273918741809,
      "Latitude": "40.9122215",
      "Longitude": "-73.9026588"
    },
    {
      "SegmentID": "73436",
      "RoadwayName": "RIVERDALE AVENUE",
      "From": "West 238th Street",
      "To": "West 239th Street",
      "Direction": "SB",
      "Date": "2020-10-07",
      "flow": 0.1251638269986894,
      "Latitude": "40.9122215",
      "Longitude": "-73.9026588"
    },
    {
      "SegmentID": "150579",
      "RoadwayName": "SOUTH AVENUE",
      "From": "Lois Lane",
      "To": "Fahy Avenue",
      "Direction": "SB",
      "Date": "2020-10-07",
      "flow": 0.18414154652686762,
      "Latitude": "40.6156603",
      "Longitude": "-74.1728195"
    },
    {
      "SegmentID": "150578",
      "RoadwayName": "SOUTH AVENUE",
      "From": "Lois Lane",
      "To": "Fahy Avenue",
      "Direction": "NB",
      "Date": "2020-10-07",
      "flow": 0.1251638269986894,
      "Latitude": "40.6156603",
      "Longitude": "-74.1728195"
    },
    {
      "SegmentID": "112206",
      "RoadwayName": "TODT HILL ROAD",
      "From": "Sussex Avenue",
      "To": "Ocean Terrace",
      "Direction": "NB",
      "Date": "2020-10-07",
      "flow": 0.19200524246395806,
      "Latitude": "40.60327",
      "Longitude": "-74.115893"
    },
    {
      "SegmentID": "112206",
      "RoadwayName": "TODT HILL ROAD",
      "From": "Sussex Avenue",
      "To": "Ocean Terrace",
      "Direction": "SB",
      "Date": "2020-10-07",
      "flow": 0.190694626474443,
      "Latitude": "40.60327",
      "Longitude": "-74.115893"
    },
    {
      "SegmentID": "114953",
      "RoadwayName": "VAN DUZER STREET",
      "From": "Court Street",
      "To": "Gordon Street",
      "Direction": "EB",
      "Date": "2020-10-07",
      "flow": 0.1435124508519004,
      "Latitude": "40.6255943",
      "Longitude": "-74.0844979"
    },
    {
      "SegmentID": "4832",
      "RoadwayName": "VICTORY BOULEVARD",
      "From": "Dinsmore Street",
      "To": "Signs Road",
      "Direction": "EB",
      "Date": "2020-10-07",
      "flow": 0.15334207077326342,
      "Latitude": "40.6042894",
      "Longitude": "-74.1701652"
    },
    {
      "SegmentID": "4832",
      "RoadwayName": "VICTORY BOULEVARD",
      "From": "Dinsmore Street",
      "To": "Signs Road",
      "Direction": "WB",
      "Date": "2020-10-07",
      "flow": 0.06946264744429882,
      "Latitude": "40.6042894",
      "Longitude": "-74.1701652"
    },
    {
      "SegmentID": "256800",
      "RoadwayName": "WEBSTER AVENUE",
      "From": "East 233rd Street",
      "To": "Orio J. Palmer Way",
      "Direction": "NB",
      "Date": "2020-10-07",
      "flow": 0.26146788990825687,
      "Latitude": "40.8943484",
      "Longitude": "-73.8603418"
    },
    {
      "SegmentID": "256800",
      "RoadwayName": "WEBSTER AVENUE",
      "From": "East 233rd Street",
      "To": "Orio J. Palmer Way",
      "Direction": "SB",
      "Date": "2020-10-07",
      "flow": 0.26277850589777196,
      "Latitude": "40.8943484",
      "Longitude": "-73.8603418"
    },
    {
      "SegmentID": "81384",
      "RoadwayName": "WEBSTER AVENUE",
      "From": "Woodlawn Cemetery Boundary",
      "To": "East Gun Hill Rd",
      "Direction": "NB",
      "Date": "2020-10-07",
      "flow": 0.10157273918741809,
      "Latitude": "40.8640107",
      "Longitude": "-73.8339775"
    },
    {
      "SegmentID": "81384",
      "RoadwayName": "WEBSTER AVENUE",
      "From": "Woodlawn Cemetery Boundary",
      "To": "East Gun Hill Rd",
      "Direction": "SB",
      "Date": "2020-10-07",
      "flow": 0.18152031454783749,
      "Latitude": "40.8640107",
      "Longitude": "-73.8339775"
    },
    {
      "SegmentID": "95195",
      "RoadwayName": "WESTCHESTER AVENUE",
      "From": "Bruckner Boulevard",
      "To": "Burr Avenue",
      "Direction": "SB",
      "Date": "2020-10-07",
      "flow": 0.3132372214941022,
      "Latitude": "40.8301747",
      "Longitude": "-73.8375135"
    },
    {
      "SegmentID": "147032",
      "RoadwayName": "WHITE PLAINS ROAD",
      "From": "East 215th Street",
      "To": "East 216th Street",
      "Direction": "NB",
      "Date": "2020-10-07",
      "flow": 0.06422018348623854,
      "Latitude": "40.8941458",
      "Longitude": "-73.8569108"
    },
    {
      "SegmentID": "132595",
      "RoadwayName": "WHITE PLAINS ROAD",
      "From": "East 215th Street",
      "To": "East 216th Street",
      "Direction": "SB",
      "Date": "2020-10-07",
      "flow": 0.1526867627785059,
      "Latitude": "40.8941458",
      "Longitude": "-73.8569108"
    }
  ],
  "7:00-8:00AM": [
    {
      "SegmentID": "8152",
      "RoadwayName": "BRIELLE AVENUE",
      "From": "Suffolk Avenue",
      "To": "Livingston Avenue",
      "Direction": "EB",
      "Date": "2020-10-07",
      "flow": 0.08213193534294452,
      "Latitude": "40.5989787",
      "Longitude": "-74.1230537"
    },
    {
      "SegmentID": "8152",
      "RoadwayName": "BRIELLE AVENUE",
      "From": "Suffolk Avenue",
      "To": "Livingston Avenue",
      "Direction": "WB",
      "Date": "2020-10-07",
      "flow": 0.03888160768894714,
      "Latitude": "40.5989787",
      "Longitude": "-74.1230537"
    },
    {
      "SegmentID": "147673",
      "RoadwayName": "BROADWAY",
      "From": "Van Cortlandt Park South",
      "To": "West 242nd Street",
      "Direction": "SB",
      "Date": "2020-10-07",
      "flow": 0.1489733508082132,
      "Latitude": "40.8020029",
      "Longitude": "-73.9679456"
    },
    {
      "SegmentID": "255653",
      "RoadwayName": "BROADWAY",
      "From": "Broadway/ 7 Avenue Line",
      "To": "Broadway/ 7 Avenue Line",
      "Direction": "SB",
      "Date": "2020-10-07",
      "flow": 0.062035823503713415,
      "Latitude": "40.8020029",
      "Longitude": "-73.9679456"
    },
    {
      "SegmentID": "158447",
      "RoadwayName": "BROADWAY",
      "From": "West 242nd Street",
      "To": "Van Cortlandt Park South",
      "Direction": "NB",
      "Date": "2020-10-07",
      "flow": 0.21799912625600698,
      "Latitude": "40.8020029",
      "Longitude": "-73.9679456"
    },
    {
      "SegmentID": "221955",
      "RoadwayName": "BROADWAY",
      "From": "West 260th Street",
      "To": "West 261st Street",
      "Direction": "NB",
      "Date": "2020-10-07",
      "flow": 0.17693315858453473,
      "Latitude": "40.8020029",
      "Longitude": "-73.9679456"
    },
    {
      "SegmentID": "221955",
      "RoadwayName": "BROADWAY",
      "From": "West 260th Street",
      "To": "West 261st Street",
      "Direction": "SB",
      "Date": "2020-10-07",
      "flow": 0.25076452599388377,
      "Latitude": "40.8020029",
      "Longitude": "-73.9679456"
    },
    {
      "SegmentID": "9003976",
      "RoadwayName": "BURKE AVENUE",
      "From": "Yates Avenue",
      "To": "Bouck Avenue",
      "Direction": "EB",
      "Date": "2020-10-07",
      "flow": 0.07863695937090433,
      "Latitude": "40.8714348",
      "Longitude": "-73.8671748"
    },
    {
      "SegmentID": "9003976",
      "RoadwayName": "BURKE AVENUE",
      "From": "Yates Avenue",
      "To": "Bouck Avenue",
      "Direction": "WB",
      "Date": "2020-10-07",
      "flow": 0.06771515945827872,
      "Latitude": "40.8714348",
      "Longitude": "-73.8671748"
    },
    {
      "SegmentID": "9002977",
      "RoadwayName": "CALHOUN AVENUE",
      "From": "East 177th Street",
      "To": "Dewey Avenue",
      "Direction": "NB",
      "Date": "2020-10-07",
      "flow": 0.002621231979030144,
      "Latitude": "40.8363101",
      "Longitude": "-73.874253"
    },
    {
      "SegmentID": "9002977",
      "RoadwayName": "CALHOUN AVENUE",
      "From": "East 177th Street",
      "To": "Dewey Avenue",
      "Direction": "SB",
      "Date": "2020-10-07",
      "flow": 0.02490170380078637,
      "Latitude": "40.8363101",
      "Longitude": "-73.874253"
    },