{
  "1:00-2:00AM": [
    {
      "SegmentID": "67650",
      "RoadwayName": "31 St",
      "From": "35 Ave",
      "To": "36 Ave",
      "Direction": "NB",
      "Date": "2019-10-05",
      "flow": 0.13909030982201714,
      "Latitude": "40.7651912",
      "Longitude": "-73.8277995"
    },
    {
      "SegmentID": "9001279",
      "RoadwayName": "21 St",
      "From": "Dead End",
      "To": "35 Ave",
      "Direction": "SB",
      "Date": "2019-10-05",
      "flow": 0.23137771918259722,
      "Latitude": "40.8401745",
      "Longitude": "-73.82344175"
    },
    {
      "SegmentID": "67650",
      "RoadwayName": "31 St",
      "From": "35 Ave",
      "To": "36 Ave",
      "Direction": "SB",
      "Date": "2019-10-05",
      "flow": 0.1021753460777851,
      "Latitude": "40.7651912",
      "Longitude": "-73.8277995"
    },
    {
      "SegmentID": "116269",
      "RoadwayName": "225 St",
      "From": "114 Rd",
      "To": "Dead End",
      "Direction": "NB",
      "Date": "2019-10-05",
      "flow": 0,
      "Latitude": "40.7127281",
      "Longitude": "-74.0060152"
    },
    {
      "SegmentID": "130569",
      "RoadwayName": "32 Ave",
      "From": "86 St",
      "To": "Alley",
      "Direction": "EB",
      "Date": "2019-10-05",
      "flow": 0.05009887936717205,
      "Latitude": "40.7794939",
      "Longitude": "-73.9555295"
    },
    {
      "SegmentID": "116269",
      "RoadwayName": "225 St",
      "From": "114 Rd",
      "To": "Dead End",
      "Direction": "SB",
      "Date": "2019-10-05",
      "flow": 0.0006591957811470006,
      "Latitude": "40.7127281",
      "Longitude": "-74.0060152"
    },
    {
      "SegmentID": "36837",
      "RoadwayName": "21 St",
      "From": "45 Road",
      "To": "46 Ave",
      "Direction": "SB",
      "Date": "2019-10-05",
      "flow": 0.13843111404087013,
      "Latitude": "40.6505439",
      "Longitude": "-73.7912194"
    },
    {
      "SegmentID": "130569",
      "RoadwayName": "32 Ave",
      "From": "86 St",
      "To": "Alley",
      "Direction": "WB",
      "Date": "2019-10-05",
      "flow": 0.04482531311799604,
      "Latitude": "40.7794939",
      "Longitude": "-73.9555295"
    },
    {
      "SegmentID": "9001279",
      "RoadwayName": "21 St",
      "From": "Dead End",
      "To": "35 Ave",
      "Direction": "NB",
      "Date": "2019-10-05",
      "flow": 0.3572841133816744,
      "Latitude": "40.8401745",
      "Longitude": "-73.82344175"
    },
    {
      "SegmentID": "130633",
      "RoadwayName": "31 Avenue",
      "From": "88 Street",
      "To": "Alley",
      "Direction": "WB",
      "Date": "2019-10-05",
      "flow": 0.026367831245880026,
      "Latitude": "40.6798468",
      "Longitude": "-73.8515018"
    },
    {
      "SegmentID": "33121",
      "RoadwayName": "1 Avenue",
      "From": "East 12 Street",
      "To": "East 13 Street",
      "Direction": "NB",
      "Date": "2019-10-05",
      "flow": 1,
      "Latitude": "40.728137",
      "Longitude": "-73.9790715"
    },
    {
      "SegmentID": "34656",
      "RoadwayName": "1 Avenue",
      "From": "East 27 Street",
      "To": "East 28 Street",
      "Direction": "NB",
      "Date": "2019-10-05",
      "flow": 0.8879367172050099,
      "Latitude": "40.741291",
      "Longitude": "-73.9811749"
    },
    {
      "SegmentID": "9001099",
      "RoadwayName": "1 Avenue",
      "From": "Dead end",
      "To": "Dead end",
      "Direction": "NB",
      "Date": "2019-10-05",
      "flow": 0.34541858932102837,
      "Latitude": "40.8401745",
      "Longitude": "-73.82344175"
    },
    {
      "SegmentID": "36674",
      "RoadwayName": "1 Avenue",
      "From": "East 73 Street",
      "To": "East 74 Street",
      "Direction": "NB",
      "Date": "2019-10-05",
      "flow": 0.3150955833882663,
      "Latitude": "40.766698",
      "Longitude": "-73.9511901"
    },
    {
      "SegmentID": "38035",
      "RoadwayName": "1 Avenue",
      "From": "East 97 Street",
      "To": "East 99 Street",
      "Direction": "NB",
      "Date": "2019-10-05",
      "flow": 0.32234673698088334,
      "Latitude": "40.7852713",
      "Longitude": "-73.9473373"
    },
    {
      "SegmentID": "33471",
      "RoadwayName": "10 Avenue",
      "From": "West 27 Drive",
      "To": "West 28 Street",
      "Direction": "NB",
      "Date": "2019-10-05",
      "flow": 0.6156888595912986,
      "Latitude": "40.5464989",
      "Longitude": "-74.21231865"
    },
    {
      "SegmentID": "33844",
      "RoadwayName": "10 Avenue",
      "From": "West 46 Street",
      "To": "West 47 Street",
      "Direction": "NB",
      "Date": "2019-10-05",
      "flow": 0.6750164798945286,
      "Latitude": "40.5464989",
      "Longitude": "-74.21231865"
    },
    {
      "SegmentID": "33413",
      "RoadwayName": "11 Avenue",
      "From": "West 28 Street",
      "To": "West 29 Street",
      "Direction": "SB",
      "Date": "2019-10-05",
      "flow": 0.3974950560316414,
      "Latitude": "40.7127281",
      "Longitude": "-74.0060152"
    },
    {
      "SegmentID": "33760",
      "RoadwayName": "11 Avenue",
      "From": "West 45 Street",
      "To": "West 46 Street",
      "Direction": "SB",
      "Date": "2019-10-05",
      "flow": 0.3889255108767304,
      "Latitude": "40.7127281",
      "Longitude": "-74.0060152"
    },
    {
      "SegmentID": "112817",
      "RoadwayName": "111 Avenue",
      "From": "140 Street",
      "To": "141 Street",
      "Direction": "EB",
      "Date": "2019-10-05",
      "flow": 0.04482531311799604,
      "Latitude": "40.7413853",
      "Longitude": "-74.0032719"
    },
    {
      "SegmentID": "112817",
      "RoadwayName": "111 Avenue",
      "From": "140 Street",
      "To": "141 Street",
      "Direction": "WB",
      "Date": "2019-10-05",
      "flow": 0.04152933421226104,
      "Latitude": "40.7413853",
      "Longitude": "-74.0032719"
    },
    {
      "SegmentID": "19641",
      "RoadwayName": "13 Avenue",
      "From": "72 Street",
      "To": "73 Street",
      "Direction": "NB",
      "Date": "2019-10-05",
      "flow": 0.008569545154911009,
      "Latitude": "40.54682875",
      "Longitude": "-74.2106047"
    },
    {
      "SegmentID": "19641",
      "RoadwayName": "13 Avenue",
      "From": "72 Street",
      "To": "73 Street",
      "Direction": "SB",
      "Date": "2019-10-05",
      "flow": 0.01977587343441002,
      "Latitude": "40.54682875",
      "Longitude": "-74.2106047"
    },
    {
      "SegmentID": "36112",
      "RoadwayName": "2 Avenue",
      "From": "East 46 Street",
      "To": "East 47 Street",
      "Direction": "SB",
      "Date": "2019-10-05",
      "flow": 0.8688200395517469,
      "Latitude": "40.7330958",
      "Longitude": "-73.9843953"
    },
    {
      "SegmentID": "34659",
      "RoadwayName": "2 Avenue",
      "From": "East 27 Street",
      "To": "East 28 Street",
      "Direction": "SB",
      "Date": "2019-10-05",
      "flow": 0.8912326961107448,
      "Latitude": "40.7330958",
      "Longitude": "-73.9843953"
    },
    {
      "SegmentID": "9001153",
      "RoadwayName": "2 Avenue",
      "From": "Dead end",
      "To": "East 123 Street",
      "Direction": "SB",
      "Date": "2019-10-05",
      "flow": 0.2023731048121292,
      "Latitude": "40.7330958",
      "Longitude": "-73.9843953"
    },
    {
      "SegmentID": "9001153",
      "RoadwayName": "2 Avenue service rd",
      "From": "Dead end",
      "To": "East 123 Street",
      "Direction": "SB",
      "Date": "2019-10-05",
      "flow": 0.001977587343441002,
      "Latitude": "40.8401745",
      "Longitude": "-73.82344175"
    },
    {
      "SegmentID": "36671",
      "RoadwayName": "2 Avenue",
      "From": "East 74 Street",
      "To": "East 75 Street",
      "Direction": "SB",
      "Date": "2019-10-05",
      "flow": 0.6460118655240606,
      "Latitude": "40.7330958",
      "Longitude": "-73.9843953"
    },
    {
      "SegmentID": "38055",
      "RoadwayName": "2 Avenue",
      "From": "East 99 Street",
      "To": "East 100 Street",
      "Direction": "SB",
      "Date": "2019-10-05",
      "flow": 0.09294660514172709,
      "Latitude": "40.7330958",
      "Longitude": "-73.9843953"
    },
    {
      "SegmentID": "36837",
      "RoadwayName": "21 St",
      "From": "45 Road",
      "To": "46 Ave",
      "Direction": "NB",
      "Date": "2019-10-05",
      "flow": 0.1008569545154911,
      "Latitude": "40.6505439",
      "Longitude": "-73.7912194"
    },
    {
      "SegmentID": "35960",
      "RoadwayName": "3 Avenue",
      "From": "East 46 Street",
      "To": "East 47 Street",
      "Direction": "NB",
      "Date": "2019-10-05",
      "flow": 0.7073170731707317,
      "Latitude": "40.54678755",
      "Longitude": "-74.21027354"
    },
    {
      "SegmentID": "36274",
      "RoadwayName": "3 Avenue",
      "From": "Astoria Line",
      "To": "East 61 Street",
      "Direction": "NB",
      "Date": "2019-10-05",
      "flow": 0.4996704021094265,
      "Latitude": "40.54678755",
      "Longitude": "-74.21027354"
    },
    {
      "SegmentID": "22804",
      "RoadwayName": "3 Avenue",
      "From": "Butler Street",
      "To": "Douglass Street",
      "Direction": "NB",
      "Date": "2019-10-05",
      "flow": 0.07514831905075807,
      "Latitude": "40.54678755",
      "Longitude": "-74.21027354"
    },
    {
      "SegmentID": "22804",
      "RoadwayName": "3 Avenue",
      "From": "Butler Street",
      "To": "Douglass Street",
      "Direction": "SB",
      "Date": "2019-10-05",
      "flow": 0.06987475280158208,
      "Latitude": "40.54678755",
      "Longitude": "-74.21027354"
    },
    {
      "SegmentID": "36574",
      "RoadwayName": "3 Avenue",
      "From": "East 73 Street",
      "To": "East 74 Street",
      "Direction": "NB",
      "Date": "2019-10-05",
      "flow": 0.5596572181938035,
      "Latitude": "40.54678755",
      "Longitude": "-74.21027354"
    },
    {
      "SegmentID": "69185",
      "RoadwayName": "3 Avenue",
      "From": "East 123 Street",
      "To": "East 124 Street",
      "Direction": "NB",
      "Date": "2019-10-05",
      "flow": 0.18391562294001318,
      "Latitude": "40.54678755",
      "Longitude": "-74.21027354"
    },
    {
      "SegmentID": "130633",
      "RoadwayName": "31 Avenue",
      "From": "88 Street",
      "To": "Alley",
      "Direction": "EB",
      "Date": "2019-10-05",
      "flow": 0.02900461437046803,
      "Latitude": "40.6798468",
      "Longitude": "-73.8515018"
    },
    {
      "SegmentID": "153067",
      "RoadwayName": "34TH AVENUE",
      "From": "92nd Street",
      "To": "93rd Street",
      "Direction": "WB",
      "Date": "2019-10-05",
      "flow": 0.06460118655240607,
      "Latitude": "40.655689",
      "Longitude": "-73.840036"
    },
    {
      "SegmentID": "33305",
      "RoadwayName": "3RD AVENUE",
      "From": "East 27th Street",
      "To": "East 28th Street",
      "Direction": "NB",
      "Date": "2019-10-05",
      "flow": 0.6315095583388266,
      "Latitude": "40.633204",
      "Longitude": "-73.951"
    },
    {
      "SegmentID": "158092",
      "RoadwayName": "4 Avenue",
      "From": "29 Street",
      "To": "30 Street",
      "Direction": "SB",
      "Date": "2019-10-05",
      "flow": 0.08635464733025709,
      "Latitude": "40.60709435",
      "Longitude": "-74.1490699"
    },
    {
      "SegmentID": "157979",
      "RoadwayName": "4 Avenue",
      "From": "29 Street",
      "To": "30 Street",
      "Direction": "NB",
      "Date": "2019-10-05",
      "flow": 0.07317073170731707,
      "Latitude": "40.60709435",
      "Longitude": "-74.1490699"
    },
    {
      "SegmentID": "158163",
      "RoadwayName": "4 Avenue",
      "From": "Butler Street",
      "To": "Douglass Street",
      "Direction": "NB",
      "Date": "2019-10-05",
      "flow": 0.11799604482531312,
      "Latitude": "40.60709435",
      "Longitude": "-74.1490699"
    },
    {
      "SegmentID": "157722",
      "RoadwayName": "4 Avenue",
      "From": "Butler Street",
      "To": "Douglass Street",
      "Direction": "SB",
      "Date": "2019-10-05",
      "flow": 0.0903098220171391,
      "Latitude": "40.60709435",
      "Longitude": "-74.1490699"
    },
    {
      "SegmentID": "33018",
      "RoadwayName": "5 Avenue",
      "From": "West 25 Street",
      "To": "East 26 Street",
      "Direction": "SB",
      "Date": "2019-10-05",
      "flow": 0.6954515491100857,
      "Latitude": "40.5467724",
      "Longitude": "-74.21034999"
    },
    {
      "SegmentID": "33886",
      "RoadwayName": "5 Avenue",
      "From": "East 27 Street",
      "To": "East 28 Street",
      "Direction": "SB",
      "Date": "2019-10-05",
      "flow": 0.5952537903757416,
      "Latitude": "40.5467724",
      "Longitude": "-74.21034999"
    },
    {
      "SegmentID": "35806",
      "RoadwayName": "5 Avenue",
      "From": "East 46 Street",
      "To": "East 47 Street",
      "Direction": "SB",
      "Date": "2019-10-05",
      "flow": 0.5385629531970996,
      "Latitude": "40.5467724",
      "Longitude": "-74.21034999"
    },
    {
      "SegmentID": "21115",
      "RoadwayName": "5 Avenue",
      "From": "30 Street",
      "To": "31 Street",
      "Direction": "NB",
      "Date": "2019-10-05",
      "flow": 0.06921555702043507,
      "Latitude": "40.5467724",
      "Longitude": "-74.21034999"
    },
    {
      "SegmentID": "21115",
      "RoadwayName": "5 Avenue",
      "From": "30 Street",
      "To": "31 Street",
      "Direction": "SB",
      "Date": "2019-10-05",
      "flow": 0.053394858272907054,
      "Latitude": "40.5467724",
      "Longitude": "-74.21034999"
    },
    {
      "SegmentID": "28923",
      "RoadwayName": "5 Avenue",
      "From": "Douglass Street",
      "To": "De Graw Street",
      "Direction": "SB",
      "Date": "2019-10-05",
      "flow": 0.08965062623599208,
      "Latitude": "40.5467724",
      "Longitude": "-74.21034999"
    },
    {
      "SegmentID": "75343",
      "RoadwayName": "58 Street",
      "From": "41 Drive",
      "To": "43 Avenue",
      "Direction": "NB",
      "Date": "2019-10-05",
      "flow": 0.03625576796308504,
      "Latitude": "40.7650598",
      "Longitude": "-73.9768355"
    },
    {
      "SegmentID": "75343",
      "RoadwayName": "58 Street",
      "From": "41 Drive",
      "To": "43 Avenue",
      "Direction": "SB",
      "Date": "2019-10-05",
      "flow": 0.06657877389584707,
      "Latitude": "40.7650598",
      "Longitude": "-73.9768355"
    },
    {
      "SegmentID": "81591",
      "RoadwayName": "59 Ave",
      "From": "92 St",
      "To": "94 St",
      "Direction": "EB",
      "Date": "2019-10-05",
      "flow": 0.03098220171390903,
      "Latitude": "40.7798048",
      "Longitude": "-73.9444584"
    },
    {
      "SegmentID": "20278",
      "RoadwayName": "60 Street",
      "From": "18 Avenue",
      "To": "19 Avenue",
      "Direction": "WB",
      "Date": "2019-10-05",
      "flow": 0.015161502966381015,
      "Latitude": "40.5923764",
      "Longitude": "-73.7887383"
    },
    {
      "SegmentID": "74206",
      "RoadwayName": "69 St",
      "From": "52 Ave",
      "To": "52 Rd",
      "Direction": "NB",
      "Date": "2019-10-05",
      "flow": 0.06262359920896507,
      "Latitude": "40.7441763",
      "Longitude": "-73.9124986"
    },
    {
      "SegmentID": "74206",
      "RoadwayName": "69 St",
      "From": "52 Ave",
      "To": "52 Rd",
      "Direction": "SB",
      "Date": "2019-10-05",
      "flow": 0.06723796967699407,
      "Latitude": "40.7441763",
      "Longitude": "-73.9124986"
    },
    {
      "SegmentID": "108665",
      "RoadwayName": "73 Place",
      "From": "Cooper Avenue",
      "To": "Dead end",
      "Direction": "NB",
      "Date": "2019-10-05",
      "flow": 0.00922874093605801,
      "Latitude": "40.7074415",
      "Longitude": "-73.8736538"
    },
    {
      "SegmentID": "32283",
      "RoadwayName": "8 Avenue",
      "From": "Greenwich Avenue",
      "To": "14 Street/Canarsie Line",
      "Direction": "NB",
      "Date": "2019-10-05",
      "flow": 0.47066578773895845,
      "Latitude": "40.7683107",
      "Longitude": "-73.96440596"
    },
    {
      "SegmentID": "33968",
      "RoadwayName": "8 Avenue",
      "From": "8 Avenue Line",
      "To": "8 Avenue Line",
      "Direction": "NB",
      "Date": "2019-10-05",
      "flow": 0.6605141727092947,
      "Latitude": "40.7683107",
      "Longitude": "-73.96440596"
    },
    {
      "SegmentID": "33848",
      "RoadwayName": "9 Avenue",
      "From": "West 45 Street",
      "To": "West 46 Street",
      "Direction": "SB",
      "Date": "2019-10-05",
      "flow": 0.6077785102175346,
      "Latitude": "40.81819805",
      "Longitude": "-73.95100898"
    },
    {
      "SegmentID": "22345",
      "RoadwayName": "9 Street",
      "From": "9 Street Bridge",
      "To": "2 Avenue",
      "Direction": "EB",
      "Date": "2019-10-05",
      "flow": 0.026367831245880026,
      "Latitude": "40.6577415",
      "Longitude": "-73.82997841"
    },
    {
      "SegmentID": "22345",
      "RoadwayName": "9 Street",
      "From": "9 Street Bridge",
      "To": "2 Avenue",
      "Direction": "WB",
      "Date": "2019-10-05",
      "flow": 0.05405405405405406,
      "Latitude": "40.6577415",
      "Longitude": "-73.82997841"
    },
    {
      "SegmentID": "56878",
      "RoadwayName": "Archer Ave",
      "From": "143 St",
      "To": "144 Pl",
      "Direction": "EB",
      "Date": "2019-10-05",
      "flow": 0.08437705998681608,
      "Latitude": "40.7171709",
      "Longitude": "-73.9947953"
    },
    {
      "SegmentID": "56878",
      "RoadwayName": "Archer Ave",
      "From": "143 St",
      "To": "144 Place",
      "Direction": "WB",
      "Date": "2019-10-05",
      "flow": 0.08239947264337508,
      "Latitude": "40.7171709",
      "Longitude": "-73.9947953"
    },
    {
      "SegmentID": "28976",
      "RoadwayName": "Ashland Place",
      "From": "4 Avenue Line",
      "To": "4 Avenue Line",
      "Direction": "NB",
      "Date": "2019-10-05",
      "flow": 0.023731048121292023,
      "Latitude": "40.7383575",
      "Longitude": "-73.9992012"
    },
    {
      "SegmentID": "28976",
      "RoadwayName": "Ashland Place",
      "From": "4 Avenue Line",
      "To": "4 Avenue Line",
      "Direction": "SB",
      "Date": "2019-10-05",
      "flow": 0.024390243902439025,
      "Latitude": "40.7383575",
      "Longitude": "-73.9992012"
    },
    {
      "SegmentID": "150673",
      "RoadwayName": "Atlantic Avenue",
      "From": "Dead End",
      "To": "Dead End",
      "Direction": "EB",
      "Date": "2019-10-05",
      "flow": 0.13909030982201714,
      "Latitude": "40.8401745",
      "Longitude": "-73.82344175"
    },
    {
      "SegmentID": "150674",
      "RoadwayName": "Atlantic Avenue",
      "From": "Williams Avenue",
      "To": "Alabama Avenue",
      "Direction": "EB",
      "Date": "2019-10-05",
      "flow": 0.32432432432432434,
      "Latitude": "40.6530013",
      "Longitude": "-73.894129"
    },
    {
      "SegmentID": "157948",
      "RoadwayName": "Atlantic Avenue",
      "From": "Autumn Avenue",
      "To": "Lincoln Avenue",
      "Direction": "EB",
      "Date": "2019-10-05",
      "flow": 0.0942649967040211,
      "Latitude": "40.6725449",
      "Longitude": "-73.8673882"
    },
    {
      "SegmentID": "157545",
      "RoadwayName": "Atlantic Avenue",
      "From": "Autumn Avenue",
      "To": "Lincoln Avenue",
      "Direction": "WB",
      "Date": "2019-10-05",
      "flow": 0.16348055372445616,
      "Latitude": "40.6725449",
      "Longitude": "-73.8673882"
    },
    {
      "SegmentID": "158124",
      "RoadwayName": "Atlantic Avenue",
      "From": "Classon Avenue",
      "To": "Franklin Avenue Shuttle Line",
      "Direction": "EB",
      "Date": "2019-10-05",
      "flow": 0.2663150955833883,
      "Latitude": "40.688873",
      "Longitude": "-73.96007"
    },
    {
      "SegmentID": "34607",
      "RoadwayName": "Avenue C",
      "From": "East 11 Street",
      "To": "East 12 Street",
      "Direction": "SB",
      "Date": "2019-10-05",
      "flow": 0.13183915622940012,
      "Latitude": "40.7263892",
      "Longitude": "-73.9769043"
    },
    {
      "SegmentID": "34607",
      "RoadwayName": "Avenue C",
      "From": "East 11 Street",
      "To": "East 12 Street",
      "Direction": "NB",
      "Date": "2019-10-05",
      "flow": 0.07580751483190508,
      "Latitude": "40.7263892",
      "Longitude": "-73.9769043"
    },
    {
      "SegmentID": "40998",
      "RoadwayName": "Avenue N",
      "From": "Schenectady Avenue",
      "To": "East 48 Street",
      "Direction": "EB",
      "Date": "2019-10-05",
      "flow": 0.03164139749505603,
      "Latitude": "40.674302",
      "Longitude": "-73.933383"
    },
    {
      "SegmentID": "40998",
      "RoadwayName": "Avenue N",
      "From": "Schenectady Avenue",
      "To": "East 48 Street",
      "Direction": "WB",
      "Date": "2019-10-05",
      "flow": 0.04482531311799604,
      "Latitude": "40.674302",
      "Longitude": "-73.933383"
    },
    {
      "SegmentID": "32126",
      "RoadwayName": "Avenue of the Americas",
      "From": "8 Avenue Line",
      "To": "8 Avenue Line",
      "Direction": "NB",
      "Date": "2019-10-05",
      "flow": 0.6558998022412657,
      "Latitude": "40.7383575",
      "Longitude": "-73.9992012"
    },
    {
      "SegmentID": "25995",
      "RoadwayName": "Avenue U",
      "From": "East 14 Street",
      "To": "East 15 Street",
      "Direction": "EB",
      "Date": "2019-10-05",
      "flow": 0.023731048121292023,
      "Latitude": "40.597473",
      "Longitude": "-73.979137"
    },
    {
      "SegmentID": "25995",
      "RoadwayName": "Avenue U",
      "From": "East 14 Street",
      "To": "East 15 Street",
      "Direction": "WB",
      "Date": "2019-10-05",
      "flow": 0.03032300593276203,
      "Latitude": "40.597473",
      "Longitude": "-73.979137"
    },
    {
      "SegmentID": "19437",
      "RoadwayName": "Bay Ridge Parkway",
      "From": "11 Avenue",
      "To": "12 Avenue",
      "Direction": "NB",
      "Date": "2019-10-05",
      "flow": 0.07382992748846408,
      "Latitude": "40.7127281",
      "Longitude": "-74.0060152"
    },
    {
      "SegmentID": "19437",
      "RoadwayName": "Bay Ridge Parkway",
      "From": "11 Avenue",
      "To": "12 Avenue",
      "Direction": "SB",
      "Date": "2019-10-05",
      "flow": 0.0975609756097561,
      "Latitude": "40.7127281",
      "Longitude": "-74.0060152"
    },
    {
      "SegmentID": "29688",
      "RoadwayName": "Bedford Avenue",
      "From": "Hancock Street",
      "To": "Halsey Street",
      "Direction": "NB",
      "Date": "2019-10-05",
      "flow": 0.42715886618325644,
      "Latitude": "40.682004",
      "Longitude": "-73.954623"
    },
    {
      "SegmentID": "30786",
      "RoadwayName": "Bedford Avenue",
      "From": "North 1 Street",
      "To": "Grand Street",
      "Direction": "NB",
      "Date": "2019-10-05",
      "flow": 0.13381674357284112,
      "Latitude": "44.2909374",
      "Longitude": "-73.9848672"
    },
    {
      "SegmentID": "112603",
      "RoadwayName": "Bedford Avenue",
      "From": "Lenox Road",
      "To": "Caton Avenue",
      "Direction": "SB",
      "Date": "2019-10-05",
      "flow": 0.08833223467369809,
      "Latitude": "40.6553529",
      "Longitude": "-73.9306307"
    },
    {
      "SegmentID": "28514",
      "RoadwayName": "Bedford Avenue",
      "From": "Farragut Road",
      "To": "Glenwood Road",
      "Direction": "NB",
      "Date": "2019-10-05",
      "flow": 0.011865524060646011,
      "Latitude": "40.637394",
      "Longitude": "-73.92986"
    },
    {
      "SegmentID": "28514",
      "RoadwayName": "Bedford Avenue",
      "From": "Farragut Road",
      "To": "Glenwood Road",
      "Direction": "SB",
      "Date": "2019-10-05",
      "flow": 0.021753460777851022,
      "Latitude": "40.637394",
      "Longitude": "-73.92986"
    },
    {
      "SegmentID": "29662",
      "RoadwayName": "BEDFORD AVENUE",
      "From": "St Marks Avenue",
      "To": "Prospect Place",
      "Direction": "NB",
      "Date": "2019-10-05",
      "flow": 0.05603164139749506,
      "Latitude": "40.7174046",
      "Longitude": "-73.9570004"
    },
    {
      "SegmentID": "29662",
      "RoadwayName": "BEDFORD AVENUE",
      "From": "St Marks Avenue",
      "To": "Prospect Place",
      "Direction": "SB",
      "Date": "2019-10-05",
      "flow": 0.12458800263678313,
      "Latitude": "40.7174046",
      "Longitude": "-73.9570004"
    },
    {
      "SegmentID": "275334",
      "RoadwayName": "Bowery",
      "From": "Prince Street",
      "To": "Stanton Street",
      "Direction": "SB",
      "Date": "2019-10-05",
      "flow": 0.6532630191166776,
      "Latitude": "40.7195236",
      "Longitude": "-73.9943556"
    },
    {
      "SegmentID": "275302",
      "RoadwayName": "Bowery",
      "From": "Prince Street",
      "To": "Stanton Street",
      "Direction": "NB",
      "Date": "2019-10-05",
      "flow": 0.4166117336849044,
      "Latitude": "40.7195236",
      "Longitude": "-73.9943556"
    },
    {
      "SegmentID": "32787",
      "RoadwayName": "Broadway",
      "From": "Broadway Line",
      "To": "Broadway Line",
      "Direction": "SB",
      "Date": "2019-10-05",
      "flow": 0.45220830586684246,
      "Latitude": "40.8028269",
      "Longitude": "-73.9675054"
    },
    {
      "SegmentID": "159040",
      "RoadwayName": "BROADWAY",
      "From": "West 99th Street",
      "To": "West 100th Street",
      "Direction": "SB",
      "Date": "2019-10-05",
      "flow": 0.22346736980883322,
      "Latitude": "40.8020029",
      "Longitude": "-73.9679456"
    },
    {
      "SegmentID": "159183",
      "RoadwayName": "Broadway",
      "From": "West 74 Street",
      "To": "West 75 Street",
      "Direction": "NB",
      "Date": "2019-10-05",
      "flow": 0.01911667765326302,
      "Latitude": "40.8028269",
      "Longitude": "-73.9675054"
    },
    {
      "SegmentID": "159067",
      "RoadwayName": "Broadway",
      "From": "West 74 Street",
      "To": "West 75 Street",
      "Direction": "SB",
      "Date": "2019-10-05",
      "flow": 0.15095583388266315,
      "Latitude": "40.8028269",
      "Longitude": "-73.9675054"
    },
    {
      "SegmentID": "159215",
      "RoadwayName": "Broadway",
      "From": "West 120 Street",
      "To": "West 121 Street",
      "Direction": "NB",
      "Date": "2019-10-05",
      "flow": 0.05207646671061305,
      "Latitude": "40.8028269",
      "Longitude": "-73.9675054"
    },
    {
      "SegmentID": "158835",
      "RoadwayName": "Broadway",
      "From": "West 120 Street",
      "To": "West 121 Street",
      "Direction": "SB",
      "Date": "2019-10-05",
      "flow": 0.1034937376400791,
      "Latitude": "40.8028269",
      "Longitude": "-73.9675054"
    },
    {
      "SegmentID": "158944",
      "RoadwayName": "Broadway",
      "From": "West 148 Street",
      "To": "West 149 Street",
      "Direction": "NB",
      "Date": "2019-10-05",
      "flow": 0.14765985497692816,
      "Latitude": "40.8028269",
      "Longitude": "-73.9675054"
    },
    {
      "SegmentID": "158582",
      "RoadwayName": "Broadway",
      "From": "West 148 Street",
      "To": "West 149 Street",
      "Direction": "SB",
      "Date": "2019-10-05",
      "flow": 0.17139090309822017,
      "Latitude": "40.8028269",
      "Longitude": "-73.9675054"
    },
    {
      "SegmentID": "270731",
      "RoadwayName": "Broadway",
      "From": "Dead end",
      "To": "West 219 Street",
      "Direction": "NB",
      "Date": "2019-10-05",
      "flow": 0.15491100856954515,
      "Latitude": "40.8028269",
      "Longitude": "-73.9675054"
    },
    {
      "SegmentID": "270734",
      "RoadwayName": "Broadway",
      "From": "Dead end",
      "To": "West 219 Street",
      "Direction": "SB",
      "Date": "2019-10-05",
      "flow": 0.15293342122610415,
      "Latitude": "40.8028269",
      "Longitude": "-73.9675054"
    },
    {
      "SegmentID": "270743",
      "RoadwayName": "Broadway",
      "From": "West 220 Street",
      "To": "9 Avenue",
      "Direction": "NB",
      "Date": "2019-10-05",
      "flow": 0.15754779169413316,
      "Latitude": "40.8028269",
      "Longitude": "-73.9675054"
    },
    {
      "SegmentID": "270769",
      "RoadwayName": "Broadway",
      "From": "West 220 Street",
      "To": "Dead end",
      "Direction": "SB",
      "Date": "2019-10-05",
      "flow": 0.14238628872775214,
      "Latitude": "40.8028269",
      "Longitude": "-73.9675054"
    },
    {
      "SegmentID": "32361",
      "RoadwayName": "Broome Street",
      "From": "Crosby Street",
      "To": "Broadway",
      "Direction": "WB",
      "Date": "2019-10-05",
      "flow": 0.2814765985497693,
      "Latitude": "40.7153988",
      "Longitude": "-73.9812435"
    },
    {
      "SegmentID": "32329",
      "RoadwayName": "Canal Street",
      "From": "Lafayette Street",
      "To": "Cortlandt Alley",
      "Direction": "EB",
      "Date": "2019-10-05",
      "flow": 0.5833882663150955,
      "Latitude": "40.7267105",
      "Longitude": "-73.9940763"
    },
    {
      "SegmentID": "32329",
      "RoadwayName": "Canal Street",
      "From": "Lafayette Street",
      "To": "Cortlandt Alley",
      "Direction": "WB",
      "Date": "2019-10-05",
      "flow": 0.6044825313117996,
      "Latitude": "40.7267105",
      "Longitude": "-73.9940763"
    },
    {
      "SegmentID": "9009052",
      "RoadwayName": "Catherine Street",
      "From": "Dead End",
      "To": "Catherine Slip",
      "Direction": "SB",
      "Date": "2019-10-05",
      "flow": 0.03295978905735003,
      "Latitude": "40.629946",
      "Longitude": "-74.138598"
    },
    {
      "SegmentID": "28021",
      "RoadwayName": "Caton Avenue",
      "From": "Westminster Road",
      "To": "Argyle Road",
      "Direction": "EB",
      "Date": "2019-10-05",
      "flow": 0.061305207646671064,
      "Latitude": "40.6475964",
      "Longitude": "-73.9733121"
    },
    {
      "SegmentID": "28021",
      "RoadwayName": "Caton Avenue",
      "From": "Westminster Road",
      "To": "Argyle Road",
      "Direction": "WB",
      "Date": "2019-10-05",
      "flow": 0.05998681608437706,
      "Latitude": "40.6475964",
      "Longitude": "-73.9733121"
    },
    {
      "SegmentID": "166137",
      "RoadwayName": "Central Park North",
      "From": "Frawley Circle",
      "To": "Central Park Lenox Avenue Appr",
      "Direction": "EB",
      "Date": "2019-10-05",
      "flow": 0.03361898483849703,
      "Latitude": "40.7965825",
      "Longitude": "-73.9491109"
    },
    {
      "SegmentID": "166137",
      "RoadwayName": "Central Park North",
      "From": "Frawley Circle",
      "To": "Central Park Lenox Avenue Appr",
      "Direction": "WB",
      "Date": "2019-10-05",
      "flow": 0.08042188529993408,
      "Latitude": "40.7965825",
      "Longitude": "-73.9491109"
    },
    {
      "SegmentID": "34257",
      "RoadwayName": "Central Park West",
      "From": "8 Avenue Line",
      "To": "8 Avenue Line",
      "Direction": "NB",
      "Date": "2019-10-05",
      "flow": 0.15359261700725116,
      "Latitude": "40.7383575",
      "Longitude": "-73.9992012"
    },
    {
      "SegmentID": "37189",
      "RoadwayName": "Central Park West",
      "From": "8 Avenue Line",
      "To": "8 Avenue Line",
      "Direction": "NB",
      "Date": "2019-10-05",
      "flow": 0.14897824653922215,
      "Latitude": "40.7383575",
      "Longitude": "-73.9992012"
    },
    {
      "SegmentID": "37189",
      "RoadwayName": "Central Park West",
      "From": "8 Avenue Line",
      "To": "8 Avenue Line",
      "Direction": "SB",
      "Date": "2019-10-05",
      "flow": 0.04021094264996704,
      "Latitude": "40.7383575",
      "Longitude": "-73.9992012"
    },
    {
      "SegmentID": "9009550",
      "RoadwayName": "Central Park West",
      "From": "8 Avenue Line",
      "To": "8 Avenue Line",
      "Direction": "NB",
      "Date": "2019-10-05",
      "flow": 0.12722478576137114,
      "Latitude": "40.7383575",
      "Longitude": "-73.9992012"
    },
    {
      "SegmentID": "9009550",
      "RoadwayName": "Central Park West",
      "From": "8 Avenue Line",
      "To": "8 Avenue Line",
      "Direction": "SB",
      "Date": "2019-10-05",
      "flow": 0.1054713249835201,
      "Latitude": "40.7383575",
      "Longitude": "-73.9992012"
    },
    {
      "SegmentID": "23560",
      "RoadwayName": "Centre Street",
      "From": "Lafayette Street",
      "To": "Duane Street",
      "Direction": "NB",
      "Date": "2019-10-05",
      "flow": 0.3065260382333553,
      "Latitude": "40.7149524",
      "Longitude": "-74.0022271"
    },
    {
      "SegmentID": "23408",
      "RoadwayName": "Chambers Street",
      "From": "Elk Street",
      "To": "Broadway",
      "Direction": "EB",
      "Date": "2019-10-05",
      "flow": 0.22742254449571522,
      "Latitude": "40.7136386",
      "Longitude": "-74.0046906"
    },
    {
      "SegmentID": "23408",
      "RoadwayName": "Chambers Street",
      "From": "Elk Street",
      "To": "Broadway",
      "Direction": "WB",
      "Date": "2019-10-05",
      "flow": 0.16479894528675015,
      "Latitude": "40.7136386",
      "Longitude": "-74.0046906"
    },
    {
      "SegmentID": "162554",
      "RoadwayName": "Cherry Street",
      "From": "Catherine Slip",
      "To": "Dead end",
      "Direction": "SB",
      "Date": "2019-10-05",
      "flow": 0.005273566249176005,
      "Latitude": "40.7123927",
      "Longitude": "-73.9781019"
    },
    {
      "SegmentID": "32706",
      "RoadwayName": "Chrystie Street",
      "From": "6 Avenue Line",
      "To": "6 Avenue Line",
      "Direction": "NB",
      "Date": "2019-10-05",
      "flow": 0.15095583388266315,
      "Latitude": "40.7383575",
      "Longitude": "-73.9992012"
    },
    {
      "SegmentID": "32706",
      "RoadwayName": "Chrystie Street",
      "From": "6 Avenue Line",
      "To": "6 Avenue Line",
      "Direction": "SB",
      "Date": "2019-10-05",
      "flow": 0.5135135135135135,
      "Latitude": "40.7383575",
      "Longitude": "-73.9992012"
    },
    {
      "SegmentID": "28845",
      "RoadwayName": "Church Avenue",
      "From": "Brooklyn Avenue",
      "To": "East 37 Street",
      "Direction": "EB",
      "Date": "2019-10-05",
      "flow": 0.0955833882663151,
      "Latitude": "40.6507967",
      "Longitude": "-73.9495439"
    },
    {
      "SegmentID": "28845",
      "RoadwayName": "Church Avenue",
      "From": "Brooklyn Avenue",
      "To": "East 37 Street",
      "Direction": "WB",
      "Date": "2019-10-05",
      "flow": 0.02702702702702703,
      "Latitude": "40.6507967",
      "Longitude": "-73.9495439"
    },
    {
      "SegmentID": "28103",
      "RoadwayName": "Church Avenue",
      "From": "Argyle Road",
      "To": "Rugby Road",
      "Direction": "EB",
      "Date": "2019-10-05",
      "flow": 0.05866842452208306,
      "Latitude": "40.6507967",
      "Longitude": "-73.9495439"
    },
    {
      "SegmentID": "28103",
      "RoadwayName": "Church Avenue",
      "From": "Argyle Road",
      "To": "Rugby Road",
      "Direction": "WB",
      "Date": "2019-10-05",
      "flow": 0.0922874093605801,
      "Latitude": "40.6507967",
      "Longitude": "-73.9495439"
    },
    {
      "SegmentID": "31764",
      "RoadwayName": "Church Street",
      "From": "8 Avenue Line",
      "To": "8 Avenue Line",
      "Direction": "NB",
      "Date": "2019-10-05",
      "flow": 0.46473302570863545,
      "Latitude": "40.7383575",
      "Longitude": "-73.9992012"
    },
    {
      "SegmentID": "9008423",
      "RoadwayName": "Clarkson Avenue",
      "From": "Dead Wend",
      "To": "East 37 Street",
      "Direction": "EB",
      "Date": "2019-10-05",
      "flow": 0.06657877389584707,
      "Latitude": "40.6565477",
      "Longitude": "-73.931909"
    },
    {
      "SegmentID": "9008423",
      "RoadwayName": "Clarkson Avenue",
      "From": "Dead End",
      "To": "East 37 Street",
      "Direction": "WB",
      "Date": "2019-10-05",
      "flow": 0.047462096242584045,
      "Latitude": "40.6565477",
      "Longitude": "-73.931909"
    },
    {
      "SegmentID": "34124",
      "RoadwayName": "Columbus Avenue",
      "From": "West 61 Street",
      "To": "West 62 Street",
      "Direction": "SB",
      "Date": "2019-10-05",
      "flow": 0.5148319050758076,
      "Latitude": "40.7713667",
      "Longitude": "-73.9859786"
    },
    {
      "SegmentID": "9017050",
      "RoadwayName": "Columbus Avenue",
      "From": "Dead end",
      "To": "Dead end",
      "Direction": "SB",
      "Date": "2019-10-05",
      "flow": 0.23269611074489124,
      "Latitude": "40.8401745",
      "Longitude": "-73.82344175"
    },
    {
      "SegmentID": "35041",
      "RoadwayName": "COMMERCIAL STREET",
      "From": "Clay Street",
      "To": "Box Street",
      "Direction": "EB",
      "Date": "2019-10-05",
      "flow": 0.005932762030323006,
      "Latitude": "40.7372374",
      "Longitude": "-73.9567764"
    },
    {
      "SegmentID": "35041",
      "RoadwayName": "COMMERCIAL STREET",
      "From": "Clay Street",
      "To": "Box Street",
      "Direction": "WB",
      "Date": "2019-10-05",
      "flow": 0.0032959789057350032,
      "Latitude": "40.7372374",
      "Longitude": "-73.9567764"
    },
    {
      "SegmentID": "256338",
      "RoadwayName": "Cooper Ave",
      "From": "Dead End",
      "To": "14 St/ Canarsie Line",
      "Direction": "NB",
      "Date": "2019-10-05",
      "flow": 0.08437705998681608,
      "Latitude": "40.8401745",
      "Longitude": "-73.82344175"
    },
    {
      "SegmentID": "256338",
      "RoadwayName": "Cooper Ave",
      "From": "Dead End",
      "To": "14 St/ Canarsie Line",
      "Direction": "SB",
      "Date": "2019-10-05",
      "flow": 0.09294660514172709,
      "Latitude": "40.8401745",
      "Longitude": "-73.82344175"
    },
    {
      "SegmentID": "81637",
      "RoadwayName": "Corona Ave",
      "From": "94 St",
      "To": "Junction Blvd",
      "Direction": "EB",
      "Date": "2019-10-05",
      "flow": 0.11667765326301911,
      "Latitude": "40.7820092",
      "Longitude": "-73.9458177"
    },
    {
      "SegmentID": "81637",
      "RoadwayName": "Corona Ave",
      "From": "94 St",
      "To": "Junction Blvd",
      "Direction": "WB",
      "Date": "2019-10-05",
      "flow": 0.05669083717864205,
      "Latitude": "40.7820092",
      "Longitude": "-73.9458177"
    },
    {
      "SegmentID": "28069",
      "RoadwayName": "Cortelyou Road",
      "From": "Stratford Road",
      "To": "Westminster Road",
      "Direction": "EB",
      "Date": "2019-10-05",
      "flow": 0.05207646671061305,
      "Latitude": "40.643989",
      "Longitude": "-73.9687375"
    },
    {
      "SegmentID": "28069",
      "RoadwayName": "Cortelyou Road",
      "From": "Stratford Road",
      "To": "Westminster Road",
      "Direction": "WB",
      "Date": "2019-10-05",
      "flow": 0.026367831245880026,
      "Latitude": "40.643989",
      "Longitude": "-73.9687375"
    },
    {
      "SegmentID": "128571",
      "RoadwayName": "Cypress Ave",
      "From": "Alley",
      "To": "Hart St",
      "Direction": "EB",
      "Date": "2019-10-05",
      "flow": 0.05471324983520105,
      "Latitude": "40.7414759",
      "Longitude": "-73.9818987"
    },
    {
      "SegmentID": "128571",
      "RoadwayName": "Cypress Ave",
      "From": "Alley",
      "To": "Hart St",
      "Direction": "WB",
      "Date": "2019-10-05",
      "flow": 0.09492419248516809,
      "Latitude": "40.7414759",
      "Longitude": "-73.9818987"
    },
    {
      "SegmentID": "45052",
      "RoadwayName": "Dekalb Avenue",
      "From": "St Nicholas Avenue",
      "To": "Cypress Avenue",
      "Direction": "NB",
      "Date": "2019-10-05",
      "flow": 0.01977587343441002,
      "Latitude": "40.8241432",
      "Longitude": "-73.9446885"
    },
    {
      "SegmentID": "45052",
      "RoadwayName": "Dekalb Avenue",
      "From": "St Nicholas Avenue",
      "To": "Cypress Avenue",
      "Direction": "SB",
      "Date": "2019-10-05",
      "flow": 0.014502307185234015,
      "Latitude": "40.8241432",
      "Longitude": "-73.9446885"
    },
    {
      "SegmentID": "28067",
      "RoadwayName": "Ditmas Avenue",
      "From": "Argyle Road",
      "To": "Rugby Road",
      "Direction": "EB",
      "Date": "2019-10-05",
      "flow": 0.026367831245880026,
      "Latitude": "40.644024",
      "Longitude": "-73.9668529"
    },
    {
      "SegmentID": "28067",
      "RoadwayName": "Ditmas Avenue",
      "From": "Argyle Road",
      "To": "Rugby Road",
      "Direction": "WB",
      "Date": "2019-10-05",
      "flow": 0.055372445616348055,
      "Latitude": "40.644024",
      "Longitude": "-73.9668529"
    },
    {
      "SegmentID": "101668",
      "RoadwayName": "Douglaston Pkwy",
      "From": "68 Ave",
      "To": "69 Ave",
      "Direction": "NB",
      "Date": "2019-10-05",
      "flow": 0.02702702702702703,
      "Latitude": "40.7651325",
      "Longitude": "-73.9580265"
    },
    {
      "SegmentID": "101668",
      "RoadwayName": "Douglaston Pkwy",
      "From": "68 Ave",
      "To": "69 Ave",
      "Direction": "SB",
      "Date": "2019-10-05",
      "flow": 0.011865524060646011,
      "Latitude": "40.7651325",
      "Longitude": "-73.9580265"
    },
    {
      "SegmentID": "32807",
      "RoadwayName": "East 14 Street",
      "From": "14 Street/canarsie Line",
      "To": "14 Street/canarsie Line",
      "Direction": "EB",
      "Date": "2019-10-05",
      "flow": 0.09690177982860909,
      "Latitude": "40.7319448",
      "Longitude": "-73.9840083"
    },
    {
      "SegmentID": "32807",
      "RoadwayName": "East 14 Street",
      "From": "14 Street/canarsie Line",
      "To": "14 Street/canarsie Line",
      "Direction": "WB",
      "Date": "2019-10-05",
      "flow": 0.23335530652603823,
      "Latitude": "40.7319448",
      "Longitude": "-73.9840083"
    },
    {
      "SegmentID": "32585",
      "RoadwayName": "East 4 Street",
      "From": "Broadway",
      "To": "Lafayette Street",
      "Direction": "EB",
      "Date": "2019-10-05",
      "flow": 0.15557020435069216,
      "Latitude": "40.8028269",
      "Longitude": "-73.9675054"
    },
    {
      "SegmentID": "74304",
      "RoadwayName": "Eliot Avenue",
      "From": "69 Street",
      "To": "69 Place",
      "Direction": "EB",
      "Date": "2019-10-05",
      "flow": 0.04152933421226104,
      "Latitude": "40.7326877",
      "Longitude": "-73.8677877"
    },
    {
      "SegmentID": "74304",
      "RoadwayName": "Eliot Avenue",
      "From": "69 Street",
      "To": "69 Place",
      "Direction": "WB",
      "Date": "2019-10-05",
      "flow": 0.024390243902439025,
      "Latitude": "40.7326877",
      "Longitude": "-73.8677877"
    },
    {
      "SegmentID": "76607",
      "RoadwayName": "Elmhurst Ave",
      "From": "92 St",
      "To": "93 St",
      "Direction": "EB",
      "Date": "2019-10-05",
      "flow": 0.017139090309822018,
      "Latitude": "40.7798048",
      "Longitude": "-73.9444584"
    },
    {
      "SegmentID": "28973",
      "RoadwayName": "Flatbush Avenue",
      "From": "Eastern Parkway Line",
      "To": "Eastern Parkway Line",
      "Direction": "NB",
      "Date": "2019-10-05",
      "flow": 0.3961766644693474,
      "Latitude": "40.6732429",
      "Longitude": "-73.9692858"
    },
    {
      "SegmentID": "28973",
      "RoadwayName": "Flatbush Avenue",
      "From": "Eastern Parkway Line",
      "To": "Eastern Parkway Line",
      "Direction": "SB",
      "Date": "2019-10-05",
      "flow": 0.3098220171390903,
      "Latitude": "40.6732429",
      "Longitude": "-73.9692858"
    },
    {
      "SegmentID": "28370",
      "RoadwayName": "Flatbush Avenue",
      "From": "Clarkson Avenue",
      "To": "Lenox Road",
      "Direction": "NB",
      "Date": "2019-10-05",
      "flow": 0.14502307185234015,
      "Latitude": "40.6565477",
      "Longitude": "-73.931909"
    },
    {
      "SegmentID": "28370",
      "RoadwayName": "Flatbush Avenue",
      "From": "Clarkson Avenue",
      "To": "Lenox Road",
      "Direction": "SB",
      "Date": "2019-10-05",
      "flow": 0.2247857613711272,
      "Latitude": "40.6565477",
      "Longitude": "-73.931909"
    },
    {
      "SegmentID": "109335",
      "RoadwayName": "Flushing Avenue",
      "From": "Whipple Street",
      "To": "Thornton Street",
      "Direction": "EB",
      "Date": "2019-10-05",
      "flow": 0.061305207646671064,
      "Latitude": "40.70075",
      "Longitude": "-73.9455193"
    },
    {
      "SegmentID": "109335",
      "RoadwayName": "Flushing Avenue",
      "From": "Whipple Street",
      "To": "Thornton Street",
      "Direction": "WB",
      "Date": "2019-10-05",
      "flow": 0.05800922874093606,
      "Latitude": "40.70075",
      "Longitude": "-73.9455193"
    },
    {
      "SegmentID": "167694",
      "RoadwayName": "Flushing Avenue",
      "From": "Dead End",
      "To": "53 Street",
      "Direction": "EB",
      "Date": "2019-10-05",
      "flow": 0.3045484508899143,
      "Latitude": "40.8401745",
      "Longitude": "-73.82344175"
    },
    {
      "SegmentID": "167694",
      "RoadwayName": "Flushing Avenue",
      "From": "Dead End",
      "To": "53 Street",
      "Direction": "WB",
      "Date": "2019-10-05",
      "flow": 0.10678971654581411,
      "Latitude": "40.8401745",
      "Longitude": "-73.82344175"
    },
    {
      "SegmentID": "164286",
      "RoadwayName": "Forsyth Street",
      "From": "Broome Street",
      "To": "Delancey Street",
      "Direction": "NB",
      "Date": "2019-10-05",
      "flow": 0.04482531311799604,
      "Latitude": "40.7153988",
      "Longitude": "-73.9812435"
    },
    {
      "SegmentID": "64584",
      "RoadwayName": "Murdock Ave",
      "From": "199 St",
      "To": "200 St",
      "Direction": "EB",
      "Date": "2019-10-05",
      "flow": 0.04218852999340804,
      "Latitude": "43.0709017",
      "Longitude": "-74.3202715"
    },
    {
      "SegmentID": "29538",
      "RoadwayName": "Franklin Avenue",
      "From": "Bergen Street",
      "To": "St Marks Avenue",
      "Direction": "SB",
      "Date": "2019-10-05",
      "flow": 0.15754779169413316,
      "Latitude": "40.6706813",
      "Longitude": "-73.9579734"
    },
    {
      "SegmentID": "29578",
      "RoadwayName": "Franklin Avenue",
      "From": "Putnam Avenue",
      "To": "Jefferson Avenue",
      "Direction": "SB",
      "Date": "2019-10-05",
      "flow": 0.13381674357284112,
      "Latitude": "40.6706813",
      "Longitude": "-73.9579734"
    },
    {
      "SegmentID": "23344",
      "RoadwayName": "Fulton Street",
      "From": "8 Avenue Line",
      "To": "8 Avenue Line",
      "Direction": "WB",
      "Date": "2019-10-05",
      "flow": 0.07053394858272907,
      "Latitude": "40.7101857",
      "Longitude": "-74.0076638"
    },
    {
      "SegmentID": "31425",
      "RoadwayName": "Graham Avenue",
      "From": "Ainslie Street",
      "To": "Devoe Street",
      "Direction": "NB",
      "Date": "2019-10-05",
      "flow": 0.045484508899143045,
      "Latitude": "40.7126022",
      "Longitude": "-73.9492335"
    },
    {
      "SegmentID": "31425",
      "RoadwayName": "Graham Avenue",
      "From": "Ainslie Street",
      "To": "Devoe Street",
      "Direction": "SB",
      "Date": "2019-10-05",
      "flow": 0.061305207646671064,
      "Latitude": "40.7126022",
      "Longitude": "-73.9492335"
    },
    {
      "SegmentID": "74365",
      "RoadwayName": "Grand Ave",
      "From": "Mazeau St",
      "To": "72 Pl",
      "Direction": "EB",
      "Date": "2019-10-05",
      "flow": 0.07646671061305207,
      "Latitude": "40.7282238",
      "Longitude": "-73.891224"
    },
    {
      "SegmentID": "74365",
      "RoadwayName": "Grand Ave",
      "From": "Mazeau St",
      "To": "72 Place",
      "Direction": "WB",
      "Date": "2019-10-05",
      "flow": 0.047462096242584045,
      "Latitude": "40.7282238",
      "Longitude": "-73.891224"
    },
    {
      "SegmentID": "32327",
      "RoadwayName": "Grand Street",
      "From": "Broadway",
      "To": "Crosby Street",
      "Direction": "EB",
      "Date": "2019-10-05",
      "flow": 0.27752142386288725,
      "Latitude": "40.7132751",
      "Longitude": "-73.9776678"
    },
    {
      "SegmentID": "45165",
      "RoadwayName": "Green Avenue",
      "From": "St. Nicholas Avenue",
      "To": "Cypress Avenue",
      "Direction": "NB",
      "Date": "2019-10-05",
      "flow": 0.023071852340145024,
      "Latitude": "40.8241432",
      "Longitude": "-73.9446885"
    },
    {
      "SegmentID": "56912",
      "RoadwayName": "Hillside Ave",
      "From": "146 St",
      "To": "Queens Blvd Line",
      "Direction": "EB",
      "Date": "2019-10-05",
      "flow": 0.14436387607119314,
      "Latitude": "43.1238796",
      "Longitude": "-77.5989377"
    },
    {
      "SegmentID": "56912",
      "RoadwayName": "Hillside Ave",
      "From": "146 St",
      "To": "Queens Blvd Line",
      "Direction": "WB",
      "Date": "2019-10-05",
      "flow": 0.11931443638760712,
      "Latitude": "43.1238796",
      "Longitude": "-77.5989377"
    },
    {
      "SegmentID": "180547",
      "RoadwayName": "Hillside Avenue",
      "From": "192 Street",
      "To": "193 Street",
      "Direction": "EB",
      "Date": "2019-10-05",
      "flow": 0.12195121951219512,
      "Latitude": "40.738896",
      "Longitude": "-73.700983"
    },
    {
      "SegmentID": "180547",
      "RoadwayName": "Hillside Avenue",
      "From": "192 Street",
      "To": "193 Street",
      "Direction": "WB",
      "Date": "2019-10-05",
      "flow": 0.1094264996704021,
      "Latitude": "40.738896",
      "Longitude": "-73.700983"
    },
    {
      "SegmentID": "32033",
      "RoadwayName": "Hudson Street",
      "From": "Gansevoort Street",
      "To": "West 13 Street",
      "Direction": "SB",
      "Date": "2019-10-05",
      "flow": 0.18984838497033618,
      "Latitude": "40.739411",
      "Longitude": "-74.0057758"
    },
    {
      "SegmentID": "31890",
      "RoadwayName": "Hudson Street",
      "From": "Vandam Street",
      "To": "Charlton Street",
      "Direction": "NB",
      "Date": "2019-10-05",
      "flow": 0.3909030982201714,
      "Latitude": "40.7266142",
      "Longitude": "-74.0075643"
    },
    {
      "SegmentID": "175499",
      "RoadwayName": "Junction Blvd",
      "From": "Northern Blvd",
      "To": "34 Ave",
      "Direction": "NB",
      "Date": "2019-10-05",
      "flow": 0.07514831905075807,
      "Latitude": "40.7491675",
      "Longitude": "-73.8694786"
    },
    {
      "SegmentID": "175499",
      "RoadwayName": "Junction Blvd",
      "From": "Northern Blvd",
      "To": "34 Ave",
      "Direction": "SB",
      "Date": "2019-10-05",
      "flow": 0.07514831905075807,
      "Latitude": "40.7491675",
      "Longitude": "-73.8694786"
    },
    {
      "SegmentID": "19248",
      "RoadwayName": "Kings Highway",
      "From": "West 11 Street",
      "To": "Quentin Road",
      "Direction": "EB",
      "Date": "2019-10-05",
      "flow": 0.0995385629531971,
      "Latitude": "40.7353375",
      "Longitude": "-73.9981465"
    },
    {
      "SegmentID": "19248",
      "RoadwayName": "Kings Highway",
      "From": "West 11 Street",
      "To": "Quentin Road",
      "Direction": "WB",
      "Date": "2019-10-05",
      "flow": 0.03955174686882004,
      "Latitude": "40.7353375",
      "Longitude": "-73.9981465"
    },
    {
      "SegmentID": "110942",
      "RoadwayName": "Lafayette Street",
      "From": "Lexington Avenue Line",
      "To": "Lexington Avenue Line",
      "Direction": "NB",
      "Date": "2019-10-05",
      "flow": 0.21621621621621623,
      "Latitude": "40.7267105",
      "Longitude": "-73.9940763"
    },
    {
      "SegmentID": "33186",
      "RoadwayName": "Lexington Avenue",
      "From": "East 27 Street",
      "To": "East 28 Street",
      "Direction": "SB",
      "Date": "2019-10-05",
      "flow": 0.4937376400791035,
      "Latitude": "40.741291",
      "Longitude": "-73.9811749"
    },
    {
      "SegmentID": "35955",
      "RoadwayName": "Lexington Avenue",
      "From": "East 46 Street",
      "To": "East 47 Street",
      "Direction": "SB",
      "Date": "2019-10-05",
      "flow": 0.6994067237969677,
      "Latitude": "40.7559876",
      "Longitude": "-73.9789038"
    },
    {
      "SegmentID": "47311",
      "RoadwayName": "Liberty Avenue",
      "From": "Hinsdale Street",
      "To": "Williams Avenue",
      "Direction": "EB",
      "Date": "2019-10-05",
      "flow": 0.023731048121292023,
      "Latitude": "40.6744049",
      "Longitude": "-73.8965126"
    },
    {
      "SegmentID": "47311",
      "RoadwayName": "Liberty Avenue",
      "From": "Hinsdale Street",
      "To": "Williams Avenue",
      "Direction": "WB",
      "Date": "2019-10-05",
      "flow": 0.023071852340145024,
      "Latitude": "40.6744049",
      "Longitude": "-73.8965126"
    },
    {
      "SegmentID": "50705",
      "RoadwayName": "Liberty Avenue",
      "From": "Autumn Avenue",
      "To": "Lincoln Avenue",
      "Direction": "EB",
      "Date": "2019-10-05",
      "flow": 0.06460118655240607,
      "Latitude": "40.6744049",
      "Longitude": "-73.8965126"
    },
    {
      "SegmentID": "50705",
      "RoadwayName": "Liberty Avenue",
      "From": "Autumn Avenue",
      "To": "Lincoln Avenue",
      "Direction": "WB",
      "Date": "2019-10-05",
      "flow": 0.045484508899143045,
      "Latitude": "40.6744049",
      "Longitude": "-73.8965126"
    },
    {
      "SegmentID": "55642",
      "RoadwayName": "Linden Boulevard",
      "From": "140 Street",
      "To": "141 Street",
      "Direction": "EB",
      "Date": "2019-10-05",
      "flow": 0.14568226763348716,
      "Latitude": "40.6747473",
      "Longitude": "-73.8368685"
    },
    {
      "SegmentID": "55642",
      "RoadwayName": "Linden Boulevard",
      "From": "140 Street",
      "To": "141 Street",
      "Direction": "WB",
      "Date": "2019-10-05",
      "flow": 0.11733684904416612,
      "Latitude": "40.6747473",
      "Longitude": "-73.8368685"
    },
    {
      "SegmentID": "34000",
      "RoadwayName": "Madison Avenue",
      "From": "East 27 Street",
      "To": "East 28 Street",
      "Direction": "NB",
      "Date": "2019-10-05",
      "flow": 0.22610415293342123,
      "Latitude": "40.7522005",
      "Longitude": "-73.9797352"
    },
    {
      "SegmentID": "69057",
      "RoadwayName": "Madison Avenue",
      "From": "East 121 Street",
      "To": "East 122 Street",
      "Direction": "NB",
      "Date": "2019-10-05",
      "flow": 0.5319709953856295,
      "Latitude": "40.7522005",
      "Longitude": "-73.9797352"
    },
    {
      "SegmentID": "9006437",
      "RoadwayName": "Madison Street",
      "From": "Dead end",
      "To": "Dead end",
      "Direction": "EB",
      "Date": "2019-10-05",
      "flow": 0.06591957811470006,
      "Latitude": "40.7125376",
      "Longitude": "-73.9915211"
    },
    {
      "SegmentID": "9006437",
      "RoadwayName": "Madison Street",
      "From": "Dead End",
      "To": "Dead End",
      "Direction": "WB",
      "Date": "2019-10-05",
      "flow": 0.04087013843111404,
      "Latitude": "40.7125376",
      "Longitude": "-73.9915211"
    },
    {
      "SegmentID": "26570",
      "RoadwayName": "McDonald Avenue",
      "From": "Culver Line",
      "To": "Culver Line",
      "Direction": "NB",
      "Date": "2019-10-05",
      "flow": 0.025049439683586024,
      "Latitude": "40.584933",
      "Longitude": "-73.9744938"
    },
    {
      "SegmentID": "26570",
      "RoadwayName": "McDonald Avenue",
      "From": "Culver Line",
      "To": "Culver Line",
      "Direction": "SB",
      "Date": "2019-10-05",
      "flow": 0.014502307185234015,
      "Latitude": "40.584933",
      "Longitude": "-73.9744938"
    },
    {
      "SegmentID": "25210",
      "RoadwayName": "Mcdonald Avenue",
      "From": "Avenue S",
      "To": "Avenue T",
      "Direction": "NB",
      "Date": "2019-10-05",
      "flow": 0.06262359920896507,
      "Latitude": "40.610228",
      "Longitude": "-73.9306"
    },
    {
      "SegmentID": "25210",
      "RoadwayName": "Mcdonald Avenue",
      "From": "Avenue S",
      "To": "Avenue T",
      "Direction": "SB",
      "Date": "2019-10-05",
      "flow": 0.053394858272907054,
      "Latitude": "40.610228",
      "Longitude": "-73.9306"
    },
    {
      "SegmentID": "31145",
      "RoadwayName": "Meeker Avenue",
      "From": "Brooklyn Queens Ep Et 32 B Wb",
      "To": "Jackson Street",
      "Direction": "SB",
      "Date": "2019-10-05",
      "flow": 0.07514831905075807,
      "Latitude": "40.6253469",
      "Longitude": "-74.1769824"
    },
    {
      "SegmentID": "31152",
      "RoadwayName": "Meeker Avenue",
      "From": "Skillman Avenue",
      "To": "Jackson Street",
      "Direction": "NB",
      "Date": "2019-10-05",
      "flow": 0.2228081740276862,
      "Latitude": "40.6253469",
      "Longitude": "-74.1769824"
    },
    {
      "SegmentID": "156608",
      "RoadwayName": "Merrick Blvd",
      "From": "Belknap St",
      "To": "180 St",
      "Direction": "WB",
      "Date": "2019-10-05",
      "flow": 0.1008569545154911,
      "Latitude": "40.677415",
      "Longitude": "-73.758787"
    },
    {
      "SegmentID": "149213",
      "RoadwayName": "Merrick Blvd",
      "From": "Belknap St",
      "To": "180 St",
      "Direction": "EB",
      "Date": "2019-10-05",
      "flow": 0.0962425840474621,
      "Latitude": "40.677415",
      "Longitude": "-73.758787"
    },
    {
      "SegmentID": "31148",
      "RoadwayName": "Metropolitan Avenue",
      "From": "14 Street / Canarsie Line",
      "To": "14 Street / Canarsie Line",
      "Direction": "EB",
      "Date": "2019-10-05",
      "flow": 0.09887936717205009,
      "Latitude": "40.7130242",
      "Longitude": "-73.9514225"
    },
    {
      "SegmentID": "31148",
      "RoadwayName": "Metropolitan Avenue",
      "From": "14 Street / Canarsie",
      "To": "14 Street / Canarsie",
      "Direction": "WB",
      "Date": "2019-10-05",
      "flow": 0.1041529334212261,
      "Latitude": "40.7130242",
      "Longitude": "-73.9514225"
    },
    {
      "SegmentID": "129029",
      "RoadwayName": "Metropolitan Avenue",
      "From": "Alley",
      "To": "Park Lane South",
      "Direction": "EB",
      "Date": "2019-10-05",
      "flow": 0.11799604482531312,
      "Latitude": "40.7130242",
      "Longitude": "-73.9514225"
    },
    {
      "SegmentID": "129029",
      "RoadwayName": "Metropolitan Avenue",
      "From": "Alley",
      "To": "Park Lane South",
      "Direction": "WB",
      "Date": "2019-10-05",
      "flow": 0.14040870138431114,
      "Latitude": "40.7130242",
      "Longitude": "-73.9514225"
    },
    {
      "SegmentID": "64584",
      "RoadwayName": "Murdock Ave",
      "From": "199 St",
      "To": "200 St",
      "Direction": "WB",
      "Date": "2019-10-05",
      "flow": 0.04812129202373105,
      "Latitude": "43.0709017",
      "Longitude": "-74.3202715"
    },
    {
      "SegmentID": "45402",
      "RoadwayName": "Myrtle Ave",
      "From": "Woodbine St",
      "To": "St Nicholas Ave",
      "Direction": "EB",
      "Date": "2019-10-05",
      "flow": 0.07317073170731707,
      "Latitude": "40.6945553",
      "Longitude": "-73.9147508"
    },
    {
      "SegmentID": "45402",
      "RoadwayName": "Myrtle Ave",
      "From": "Woodbine St",
      "To": "St Nicholas Ave",
      "Direction": "WB",
      "Date": "2019-10-05",
      "flow": 0.07910349373764008,
      "Latitude": "40.6945553",
      "Longitude": "-73.9147508"
    },
    {
      "SegmentID": "30645",
      "RoadwayName": "Myrtle Avenue",
      "From": "Classon Avenue",
      "To": "Taaffe Place",
      "Direction": "EB",
      "Date": "2019-10-05",
      "flow": 0.07251153592617007,
      "Latitude": "40.688873",
      "Longitude": "-73.96007"
    },
    {
      "SegmentID": "30645",
      "RoadwayName": "Myrtle Avenue",
      "From": "Classon Avenue",
      "To": "Taaffe Place",
      "Direction": "WB",
      "Date": "2019-10-05",
      "flow": 0.10481212920237311,
      "Latitude": "40.688873",
      "Longitude": "-73.96007"
    },
    {
      "SegmentID": "9003591",
      "RoadwayName": "Myrtle Avenue",
      "From": "Tompkins Houses Pedestrian Path",
      "To": "Throop Avenue",
      "Direction": "EB",
      "Date": "2019-10-05",
      "flow": 0.13052076466710613,
      "Latitude": "40.7004288",
      "Longitude": "-73.9443862"
    },
    {
      "SegmentID": "9003591",
      "RoadwayName": "Myrtle Avenue",
      "From": "Tompkins Houses Pedestrian Path",
      "To": "Throop Avenue",
      "Direction": "WB",
      "Date": "2019-10-05",
      "flow": 0.06064601186552406,
      "Latitude": "40.7004288",
      "Longitude": "-73.9443862"
    },
    {
      "SegmentID": "49478",
      "RoadwayName": "Myrtle Avenue",
      "From": "72 Street",
      "To": "72 Place",
      "Direction": "EB",
      "Date": "2019-10-05",
      "flow": 0.03032300593276203,
      "Latitude": "40.7790162",
      "Longitude": "-73.9818557"
    },
    {
      "SegmentID": "49478",
      "RoadwayName": "Myrtle Avenue",
      "From": "72 Street",
      "To": "72 Place",
      "Direction": "WB",
      "Date": "2019-10-05",
      "flow": 0.05075807514831905,
      "Latitude": "40.7790162",
      "Longitude": "-73.9818557"
    },
    {
      "SegmentID": "46587",
      "RoadwayName": "New Lots Avenue",
      "From": "Snediker Avenue",
      "To": "Hinsdale Street",
      "Direction": "EB",
      "Date": "2019-10-05",
      "flow": 0.12392880685563612,
      "Latitude": "40.6662999",
      "Longitude": "-73.8837211"
    },
    {
      "SegmentID": "46587",
      "RoadwayName": "New Lots Avenue",
      "From": "Snediker Avenue",
      "To": "Hinsdale Street",
      "Direction": "WB",
      "Date": "2019-10-05",
      "flow": 0.1114040870138431,
      "Latitude": "40.6662999",
      "Longitude": "-73.8837211"
    },
    {
      "SegmentID": "29764",
      "RoadwayName": "NEW YORK AVENUE",
      "From": "St Marks Avenue",
      "To": "Prospect Place",
      "Direction": "NB",
      "Date": "2019-10-05",
      "flow": 0.08965062623599208,
      "Latitude": "40.6435253",
      "Longitude": "-73.9458799"
    },
    {
      "SegmentID": "50824",
      "RoadwayName": "North Conduit Avenue",
      "From": "Eldert Lane",
      "To": "Forbell Street",
      "Direction": "WB",
      "Date": "2019-10-05",
      "flow": 0.47198417930125247,
      "Latitude": "40.672409",
      "Longitude": "-73.863551"
    },
    {
      "SegmentID": "50823",
      "RoadwayName": "South Conduit Avenue",
      "From": "Belmont Avenue",
      "To": "Eldert Lane",
      "Direction": "EB",
      "Date": "2019-10-05",
      "flow": 0.7112722478576137,
      "Latitude": "40.666549",
      "Longitude": "-73.8376823"
    },
    {
      "SegmentID": "76617",
      "RoadwayName": "Northern Blvd",
      "From": "90 St",
      "To": "91 St",
      "Direction": "EB",
      "Date": "2019-10-05",
      "flow": 0.14765985497692816,
      "Latitude": "40.7530794",
      "Longitude": "-73.9062074"
    },
    {
      "SegmentID": "76617",
      "RoadwayName": "Northern Blvd",
      "From": "90 St",
      "To": "91 St",
      "Direction": "WB",
      "Date": "2019-10-05",
      "flow": 0.12129202373104812,
      "Latitude": "40.7530794",
      "Longitude": "-73.9062074"
    },
    {
      "SegmentID": "67865",
      "RoadwayName": "Northern Boulevard",
      "From": "43 Street",
      "To": "35 Avenue",
      "Direction": "EB",
      "Date": "2019-10-05",
      "flow": 0.25379037574159524,
      "Latitude": "40.7530794",
      "Longitude": "-73.9062074"
    },
    {
      "SegmentID": "67865",
      "RoadwayName": "Northern Boulevard",
      "From": "43 Street",
      "To": "35 Avenue",
      "Direction": "WB",
      "Date": "2019-10-05",
      "flow": 0.16809492419248517,
      "Latitude": "40.7530794",
      "Longitude": "-73.9062074"
    },
    {
      "SegmentID": "29760",
      "RoadwayName": "Nostrand Avenue",
      "From": "Bergen Street",
      "To": "St Marks Avenue",
      "Direction": "SB",
      "Date": "2019-10-05",
      "flow": 0.2524719841793013,
      "Latitude": "40.6808135",
      "Longitude": "-73.9750886"
    },
    {
      "SegmentID": "28732",
      "RoadwayName": "Nostrand Avenue",
      "From": "Lenox Road",
      "To": "Linden Boulevard",
      "Direction": "SB",
      "Date": "2019-10-05",
      "flow": 0.2603823335530653,
      "Latitude": "40.6553529",
      "Longitude": "-73.9306307"
    },
    {
      "SegmentID": "28262",
      "RoadwayName": "Ocean Avenue",
      "From": "Crooke Avenue",
      "To": "Caton Avenue",
      "Direction": "NB",
      "Date": "2019-10-05",
      "flow": 0.10810810810810811,
      "Latitude": "40.6531209",
      "Longitude": "-73.9617033"
    },
    {
      "SegmentID": "28262",
      "RoadwayName": "Ocean Avenue",
      "From": "Crooke Avenue",
      "To": "Caton Avenue",
      "Direction": "SB",
      "Date": "2019-10-05",
      "flow": 0.15161502966381016,
      "Latitude": "40.6531209",
      "Longitude": "-73.9617033"
    },
    {
      "SegmentID": "30310",
      "RoadwayName": "Park Avenue",
      "From": "Washington Avenue",
      "To": "Hall Street",
      "Direction": "EB",
      "Date": "2019-10-05",
      "flow": 0.06789716545814106,
      "Latitude": "40.7514645",
      "Longitude": "-73.9779934"
    },
    {
      "SegmentID": "9003582",
      "RoadwayName": "Park Avenue",
      "From": "Dead End",
      "To": "Dead End",
      "Direction": "WB",
      "Date": "2019-10-05",
      "flow": 0.1034937376400791,
      "Latitude": "40.7514645",
      "Longitude": "-73.9779934"
    },
    {
      "SegmentID": "9003582",
      "RoadwayName": "Park Avenue",
      "From": "Dead End",
      "To": "Dead End",
      "Direction": "EB",
      "Date": "2019-10-05",
      "flow": 0.06591957811470006,
      "Latitude": "40.7514645",
      "Longitude": "-73.9779934"
    },
    {
      "SegmentID": "158747",
      "RoadwayName": "Park Avenue",
      "From": "East 118 Street",
      "To": "East 119 Street",
      "Direction": "NB",
      "Date": "2019-10-05",
      "flow": 0.023731048121292023,
      "Latitude": "40.7514645",
      "Longitude": "-73.9779934"
    },
    {
      "SegmentID": "158833",
      "RoadwayName": "Park Avenue",
      "From": "East 118 Street",
      "To": "East 119 Street",
      "Direction": "SB",
      "Date": "2019-10-05",
      "flow": 0.05669083717864205,
      "Latitude": "40.7514645",
      "Longitude": "-73.9779934"
    },
    {
      "SegmentID": "158948",
      "RoadwayName": "Park Avenue",
      "From": "East 120 Street",
      "To": "East 121 Street",
      "Direction": "NB",
      "Date": "2019-10-05",
      "flow": 0.043506921555702044,
      "Latitude": "40.7514645",
      "Longitude": "-73.9779934"
    },
    {
      "SegmentID": "159172",
      "RoadwayName": "Park Avenue",
      "From": "East 120 Street",
      "To": "East 121 Street",
      "Direction": "SB",
      "Date": "2019-10-05",
      "flow": 0.05998681608437706,
      "Latitude": "40.7514645",
      "Longitude": "-73.9779934"
    },
    {
      "SegmentID": "158713",
      "RoadwayName": "Park Avenue",
      "From": "East 73 Street",
      "To": "East 74 Street",
      "Direction": "NB",
      "Date": "2019-10-05",
      "flow": 0.06657877389584707,
      "Latitude": "40.7514645",
      "Longitude": "-73.9779934"
    },
    {
      "SegmentID": "158714",
      "RoadwayName": "Park Avenue",
      "From": "East 73 Street",
      "To": "East 74 Street",
      "Direction": "SB",
      "Date": "2019-10-05",
      "flow": 0.1061305207646671,
      "Latitude": "40.7514645",
      "Longitude": "-73.9779934"
    },
    {
      "SegmentID": "157143",
      "RoadwayName": "Queens Boulevard",
      "From": "78 Avenue",
      "To": "Dead end",
      "Direction": "EB",
      "Date": "2019-10-05",
      "flow": 0.055372445616348055,
      "Latitude": "40.727634",
      "Longitude": "-73.854941"
    },
    {
      "SegmentID": "151373",
      "RoadwayName": "Queens Boulevard",
      "From": "78 Avenue",
      "To": "Dead End",
      "Direction": "EB",
      "Date": "2019-10-05",
      "flow": 0.07712590639419907,
      "Latitude": "40.727634",
      "Longitude": "-73.854941"
    },
    {
      "SegmentID": "38203",
      "RoadwayName": "Riverside Drive",
      "From": "West 113 Street",
      "To": "West 114 Street",
      "Direction": "NB",
      "Date": "2019-10-05",
      "flow": 0.00988793671720501,
      "Latitude": "40.8050361",
      "Longitude": "-73.9628049"
    },
    {
      "SegmentID": "58671",
      "RoadwayName": "Rockaway Boulevard",
      "From": "143 Street",
      "To": "144 Street",
      "Direction": "EB",
      "Date": "2019-10-05",
      "flow": 0.12261041529334213,
      "Latitude": "40.7171709",
      "Longitude": "-73.9947953"
    },
    {
      "SegmentID": "58671",
      "RoadwayName": "Rockaway Boulevard",
      "From": "143 Street",
      "To": "144 Street",
      "Direction": "WB",
      "Date": "2019-10-05",
      "flow": 0.07185234014502308,
      "Latitude": "40.7171709",
      "Longitude": "-73.9947953"
    },
    {
      "SegmentID": "28612",
      "RoadwayName": "Rogers Avenue",
      "From": "Lenox Road",
      "To": "Linden Boulevard",
      "Direction": "NB",
      "Date": "2019-10-05",
      "flow": 0.1984179301252472,
      "Latitude": "40.6553529",
      "Longitude": "-73.9306307"
    },
    {
      "SegmentID": "150637",
      "RoadwayName": "Seaview Avenue",
      "From": "East 102 Street",
      "To": "East 103 Street",
      "Direction": "EB",
      "Date": "2019-10-05",
      "flow": 0.04087013843111404,
      "Latitude": "40.78866",
      "Longitude": "-73.9457907"
    },
    {
      "SegmentID": "154275",
      "RoadwayName": "Seaview Avenue",
      "From": "East 102 Street",
      "To": "East 103 Street",
      "Direction": "WB",
      "Date": "2019-10-05",
      "flow": 0.07712590639419907,
      "Latitude": "40.78866",
      "Longitude": "-73.9457907"
    },
    {
      "SegmentID": "22539",
      "RoadwayName": "Smith Street",
      "From": "Culver / 6 Avenue Line",
      "To": "Culver / 6 Avenue Line",
      "Direction": "NB",
      "Date": "2019-10-05",
      "flow": 0.08239947264337508,
      "Latitude": "40.6721713",
      "Longitude": "-73.9993878"
    },
    {
      "SegmentID": "64059",
      "RoadwayName": "South Conduit Avenue",
      "From": "Hook Creek Boulevard",
      "To": "Dead End",
      "Direction": "EB",
      "Date": "2019-10-05",
      "flow": 0.24785761371127224,
      "Latitude": "40.666549",
      "Longitude": "-73.8376823"
    },
    {
      "SegmentID": "64066",
      "RoadwayName": "Sunrise Highway",
      "From": "Dead End",
      "To": "Hook Creek Boulevard",
      "Direction": "WB",
      "Date": "2019-10-05",
      "flow": 0.1931443638760712,
      "Latitude": "40.8401745",
      "Longitude": "-73.82344175"
    },
    {
      "SegmentID": "32366",
      "RoadwayName": "Spring Street",
      "From": "Crosby Street",
      "To": "Broadway",
      "Direction": "EB",
      "Date": "2019-10-05",
      "flow": 0.16545814106789716,
      "Latitude": "40.7223025",
      "Longitude": "-73.9971855"
    },
    {
      "SegmentID": "100527",
      "RoadwayName": "Springfield Blvd",
      "From": "89 Ave",
      "To": "90 Ave",
      "Direction": "NB",
      "Date": "2019-10-05",
      "flow": 0.043506921555702044,
      "Latitude": "43.1508183",
      "Longitude": "-77.690275"
    },
    {
      "SegmentID": "100527",
      "RoadwayName": "Springfield Blvd",
      "From": "89 Ave",
      "To": "90  Ave",
      "Direction": "SB",
      "Date": "2019-10-05",
      "flow": 0.03164139749505603,
      "Latitude": "43.1508183",
      "Longitude": "-77.690275"
    },
    {
      "SegmentID": "155739",
      "RoadwayName": "Springfield Blvd",
      "From": "115 Rd",
      "To": "116 Ave",
      "Direction": "SB",
      "Date": "2019-10-05",
      "flow": 0.05405405405405406,
      "Latitude": "40.7127281",
      "Longitude": "-74.0060152"
    },
    {
      "SegmentID": "148948",
      "RoadwayName": "Springfield Blvd",
      "From": "115 Rd",
      "To": "116 Ave",
      "Direction": "NB",
      "Date": "2019-10-05",
      "flow": 0.05998681608437706,
      "Latitude": "40.7127281",
      "Longitude": "-74.0060152"
    },
    {
      "SegmentID": "23752",
      "RoadwayName": "St James Place",
      "From": "Madison Street",
      "To": "James Street",
      "Direction": "NB",
      "Date": "2019-10-05",
      "flow": 0.1114040870138431,
      "Latitude": "40.7125376",
      "Longitude": "-73.9915211"
    },
    {
      "SegmentID": "23752",
      "RoadwayName": "St James Place",
      "From": "Madison Street",
      "To": "James Street",
      "Direction": "SB",
      "Date": "2019-10-05",
      "flow": 0.14370468029004616,
      "Latitude": "40.7125376",
      "Longitude": "-73.9915211"
    },
    {
      "SegmentID": "67754",
      "RoadwayName": "Steinway St",
      "From": "35 Ave",
      "To": "36 Ave",
      "Direction": "NB",
      "Date": "2019-10-05",
      "flow": 0.1054713249835201,
      "Latitude": "40.7651912",
      "Longitude": "-73.8277995"
    },
    {
      "SegmentID": "67754",
      "RoadwayName": "Steinway St",
      "From": "35 Ave",
      "To": "36 Ave",
      "Direction": "SB",
      "Date": "2019-10-05",
      "flow": 0.11997363216875412,
      "Latitude": "40.7651912",
      "Longitude": "-73.8277995"
    },
    {
      "SegmentID": "47393",
      "RoadwayName": "Sutter Avenue",
      "From": "Hinsdale Street",
      "To": "Williams Avenue",
      "Direction": "EB",
      "Date": "2019-10-05",
      "flow": 0.06394199077125906,
      "Latitude": "40.671205",
      "Longitude": "-73.900507"
    },
    {
      "SegmentID": "47393",
      "RoadwayName": "Sutter Avenue",
      "From": "Hinsdale Street",
      "To": "Williams Avenue",
      "Direction": "WB",
      "Date": "2019-10-05",
      "flow": 0.03032300593276203,
      "Latitude": "40.671205",
      "Longitude": "-73.900507"
    },
    {
      "SegmentID": "50660",
      "RoadwayName": "Sutter Avenue",
      "From": "Hemlock Street",
      "To": "Autumn Avenue",
      "Direction": "EB",
      "Date": "2019-10-05",
      "flow": 0.047462096242584045,
      "Latitude": "40.684704",
      "Longitude": "-73.8713701"
    },
    {
      "SegmentID": "29025",
      "RoadwayName": "Union Street",
      "From": "7 Avenue",
      "To": "8 Avenue",
      "Direction": "EB",
      "Date": "2019-10-05",
      "flow": 0.07844429795649308,
      "Latitude": "40.677316",
      "Longitude": "-73.98311"
    },
    {
      "SegmentID": "29025",
      "RoadwayName": "Union Street",
      "From": "7 Avenue",
      "To": "8 Avenue",
      "Direction": "WB",
      "Date": "2019-10-05",
      "flow": 0.024390243902439025,
      "Latitude": "40.677316",
      "Longitude": "-73.98311"
    },
    {
      "SegmentID": "189924",
      "RoadwayName": "Union Turnpike",
      "From": "141 Street",
      "To": "Dead end",
      "Direction": "EB",
      "Date": "2019-10-05",
      "flow": 0.10678971654581411,
      "Latitude": "40.7454151",
      "Longitude": "-73.715169"
    },
    {
      "SegmentID": "191797",
      "RoadwayName": "Union Turnpike",
      "From": "Dead end",
      "To": "Dead end",
      "Direction": "WB",
      "Date": "2019-10-05",
      "flow": 0.049439683586025046,
      "Latitude": "40.7454151",
      "Longitude": "-73.715169"
    },
    {
      "SegmentID": "72435",
      "RoadwayName": "Wadsworth Avenue",
      "From": "West 187 Street",
      "To": "West 188 Street",
      "Direction": "NB",
      "Date": "2019-10-05",
      "flow": 0.03493737640079104,
      "Latitude": "40.84852",
      "Longitude": "-73.935929"
    },
    {
      "SegmentID": "72435",
      "RoadwayName": "Wadsworth Avenue",
      "From": "West 187 Street",
      "To": "West 188 Street",
      "Direction": "SB",
      "Date": "2019-10-05",
      "flow": 0.049439683586025046,
      "Latitude": "40.84852",
      "Longitude": "-73.935929"
    },
    {
      "SegmentID": "33891",
      "RoadwayName": "West 29 Street",
      "From": "5 Avenue",
      "To": "Broadway",
      "Direction": "WB",
      "Date": "2019-10-05",
      "flow": 0.13249835201054713,
      "Latitude": "40.753748",
      "Longitude": "-74.0069119"
    },
    {
      "SegmentID": "32137",
      "RoadwayName": "West Broadway",
      "From": "Spring Street",
      "To": "Prince Street",
      "Direction": "NB",
      "Date": "2019-10-05",
      "flow": 0.16084377059986815,
      "Latitude": "40.7223025",
      "Longitude": "-73.9971855"
    },
    {
      "SegmentID": "32137",
      "RoadwayName": "West Broadway",
      "From": "Spring Street",
      "To": "Prince Street",
      "Direction": "SB",
      "Date": "2019-10-05",
      "flow": 0.034278180619644036,
      "Latitude": "40.7223025",
      "Longitude": "-73.9971855"
    },
    {
      "SegmentID": "37277",
      "RoadwayName": "West End Avenue",
      "From": "West 97 Street",
      "To": "West 98 Street",
      "Direction": "NB",
      "Date": "2019-10-05",
      "flow": 0.04878048780487805,
      "Latitude": "40.7957505",
      "Longitude": "-73.9722731"
    },
    {
      "SegmentID": "37277",
      "RoadwayName": "West End Avenue",
      "From": "West 97 Street",
      "To": "West 98 Street",
      "Direction": "SB",
      "Date": "2019-10-05",
      "flow": 0.08437705998681608,
      "Latitude": "40.7957505",
      "Longitude": "-73.9722731"
    },
    {
      "SegmentID": "143526",
      "RoadwayName": "West Street",
      "From": "West 12 Street",
      "To": "Dead end",
      "Direction": "NB",
      "Date": "2019-10-05",
      "flow": 0.46275543836519445,
      "Latitude": "40.7376112",
      "Longitude": "-74.0015555"
    },
    {
      "SegmentID": "143524",
      "RoadwayName": "West Street",
      "From": "Bike Path",
      "To": "Dead End",
      "Direction": "SB",
      "Date": "2019-10-05",
      "flow": 0.3981542518127884,
      "Latitude": "40.7013831",
      "Longitude": "-73.9908401"
    },
    {
      "SegmentID": "158938",
      "RoadwayName": "West Street",
      "From": "Dead end",
      "To": "Hubert Street",
      "Direction": "NB",
      "Date": "2019-10-05",
      "flow": 0.24983520105471324,
      "Latitude": "40.8401745",
      "Longitude": "-73.82344175"
    },
    {
      "SegmentID": "158938",
      "RoadwayName": "West Street",
      "From": "Dead end",
      "To": "Hubert Street",
      "Direction": "SB",
      "Date": "2019-10-05",
      "flow": 0.38167435728411336,
      "Latitude": "40.8401745",
      "Longitude": "-73.82344175"
    },
    {
      "SegmentID": "229411",
      "RoadwayName": "West Street",
      "From": "Tribeca Bridge",
      "To": "Dead end",
      "Direction": "NB",
      "Date": "2019-10-05",
      "flow": 0.2880685563612393,
      "Latitude": "40.7175091",
      "Longitude": "-74.0133333"
    },
    {
      "SegmentID": "142684",
      "RoadwayName": "West Street",
      "From": "Tribeca Bridge",
      "To": "Dead end",
      "Direction": "SB",
      "Date": "2019-10-05",
      "flow": 0.4021094264996704,
      "Latitude": "40.7175091",
      "Longitude": "-74.0133333"
    },
    {
      "SegmentID": "150102",
      "RoadwayName": "Woodhaven Blvd",
      "From": "Dead End",
      "To": "Lirr Main Line",
      "Direction": "SB",
      "Date": "2019-10-05",
      "flow": 0.4733025708635465,
      "Latitude": "40.7332625",
      "Longitude": "-73.8697005"
    },
    {
      "SegmentID": "152046",
      "RoadwayName": "Woodhaven Blvd",
      "From": "Eliot Ave",
      "To": "Lirr Main Line",
      "Direction": "NB",
      "Date": "2019-10-05",
      "flow": 0.25115359261700726,
      "Latitude": "40.7332625",
      "Longitude": "-73.8697005"
    },
    {
      "SegmentID": "151668",
      "RoadwayName": "Woodhaven Boulevard",
      "From": "95 Avenue",
      "To": "Dead end",
      "Direction": "SB",
      "Date": "2019-10-05",
      "flow": 0.023071852340145024,
      "Latitude": "40.7332625",
      "Longitude": "-73.8697005"
    },
    {
      "SegmentID": "137213",
      "RoadwayName": "Woodhaven Boulevard",
      "From": "Dead end",
      "To": "Dead end",
      "Direction": "SB",
      "Date": "2019-10-05",
      "flow": 0.16479894528675015,
      "Latitude": "40.7332625",
      "Longitude": "-73.8697005"
    },
    {
      "SegmentID": "137212",
      "RoadwayName": "Woodhaven Boulevard",
      "From": "Dead end",
      "To": "Dead end",
      "Direction": "NB",
      "Date": "2019-10-05",
      "flow": 0.10283454185893211,
      "Latitude": "40.7332625",
      "Longitude": "-73.8697005"
    },
    {
      "SegmentID": "151665",
      "RoadwayName": "Woodhaven Boulevard",
      "From": "95 Avenue",
      "To": "95 Street",
      "Direction": "NB",
      "Date": "2019-10-05",
      "flow": 0.02900461437046803,
      "Latitude": "40.7332625",
      "Longitude": "-73.8697005"
    },
    {
      "SegmentID": "68199",
      "RoadwayName": "Woodside Avenue",
      "From": "Barnett Avenue",
      "To": "39 Avenue",
      "Direction": "NB",
      "Date": "2019-10-05",
      "flow": 0.02109426499670402,
      "Latitude": "40.749979",
      "Longitude": "-73.911625"
    },
    {
      "SegmentID": "68199",
      "RoadwayName": "Woodside Avenue",
      "From": "Barnett Avenue",
      "To": "39 Avenue",
      "Direction": "SB",
      "Date": "2019-10-05",
      "flow": 0.016479894528675015,
      "Latitude": "40.749979",
      "Longitude": "-73.911625"
    }
  ],
  "2:00-3:00AM": [
    {
      "SegmentID": "67650",
      "RoadwayName": "31 St",
      "From": "35 Ave",
      "To": "36 Ave",
      "Direction": "NB",
      "Date": "2019-10-05",
      "flow": 0.12121212121212122,
      "Latitude": "40.7651912",
      "Longitude": "-73.8277995"
    },
    {
      "SegmentID": "9001279",
      "RoadwayName": "21 St",
      "From": "Dead End",
      "To": "35 Ave",
      "Direction": "SB",
      "Date": "2019-10-05",
      "flow": 0.17286501377410468,
      "Latitude": "40.8401745",
      "Longitude": "-73.82344175"
    },
    {
      "SegmentID": "67650",
      "RoadwayName": "31 St",
      "From": "35 Ave",
      "To": "36 Ave",
      "Direction": "SB",
      "Date": "2019-10-05",
      "flow": 0.081267217630854,
      "Latitude": "40.7651912",
      "Longitude": "-73.8277995"
    },
    {
      "SegmentID": "116269",
      "RoadwayName": "225 St",
      "From": "114 Rd",
      "To": "Dead End",
      "Direction": "NB",
      "Date": "2019-10-05",
      "flow": 0,
      "Latitude": "40.7127281",
      "Longitude": "-74.0060152"
    },
    {
      "SegmentID": "130569",
      "RoadwayName": "32 Ave",
      "From": "86 St",
      "To": "Alley",
      "Direction": "EB",
      "Date": "2019-10-05",
      "flow": 0.04338842975206612,
      "Latitude": "40.7794939",
      "Longitude": "-73.9555295"
    },
    {
      "SegmentID": "116269",
      "RoadwayName": "225 St",
      "From": "114 Rd",
      "To": "Dead End",
      "Direction": "SB",
      "Date": "2019-10-05",
      "flow": 0.0006887052341597796,
      "Latitude": "40.7127281",
      "Longitude": "-74.0060152"
    },
    {
      "SegmentID": "36837",
      "RoadwayName": "21 St",
      "From": "45 Road",
      "To": "46 Ave",
      "Direction": "SB",
      "Date": "2019-10-05",
      "flow": 0.1046831955922865,
      "Latitude": "40.6505439",
      "Longitude": "-73.7912194"
    },
    {
      "SegmentID": "130569",
      "RoadwayName": "32 Ave",
      "From": "86 St",
      "To": "Alley",
      "Direction": "WB",
      "Date": "2019-10-05",
      "flow": 0.03787878787878788,
      "Latitude": "40.7794939",
      "Longitude": "-73.9555295"
    },
    {
      "SegmentID": "9001279",
      "RoadwayName": "21 St",
      "From": "Dead End",
      "To": "35 Ave",
      "Direction": "NB",
      "Date": "2019-10-05",
      "flow": 0.2465564738292011,
      "Latitude": "40.8401745",
      "Longitude": "-73.82344175"
    },
    {
      "SegmentID": "130633",
      "RoadwayName": "31 Avenue",
      "From": "88 Street",
      "To": "Alley",
      "Direction": "WB",
      "Date": "2019-10-05",
      "flow": 0.01859504132231405,
      "Latitude": "40.6798468",
      "Longitude": "-73.8515018"
    },
    {
      "SegmentID": "33121",
      "RoadwayName": "1 Avenue",
      "From": "East 12 Street",
      "To": "East 13 Street",
      "Direction": "NB",
      "Date": "2019-10-05",
      "flow": 1,
      "Latitude": "40.728137",
      "Longitude": "-73.9790715"
    },
    {
      "SegmentID": "34656",
      "RoadwayName": "1 Avenue",
      "From": "East 27 Street",
      "To": "East 28 Street",
      "Direction": "NB",
      "Date": "2019-10-05",
      "flow": 0.8085399449035813,
      "Latitude": "40.741291",
      "Longitude": "-73.9811749"
    },
    {
      "SegmentID": "9001099",
      "RoadwayName": "1 Avenue",
      "From": "Dead end",
      "To": "Dead end",
      "Direction": "NB",
      "Date": "2019-10-05",
      "flow": 0.28856749311294766,
      "Latitude": "40.8401745",
      "Longitude": "-73.82344175"
    },
    {
      "SegmentID": "36674",
      "RoadwayName": "1 Avenue",
      "From": "East 73 Street",
      "To": "East 74 Street",
      "Direction": "NB",
      "Date": "2019-10-05",
      "flow": 0.256198347107438,
      "Latitude": "40.766698",
      "Longitude": "-73.9511901"
    },
    {
      "SegmentID": "38035",
      "RoadwayName": "1 Avenue",
      "From": "East 97 Street",
      "To": "East 99 Street",
      "Direction": "NB",
      "Date": "2019-10-05",
      "flow": 0.2837465564738292,
      "Latitude": "40.7852713",
      "Longitude": "-73.9473373"
    },
    {
      "SegmentID": "33471",
      "RoadwayName": "10 Avenue",
      "From": "West 27 Drive",
      "To": "West 28 Street",
      "Direction": "NB",
      "Date": "2019-10-05",
      "flow": 0.5750688705234159,
      "Latitude": "40.5464989",
      "Longitude": "-74.21231865"
    },
    {
      "SegmentID": "33844",
      "RoadwayName": "10 Avenue",
      "From": "West 46 Street",
      "To": "West 47 Street",
      "Direction": "NB",
      "Date": "2019-10-05",
      "flow": 0.5674931129476584,
      "Latitude": "40.5464989",
      "Longitude": "-74.21231865"
    },
    {
      "SegmentID": "33413",
      "RoadwayName": "11 Avenue",
      "From": "West 28 Street",
      "To": "West 29 Street",
      "Direction": "SB",
      "Date": "2019-10-05",
      "flow": 0.3443526170798898,
      "Latitude": "40.7127281",
      "Longitude": "-74.0060152"
    },
    {
      "SegmentID": "33760",
      "RoadwayName": "11 Avenue",
      "From": "West 45 Street",
      "To": "West 46 Street",
      "Direction": "SB",
      "Date": "2019-10-05",
      "flow": 0.31611570247933884,
      "Latitude": "40.7127281",
      "Longitude": "-74.0060152"
    },
    {
      "SegmentID": "112817",
      "RoadwayName": "111 Avenue",
      "From": "140 Street",
      "To": "141 Street",
      "Direction": "EB",
      "Date": "2019-10-05",
      "flow": 0.045454545454545456,
      "Latitude": "40.7413853",
      "Longitude": "-74.0032719"
    },
    {
      "SegmentID": "112817",
      "RoadwayName": "111 Avenue",
      "From": "140 Street",
      "To": "141 Street",
      "Direction": "WB",
      "Date": "2019-10-05",
      "flow": 0.03925619834710744,
      "Latitude": "40.7413853",
      "Longitude": "-74.0032719"
    },
    {
      "SegmentID": "19641",
      "RoadwayName": "13 Avenue",
      "From": "72 Street",
      "To": "73 Street",
      "Direction": "NB",
      "Date": "2019-10-05",
      "flow": 0.008264462809917356,
      "Latitude": "40.54682875",
      "Longitude": "-74.2106047"
    },
    {
      "SegmentID": "19641",
      "RoadwayName": "13 Avenue",
      "From": "72 Street",
      "To": "73 Street",
      "Direction": "SB",
      "Date": "2019-10-05",
      "flow": 0.01584022038567493,
      "Latitude": "40.54682875",
      "Longitude": "-74.2106047"
    },
    {
      "SegmentID": "36112",
      "RoadwayName": "2 Avenue",
      "From": "East 46 Street",
      "To": "East 47 Street",
      "Direction": "SB",
      "Date": "2019-10-05",
      "flow": 0.7706611570247934,
      "Latitude": "40.7330958",
      "Longitude": "-73.9843953"
    },
    {
      "SegmentID": "34659",
      "RoadwayName": "2 Avenue",
      "From": "East 27 Street",
      "To": "East 28 Street",
      "Direction": "SB",
      "Date": "2019-10-05",
      "flow": 0.78099173553719,
      "Latitude": "40.7330958",
      "Longitude": "-73.9843953"
    },
    {
      "SegmentID": "9001153",
      "RoadwayName": "2 Avenue",
      "From": "Dead end",
      "To": "East 123 Street",
      "Direction": "SB",
      "Date": "2019-10-05",
      "flow": 0.18457300275482094,
      "Latitude": "40.7330958",
      "Longitude": "-73.9843953"
    },
    {
      "SegmentID": "9001153",
      "RoadwayName": "2 Avenue service rd",
      "From": "Dead end",
      "To": "East 123 Street",
      "Direction": "SB",
      "Date": "2019-10-05",
      "flow": 0.0048209366391184574,
      "Latitude": "40.8401745",
      "Longitude": "-73.82344175"
    },
    {
      "SegmentID": "36671",
      "RoadwayName": "2 Avenue",
      "From": "East 74 Street",
      "To": "East 75 Street",
      "Direction": "SB",
      "Date": "2019-10-05",
      "flow": 0.5915977961432507,
      "Latitude": "40.7330958",
      "Longitude": "-73.9843953"
    },
    {
      "SegmentID": "38055",
      "RoadwayName": "2 Avenue",
      "From": "East 99 Street",
      "To": "East 100 Street",
      "Direction": "SB",
      "Date": "2019-10-05",
      "flow": 0.06542699724517906,
      "Latitude": "40.7330958",
      "Longitude": "-73.9843953"
    },
    {
      "SegmentID": "36837",
      "RoadwayName": "21 St",
      "From": "45 Road",
      "To": "46 Ave",
      "Direction": "NB",
      "Date": "2019-10-05",
      "flow": 0.08677685950413223,
      "Latitude": "40.6505439",
      "Longitude": "-73.7912194"
    },
    {
      "SegmentID": "35960",
      "RoadwayName": "3 Avenue",
      "From": "East 46 Street",
      "To": "East 47 Street",
      "Direction": "NB",
      "Date": "2019-10-05",
      "flow": 0.6962809917355371,
      "Latitude": "40.54678755",
      "Longitude": "-74.21027354"
    },
    {
      "SegmentID": "36274",
      "RoadwayName": "3 Avenue",
      "From": "Astoria Line",
      "To": "East 61 Street",
      "Direction": "NB",
      "Date": "2019-10-05",
      "flow": 0.43112947658402206,
      "Latitude": "40.54678755",
      "Longitude": "-74.21027354"
    },
    {
      "SegmentID": "22804",
      "RoadwayName": "3 Avenue",
      "From": "Butler Street",
      "To": "Douglass Street",
      "Direction": "NB",
      "Date": "2019-10-05",
      "flow": 0.045454545454545456,
      "Latitude": "40.54678755",
      "Longitude": "-74.21027354"
    },
    {
      "SegmentID": "22804",
      "RoadwayName": "3 Avenue",
      "From": "Butler Street",
      "To": "Douglass Street",
      "Direction": "SB",
      "Date": "2019-10-05",
      "flow": 0.03443526170798898,
      "Latitude": "40.54678755",
      "Longitude": "-74.21027354"
    },
    {
      "SegmentID": "36574",
      "RoadwayName": "3 Avenue",
      "From": "East 73 Street",
      "To": "East 74 Street",
      "Direction": "NB",
      "Date": "2019-10-05",
      "flow": 0.4724517906336088,
      "Latitude": "40.54678755",
      "Longitude": "-74.21027354"
    },
    {
      "SegmentID": "69185",
      "RoadwayName": "3 Avenue",
      "From": "East 123 Street",
      "To": "East 124 Street",
      "Direction": "NB",
      "Date": "2019-10-05",
      "flow": 0.14669421487603307,
      "Latitude": "40.54678755",
      "Longitude": "-74.21027354"
    },
    {
      "SegmentID": "130633",
      "RoadwayName": "31 Avenue",
      "From": "88 Street",
      "To": "Alley",
      "Direction": "EB",
      "Date": "2019-10-05",
      "flow": 0.028236914600550965,
      "Latitude": "40.6798468",
      "Longitude": "-73.8515018"
    },
    {
      "SegmentID": "153067",
      "RoadwayName": "34TH AVENUE",
      "From": "92nd Street",
      "To": "93rd Street",
      "Direction": "WB",
      "Date": "2019-10-05",
      "flow": 0.04201101928374656,
      "Latitude": "40.655689",
      "Longitude": "-73.840036"
    },
    {
      "SegmentID": "33305",
      "RoadwayName": "3RD AVENUE",
      "From": "East 27th Street",
      "To": "East 28th Street",
      "Direction": "NB",
      "Date": "2019-10-05",
      "flow": 0.6398071625344353,
      "Latitude": "40.633204",
      "Longitude": "-73.951"
    },
    {
      "SegmentID": "158092",
      "RoadwayName": "4 Avenue",
      "From": "29 Street",
      "To": "30 Street",
      "Direction": "SB",
      "Date": "2019-10-05",
      "flow": 0.07369146005509641,
      "Latitude": "40.60709435",
      "Longitude": "-74.1490699"
    },
    {
      "SegmentID": "157979",
      "RoadwayName": "4 Avenue",
      "From": "29 Street",
      "To": "30 Street",
      "Direction": "NB",
      "Date": "2019-10-05",
      "flow": 0.06473829201101929,
      "Latitude": "40.60709435",
      "Longitude": "-74.1490699"
    },
    {
      "SegmentID": "158163",
      "RoadwayName": "4 Avenue",
      "From": "Butler Street",
      "To": "Douglass Street",
      "Direction": "NB",
      "Date": "2019-10-05",
      "flow": 0.08195592286501377,
      "Latitude": "40.60709435",
      "Longitude": "-74.1490699"
    },
    {
      "SegmentID": "157722",
      "RoadwayName": "4 Avenue",
      "From": "Butler Street",
      "To": "Douglass Street",
      "Direction": "SB",
      "Date": "2019-10-05",
      "flow": 0.07988980716253444,
      "Latitude": "40.60709435",
      "Longitude": "-74.1490699"
    },
    {
      "SegmentID": "33018",
      "RoadwayName": "5 Avenue",
      "From": "West 25 Street",
      "To": "East 26 Street",
      "Direction": "SB",
      "Date": "2019-10-05",
      "flow": 0.546831955922865,
      "Latitude": "40.5467724",
      "Longitude": "-74.21034999"
    },
    {
      "SegmentID": "33886",
      "RoadwayName": "5 Avenue",
      "From": "East 27 Street",
      "To": "East 28 Street",
      "Direction": "SB",
      "Date": "2019-10-05",
      "flow": 0.5192837465564738,
      "Latitude": "40.5467724",
      "Longitude": "-74.21034999"
    },
    {
      "SegmentID": "35806",
      "RoadwayName": "5 Avenue",
      "From": "East 46 Street",
      "To": "East 47 Street",
      "Direction": "SB",
      "Date": "2019-10-05",
      "flow": 0.4359504132231405,
      "Latitude": "40.5467724",
      "Longitude": "-74.21034999"
    },
    {
      "SegmentID": "21115",
      "RoadwayName": "5 Avenue",
      "From": "30 Street",
      "To": "31 Street",
      "Direction": "NB",
      "Date": "2019-10-05",
      "flow": 0.044765840220385676,
      "Latitude": "40.5467724",
      "Longitude": "-74.21034999"
    },
    {
      "SegmentID": "21115",
      "RoadwayName": "5 Avenue",
      "From": "30 Street",
      "To": "31 Street",
      "Direction": "SB",
      "Date": "2019-10-05",
      "flow": 0.044765840220385676,
      "Latitude": "40.5467724",
      "Longitude": "-74.21034999"
    },
    {
      "SegmentID": "28923",
      "RoadwayName": "5 Avenue",
      "From": "Douglass Street",
      "To": "De Graw Street",
      "Direction": "SB",
      "Date": "2019-10-05",
      "flow": 0.0743801652892562,
      "Latitude": "40.5467724",
      "Longitude": "-74.21034999"
    },
    {
      "SegmentID": "75343",
      "RoadwayName": "58 Street",
      "From": "41 Drive",
      "To": "43 Avenue",
      "Direction": "NB",
      "Date": "2019-10-05",
      "flow": 0.02134986225895317,
      "Latitude": "40.7650598",
      "Longitude": "-73.9768355"
    },
    {
      "SegmentID": "75343",
      "RoadwayName": "58 Street",
      "From": "41 Drive",
      "To": "43 Avenue",
      "Direction": "SB",
      "Date": "2019-10-05",
      "flow": 0.048209366391184574,
      "Latitude": "40.7650598",
      "Longitude": "-73.9768355"
    },
    {
      "SegmentID": "81591",
      "RoadwayName": "59 Ave",
      "From": "92 St",
      "To": "94 St",
      "Direction": "EB",
      "Date": "2019-10-05",
      "flow": 0.024104683195592287,
      "Latitude": "40.7798048",
      "Longitude": "-73.9444584"
    },
    {
      "SegmentID": "20278",
      "RoadwayName": "60 Street",
      "From": "18 Avenue",
      "To": "19 Avenue",
      "Direction": "WB",
      "Date": "2019-10-05",
      "flow": 0.013774104683195593,
      "Latitude": "40.5923764",
      "Longitude": "-73.7887383"
    },
    {
      "SegmentID": "74206",
      "RoadwayName": "69 St",
      "From": "52 Ave",
      "To": "52 Rd",
      "Direction": "NB",
      "Date": "2019-10-05",
      "flow": 0.05303030303030303,
      "Latitude": "40.7441763",
      "Longitude": "-73.9124986"
    },
    {
      "SegmentID": "74206",
      "RoadwayName": "69 St",
      "From": "52 Ave",
      "To": "52 Rd",
      "Direction": "SB",
      "Date": "2019-10-05",
      "flow": 0.05440771349862259,
      "Latitude": "40.7441763",
      "Longitude": "-73.9124986"
    },
    {
      "SegmentID": "108665",
      "RoadwayName": "73 Place",
      "From": "Cooper Avenue",
      "To": "Dead end",
      "Direction": "NB",
      "Date": "2019-10-05",
      "flow": 0.005509641873278237,
      "Latitude": "40.7074415",
      "Longitude": "-73.8736538"
    },
    {
      "SegmentID": "32283",
      "RoadwayName": "8 Avenue",
      "From": "Greenwich Avenue",
      "To": "14 Street/Canarsie Line",
      "Direction": "NB",
      "Date": "2019-10-05",
      "flow": 0.424931129476584,
      "Latitude": "40.7683107",
      "Longitude": "-73.96440596"
    },
    {
      "SegmentID": "33968",
      "RoadwayName": "8 Avenue",
      "From": "8 Avenue Line",
      "To": "8 Avenue Line",
      "Direction": "NB",
      "Date": "2019-10-05",
      "flow": 0.5392561983471075,
      "Latitude": "40.7683107",
      "Longitude": "-73.96440596"
    },
    {
      "SegmentID": "33848",
      "RoadwayName": "9 Avenue",
      "From": "West 45 Street",
      "To": "West 46 Street",
      "Direction": "SB",
      "Date": "2019-10-05",
      "flow": 0.5633608815426997,
      "Latitude": "40.81819805",
      "Longitude": "-73.95100898"
    },
    {
      "SegmentID": "22345",
      "RoadwayName": "9 Street",
      "From": "9 Street Bridge",
      "To": "2 Avenue",
      "Direction": "EB",
      "Date": "2019-10-05",
      "flow": 0.01652892561983471,
      "Latitude": "40.6577415",
      "Longitude": "-73.82997841"
    },
    {
      "SegmentID": "22345",
      "RoadwayName": "9 Street",
      "From": "9 Street Bridge",
      "To": "2 Avenue",
      "Direction": "WB",
      "Date": "2019-10-05",
      "flow": 0.047520661157024795,
      "Latitude": "40.6577415",
      "Longitude": "-73.82997841"
    },
    {
      "SegmentID": "56878",
      "RoadwayName": "Archer Ave",
      "From": "143 St",
      "To": "144 Pl",
      "Direction": "EB",
      "Date": "2019-10-05",
      "flow": 0.05234159779614325,
      "Latitude": "40.7171709",
      "Longitude": "-73.9947953"
    },
    {
      "SegmentID": "56878",
      "RoadwayName": "Archer Ave",
      "From": "143 St",
      "To": "144 Place",
      "Direction": "WB",
      "Date": "2019-10-05",
      "flow": 0.04269972451790634,
      "Latitude": "40.7171709",
      "Longitude": "-73.9947953"
    },