{
  "1:00-2:00AM": [
    {
      "SegmentID": "33758",
      "RoadwayName": "10TH AVENUE",
      "From": "West 45th Street",
      "To": "West 46th Street",
      "Direction": "NB",
      "Date": "2020-10-11",
      "flow": 0.796895213454075,
      "Latitude": "40.761801",
      "Longitude": "-73.994646"
    },
    {
      "SegmentID": "57189",
      "RoadwayName": "101 AVENUE",
      "From": "Waltham Street",
      "To": "146th Street",
      "Direction": "WB",
      "Date": "2020-10-11",
      "flow": 0.050452781371280724,
      "Latitude": "40.7127281",
      "Longitude": "-74.0060152"
    },
    {
      "SegmentID": "82326",
      "RoadwayName": "108 STREET",
      "From": "62nd Avenue",
      "To": "Apex Place",
      "Direction": "NB",
      "Date": "2020-10-11",
      "flow": 0.014230271668822769,
      "Latitude": "40.7941983",
      "Longitude": "-73.9468558"
    },
    {
      "SegmentID": "82326",
      "RoadwayName": "108 STREET",
      "From": "62nd Avenue",
      "To": "Apex Place",
      "Direction": "SB",
      "Date": "2020-10-11",
      "flow": 0.1500646830530401,
      "Latitude": "40.7941983",
      "Longitude": "-73.9468558"
    },
    {
      "SegmentID": "63023",
      "RoadwayName": "120 AVENUE",
      "From": "191th Street",
      "To": "192th Street",
      "Direction": "EB",
      "Date": "2020-10-11",
      "flow": 0.111254851228978,
      "Latitude": "40.7340069",
      "Longitude": "-73.7801978"
    },
    {
      "SegmentID": "63023",
      "RoadwayName": "120 AVENUE",
      "From": "191th Street",
      "To": "192th Street",
      "Direction": "WB",
      "Date": "2020-10-11",
      "flow": 0.08538163001293661,
      "Latitude": "40.7340069",
      "Longitude": "-73.7801978"
    },
    {
      "SegmentID": "19653",
      "RoadwayName": "13th AVENUE",
      "From": "71st Street",
      "To": "72nd Street",
      "Direction": "EB",
      "Date": "2020-10-11",
      "flow": 0.042690815006468305,
      "Latitude": "40.6193283",
      "Longitude": "-73.9989445"
    },
    {
      "SegmentID": "19653",
      "RoadwayName": "13th AVENUE",
      "From": "71st Street",
      "To": "72nd Street",
      "Direction": "WB",
      "Date": "2020-10-11",
      "flow": 0.03880983182406209,
      "Latitude": "40.6193283",
      "Longitude": "-73.9989445"
    },
    {
      "SegmentID": "19762",
      "RoadwayName": "14th AVENUE",
      "From": "71st Street",
      "To": "72nd Street",
      "Direction": "NB",
      "Date": "2020-10-11",
      "flow": 0.03622250970245795,
      "Latitude": "40.6193283",
      "Longitude": "-73.9989445"
    },
    {
      "SegmentID": "19762",
      "RoadwayName": "14th AVENUE",
      "From": "71st Street",
      "To": "72nd Street",
      "Direction": "SB",
      "Date": "2020-10-11",
      "flow": 0.042690815006468305,
      "Latitude": "40.6193283",
      "Longitude": "-73.9989445"
    },
    {
      "SegmentID": "21018",
      "RoadwayName": "3rd AVENUE",
      "From": "30th Street",
      "To": "31st Street",
      "Direction": "SB",
      "Date": "2020-10-11",
      "flow": 0.06597671410090557,
      "Latitude": "40.7599886",
      "Longitude": "-73.9281136"
    },
    {
      "SegmentID": "21022",
      "RoadwayName": "3rd AVENUE",
      "From": "30th Street",
      "To": "31st Street",
      "Direction": "NB",
      "Date": "2020-10-11",
      "flow": 0.1759379042690815,
      "Latitude": "40.7599886",
      "Longitude": "-73.9281136"
    },
    {
      "SegmentID": "22806",
      "RoadwayName": "3rd AVENUE",
      "From": "Baltic Street",
      "To": "Butler Street",
      "Direction": "NB",
      "Date": "2020-10-11",
      "flow": 0.056921086675291076,
      "Latitude": "40.6884386",
      "Longitude": "-74.0011557"
    },
    {
      "SegmentID": "22806",
      "RoadwayName": "3rd AVENUE",
      "From": "Baltic Street",
      "To": "Butler Street",
      "Direction": "SB",
      "Date": "2020-10-11",
      "flow": 0.09961190168175937,
      "Latitude": "40.6884386",
      "Longitude": "-74.0011557"
    },
    {
      "SegmentID": "133942",
      "RoadwayName": "65th Street",
      "From": "5th Avenue",
      "To": "6th Avenue",
      "Direction": "EB",
      "Date": "2020-10-11",
      "flow": 0.06597671410090557,
      "Latitude": "40.7647467",
      "Longitude": "-73.9726829"
    },
    {
      "SegmentID": "133942",
      "RoadwayName": "65th Street",
      "From": "5th Avenue",
      "To": "6th Avenue",
      "Direction": "WB",
      "Date": "2020-10-11",
      "flow": 0.08796895213454076,
      "Latitude": "40.7647467",
      "Longitude": "-73.9726829"
    },
    {
      "SegmentID": "33850",
      "RoadwayName": "9TH AVENUE",
      "From": "West 46th Street",
      "To": "West 47th Street",
      "Direction": "SB",
      "Date": "2020-10-11",
      "flow": 0.5705045278137129,
      "Latitude": "40.7582569",
      "Longitude": "-73.9842778"
    },
    {
      "SegmentID": "9003670",
      "RoadwayName": "ASTOR AVENUE",
      "From": "Wallace Avenue",
      "To": "Barnes Avenue",
      "Direction": "EB",
      "Date": "2020-10-11",
      "flow": 0.062095730918499355,
      "Latitude": "40.8543854",
      "Longitude": "-73.8648158"
    },
    {
      "SegmentID": "9003670",
      "RoadwayName": "ASTOR AVENUE",
      "From": "Wallace Avenue",
      "To": "Barnes Avenue",
      "Direction": "WB",
      "Date": "2020-10-11",
      "flow": 0.029754204398447608,
      "Latitude": "40.8543854",
      "Longitude": "-73.8648158"
    },
    {
      "SegmentID": "157870",
      "RoadwayName": "ATLANTIC AVENUE",
      "From": "Crescent Street",
      "To": "Autumn Avenue",
      "Direction": "EB",
      "Date": "2020-10-11",
      "flow": 0.3027166882276843,
      "Latitude": "40.6833496",
      "Longitude": "-73.873286"
    },
    {
      "SegmentID": "158264",
      "RoadwayName": "ATLANTIC AVENUE",
      "From": "Hemlock Street",
      "To": "Autumn Avenue",
      "Direction": "WB",
      "Date": "2020-10-11",
      "flow": 0.34152652005174644,
      "Latitude": "40.684704",
      "Longitude": "-73.8713701"
    },
    {
      "SegmentID": "41720",
      "RoadwayName": "AVENUE D",
      "From": "Brooklyn Avenue",
      "To": "East 37th Street",
      "Direction": "EB",
      "Date": "2020-10-11",
      "flow": 0.12419146183699871,
      "Latitude": "40.6313796",
      "Longitude": "-73.9416905"
    },
    {
      "SegmentID": "41720",
      "RoadwayName": "AVENUE D",
      "From": "Brooklyn Avenue",
      "To": "East 37th Street",
      "Direction": "WB",
      "Date": "2020-10-11",
      "flow": 0.10219922380336352,
      "Latitude": "40.6313796",
      "Longitude": "-73.9416905"
    },
    {
      "SegmentID": "41040",
      "RoadwayName": "AVENUE J",
      "From": "Schenectady Avenue",
      "To": "East 48th Street",
      "Direction": "EB",
      "Date": "2020-10-11",
      "flow": 0.047865459249676584,
      "Latitude": "40.625039",
      "Longitude": "-73.960803"
    },
    {
      "SegmentID": "41040",
      "RoadwayName": "AVENUE J",
      "From": "Schenectady Avenue",
      "To": "East 48th Street",
      "Direction": "WB",
      "Date": "2020-10-11",
      "flow": 0.03234152652005175,
      "Latitude": "40.625039",
      "Longitude": "-73.960803"
    },
    {
      "SegmentID": "27139",
      "RoadwayName": "AVENUE M",
      "From": "East 15th Street",
      "To": "Buckingham Road",
      "Direction": "EB",
      "Date": "2020-10-11",
      "flow": 0.04398447606727038,
      "Latitude": "40.6178971",
      "Longitude": "-73.959474"
    },
    {
      "SegmentID": "27139",
      "RoadwayName": "AVENUE M",
      "From": "East 15th Street",
      "To": "Buckingham Road",
      "Direction": "WB",
      "Date": "2020-10-11",
      "flow": 0.027166882276843468,
      "Latitude": "40.6178971",
      "Longitude": "-73.959474"
    },
    {
      "SegmentID": "41000",
      "RoadwayName": "AVENUE M",
      "From": "East 45th Street",
      "To": "East 46th Street",
      "Direction": "WB",
      "Date": "2020-10-11",
      "flow": 0.03622250970245795,
      "Latitude": "40.6178971",
      "Longitude": "-73.959474"
    },
    {
      "SegmentID": "27121",
      "RoadwayName": "AVENUE N",
      "From": "Brington Line",
      "To": "East 16th Street",
      "Direction": "EB",
      "Date": "2020-10-11",
      "flow": 0.10866752910737387,
      "Latitude": "40.5873782",
      "Longitude": "-73.9532845"
    },
    {
      "SegmentID": "34188",
      "RoadwayName": "6TH AVENUE",
      "From": "West 45th Street",
      "To": "West 46th Street",
      "Direction": "NB",
      "Date": "2020-10-11",
      "flow": 0.6571798188874515,
      "Latitude": "40.761801",
      "Longitude": "-73.994646"
    },
    {
      "SegmentID": "20337",
      "RoadwayName": "AVENUE P",
      "From": "West 10th Street",
      "To": "West 9th Street",
      "Direction": "EB",
      "Date": "2020-10-11",
      "flow": 0.0646830530401035,
      "Latitude": "40.608944",
      "Longitude": "-73.973022"
    },
    {
      "SegmentID": "20337",
      "RoadwayName": "AVENUE P",
      "From": "West 10th Street",
      "To": "West 9th Street",
      "Direction": "WB",
      "Date": "2020-10-11",
      "flow": 0.07761966364812418,
      "Latitude": "40.608944",
      "Longitude": "-73.973022"
    },
    {
      "SegmentID": "41312",
      "RoadwayName": "AVENUE U",
      "From": "East 56th Street",
      "To": "Pearson Street",
      "Direction": "EB",
      "Date": "2020-10-11",
      "flow": 0.16041397153945666,
      "Latitude": "40.6478985",
      "Longitude": "-73.9241338"
    },
    {
      "SegmentID": "41312",
      "RoadwayName": "AVENUE U",
      "From": "East 56th Street",
      "To": "Pearson Street",
      "Direction": "WB",
      "Date": "2020-10-11",
      "flow": 0.13583441138421734,
      "Latitude": "40.6478985",
      "Longitude": "-73.9241338"
    },
    {
      "SegmentID": "41667",
      "RoadwayName": "AVENUE U",
      "From": "East 71st Street",
      "To": "Veterans Avenue",
      "Direction": "EB",
      "Date": "2020-10-11",
      "flow": 0.03234152652005175,
      "Latitude": "40.6166869",
      "Longitude": "-73.9039399"
    },
    {
      "SegmentID": "41667",
      "RoadwayName": "AVENUE U",
      "From": "East 71st Street",
      "To": "Veterans Avenue",
      "Direction": "WB",
      "Date": "2020-10-11",
      "flow": 0.02069857697283312,
      "Latitude": "40.6166869",
      "Longitude": "-73.9039399"
    },
    {
      "SegmentID": "19550",
      "RoadwayName": "BAY RIDGE AVENUE",
      "From": "11th Avenue",
      "To": "12th Avenue",
      "Direction": "EB",
      "Date": "2020-10-11",
      "flow": 0.028460543337645538,
      "Latitude": "40.7444306",
      "Longitude": "-74.0084954"
    },
    {
      "SegmentID": "19550",
      "RoadwayName": "BAY RIDGE AVENUE",
      "From": "11th Avenue",
      "To": "12th Avenue",
      "Direction": "WB",
      "Date": "2020-10-11",
      "flow": 0,
      "Latitude": "40.7444306",
      "Longitude": "-74.0084954"
    },
    {
      "SegmentID": "20149",
      "RoadwayName": "BAY RIDGE AVENUE",
      "From": "18th Avenue",
      "To": "19th Avenue",
      "Direction": "EB",
      "Date": "2020-10-11",
      "flow": 0.02199223803363519,
      "Latitude": "40.620671",
      "Longitude": "-73.990414"
    },
    {
      "SegmentID": "132816",
      "RoadwayName": "BAYCHESTER AVENUE",
      "From": "Bay Plaza Boulevard",
      "To": "Hutchinson River Parkway",
      "Direction": "NB",
      "Date": "2020-10-11",
      "flow": 0.01164294954721863,
      "Latitude": "40.8670077",
      "Longitude": "-73.8306367"
    },
    {
      "SegmentID": "254353",
      "RoadwayName": "BEDFORD AVENUE",
      "From": "Lorimer Street",
      "To": "Union Avenue",
      "Direction": "EB",
      "Date": "2020-10-11",
      "flow": 0.11642949547218628,
      "Latitude": "40.7174046",
      "Longitude": "-73.9570004"
    },
    {
      "SegmentID": "27462",
      "RoadwayName": "BEDFORD AVENUE",
      "From": "Quentin Road",
      "To": "Avenue R",
      "Direction": "NB",
      "Date": "2020-10-11",
      "flow": 0.0258732212160414,
      "Latitude": "40.7174046",
      "Longitude": "-73.9570004"
    },
    {
      "SegmentID": "27462",
      "RoadwayName": "BEDFORD AVENUE",
      "From": "Quentin Road",
      "To": "Avenue R",
      "Direction": "SB",
      "Date": "2020-10-11",
      "flow": 0.08408796895213454,
      "Latitude": "40.7174046",
      "Longitude": "-73.9570004"
    },
    {
      "SegmentID": "176365",
      "RoadwayName": "BEDFORD PARK BOULEVARD",
      "From": "Grand Concourse",
      "To": "Briggs Avenue",
      "Direction": "NB",
      "Date": "2020-10-11",
      "flow": 0.06338939197930142,
      "Latitude": "40.8510934",
      "Longitude": "-73.9046308"
    },
    {
      "SegmentID": "176365",
      "RoadwayName": "BEDFORD PARK BOULEVARD",
      "From": "Grand Concourse",
      "To": "Briggs Avenue",
      "Direction": "SB",
      "Date": "2020-10-11",
      "flow": 0.0944372574385511,
      "Latitude": "40.8510934",
      "Longitude": "-73.9046308"
    },
    {
      "SegmentID": "154787",
      "RoadwayName": "BEDFORD PARK BOULEVARD",
      "From": "Grand Concourse",
      "To": "Briggs Avenue",
      "Direction": "NB",
      "Date": "2020-10-11",
      "flow": 0.15782664941785252,
      "Latitude": "40.8510934",
      "Longitude": "-73.9046308"
    },
    {
      "SegmentID": "154501",
      "RoadwayName": "BEDFORD PARK BOULEVARD",
      "From": "Grand Concourse",
      "To": "Briggs Avenue",
      "Direction": "SB",
      "Date": "2020-10-11",
      "flow": 0.11254851228978008,
      "Latitude": "40.8510934",
      "Longitude": "-73.9046308"
    },
    {
      "SegmentID": "148978",
      "RoadwayName": "BELL BOULEVARD",
      "From": "67th Avenue",
      "To": "67th Avenue",
      "Direction": "NB",
      "Date": "2020-10-11",
      "flow": 0,
      "Latitude": "40.7267968",
      "Longitude": "-73.8532472"
    },
    {
      "SegmentID": "148980",
      "RoadwayName": "BELL BOULEVARD",
      "From": "67th Avenue",
      "To": "67th Avenue",
      "Direction": "SB",
      "Date": "2020-10-11",
      "flow": 0.015523932729624839,
      "Latitude": "40.7267968",
      "Longitude": "-73.8532472"
    },
    {
      "SegmentID": "8152",
      "RoadwayName": "BRIELLE AVENUE",
      "From": "Suffolk Avenue",
      "To": "Livingston Avenue",
      "Direction": "EB",
      "Date": "2020-10-11",
      "flow": 0.016817593790426907,
      "Latitude": "40.5989787",
      "Longitude": "-74.1230537"
    },
    {
      "SegmentID": "8152",
      "RoadwayName": "BRIELLE AVENUE",
      "From": "Suffolk Avenue",
      "To": "Livingston Avenue",
      "Direction": "WB",
      "Date": "2020-10-11",
      "flow": 0.014230271668822769,
      "Latitude": "40.5989787",
      "Longitude": "-74.1230537"
    },
    {
      "SegmentID": "147673",
      "RoadwayName": "BROADWAY",
      "From": "Van Cortlandt Park South",
      "To": "West 242nd Street",
      "Direction": "SB",
      "Date": "2020-10-11",
      "flow": 0.12289780077619664,
      "Latitude": "40.8020029",
      "Longitude": "-73.9679456"
    },
    {
      "SegmentID": "255653",
      "RoadwayName": "BROADWAY",
      "From": "Broadway/ 7 Avenue Line",
      "To": "Broadway/ 7 Avenue Line",
      "Direction": "SB",
      "Date": "2020-10-11",
      "flow": 0.04657179818887452,
      "Latitude": "40.8020029",
      "Longitude": "-73.9679456"
    },
    {
      "SegmentID": "158447",
      "RoadwayName": "BROADWAY",
      "From": "West 242nd Street",
      "To": "Van Cortlandt Park South",
      "Direction": "NB",
      "Date": "2020-10-11",
      "flow": 0.15523932729624837,
      "Latitude": "40.8020029",
      "Longitude": "-73.9679456"
    },
    {
      "SegmentID": "221955",
      "RoadwayName": "BROADWAY",
      "From": "West 260th Street",
      "To": "West 261st Street",
      "Direction": "NB",
      "Date": "2020-10-11",
      "flow": 0.296248382923674,
      "Latitude": "40.8020029",
      "Longitude": "-73.9679456"
    },
    {
      "SegmentID": "221955",
      "RoadwayName": "BROADWAY",
      "From": "West 260th Street",
      "To": "West 261st Street",
      "Direction": "SB",
      "Date": "2020-10-11",
      "flow": 0.2238033635187581,
      "Latitude": "40.8020029",
      "Longitude": "-73.9679456"
    },
    {
      "SegmentID": "87808",
      "RoadwayName": "BRONXWOOD AVENUE",
      "From": "Mace Avenue",
      "To": "Allerton Avenue",
      "Direction": "NB",
      "Date": "2020-10-11",
      "flow": 0.01034928848641656,
      "Latitude": "40.8709169",
      "Longitude": "-73.8613921"
    },
    {
      "SegmentID": "87808",
      "RoadwayName": "BRONXWOOD AVENUE",
      "From": "Mace Avenue",
      "To": "Allerton Avenue",
      "Direction": "SB",
      "Date": "2020-10-11",
      "flow": 0.01164294954721863,
      "Latitude": "40.8709169",
      "Longitude": "-73.8613921"
    },
    {
      "SegmentID": "70364",
      "RoadwayName": "BROOK AVENUE",
      "From": "East 152nd Street",
      "To": "East 153rd Street",
      "Direction": "SB",
      "Date": "2020-10-11",
      "flow": 0.05304010349288486,
      "Latitude": "40.807555",
      "Longitude": "-73.9192429"
    },
    {
      "SegmentID": "9003976",
      "RoadwayName": "BURKE AVENUE",
      "From": "Yates Avenue",
      "To": "Bouck Avenue",
      "Direction": "EB",
      "Date": "2020-10-11",
      "flow": 0.0815006468305304,
      "Latitude": "40.8714348",
      "Longitude": "-73.8671748"
    },
    {
      "SegmentID": "9003976",
      "RoadwayName": "BURKE AVENUE",
      "From": "Yates Avenue",
      "To": "Bouck Avenue",
      "Direction": "WB",
      "Date": "2020-10-11",
      "flow": 0.031047865459249677,
      "Latitude": "40.8714348",
      "Longitude": "-73.8671748"
    },
    {
      "SegmentID": "47359",
      "RoadwayName": "BUSHWICK AVENUE",
      "From": "Cemetery Of Evergrns Boundary",
      "To": "Highland Boulevard",
      "Direction": "EB",
      "Date": "2020-10-11",
      "flow": 0.6675291073738681,
      "Latitude": "40.6815336",
      "Longitude": "-73.8943809"
    },
    {
      "SegmentID": "47359",
      "RoadwayName": "BUSHWICK AVENUE",
      "From": "Cemetery Of Evergrns Boundary",
      "To": "Highland Boulevard",
      "Direction": "WB",
      "Date": "2020-10-11",
      "flow": 0.6532988357050453,
      "Latitude": "40.6815336",
      "Longitude": "-73.8943809"
    },
    {
      "SegmentID": "9002977",
      "RoadwayName": "CALHOUN AVENUE",
      "From": "East 177th Street",
      "To": "Dewey Avenue",
      "Direction": "NB",
      "Date": "2020-10-11",
      "flow": 0,
      "Latitude": "40.8363101",
      "Longitude": "-73.874253"
    },
    {
      "SegmentID": "9002977",
      "RoadwayName": "CALHOUN AVENUE",
      "From": "East 177th Street",
      "To": "Dewey Avenue",
      "Direction": "SB",
      "Date": "2020-10-11",
      "flow": 0.03492884864165589,
      "Latitude": "40.8363101",
      "Longitude": "-73.874253"
    },
    {
      "SegmentID": "28234",
      "RoadwayName": "CATON AVENUE",
      "From": "East 18th Street",
      "To": "St Pauls Place",
      "Direction": "EB",
      "Date": "2020-10-11",
      "flow": 0.1500646830530401,
      "Latitude": "40.6475964",
      "Longitude": "-73.9733121"
    },
    {
      "SegmentID": "28234",
      "RoadwayName": "CATON AVENUE",
      "From": "East 18th Street",
      "To": "St Pauls Place",
      "Direction": "WB",
      "Date": "2020-10-11",
      "flow": 0.10608020698576973,
      "Latitude": "40.6475964",
      "Longitude": "-73.9733121"
    },
    {
      "SegmentID": "160467",
      "RoadwayName": "CLOVE ROAD",
      "From": "Narrows Road North",
      "To": "Staten Island Expressway",
      "Direction": "NB",
      "Date": "2020-10-11",
      "flow": 0.08926261319534282,
      "Latitude": "40.6139911",
      "Longitude": "-74.1012626"
    },
    {
      "SegmentID": "160467",
      "RoadwayName": "CLOVE ROAD",
      "From": "Narrows Road North",
      "To": "Staten Island Expressway",
      "Direction": "SB",
      "Date": "2020-10-11",
      "flow": 0.15523932729624837,
      "Latitude": "40.6139911",
      "Longitude": "-74.1012626"
    },
    {
      "SegmentID": "28015",
      "RoadwayName": "CONEY ISLAND AVENUE",
      "From": "Friel Place",
      "To": "Church Avenue",
      "Direction": "NB",
      "Date": "2020-10-11",
      "flow": 0.059508408796895215,
      "Latitude": "40.6299377",
      "Longitude": "-73.9661411"
    },
    {
      "SegmentID": "28015",
      "RoadwayName": "CONEY ISLAND AVENUE",
      "From": "Friel Place",
      "To": "Church Avenue",
      "Direction": "SB",
      "Date": "2020-10-11",
      "flow": 0.11513583441138421,
      "Latitude": "40.6299377",
      "Longitude": "-73.9661411"
    },
    {
      "SegmentID": "26932",
      "RoadwayName": "CONEY ISLAND AVENUE",
      "From": "Parkville Avenue",
      "To": "Foster Avenue",
      "Direction": "NB",
      "Date": "2020-10-11",
      "flow": 0.1203104786545925,
      "Latitude": "40.6299377",
      "Longitude": "-73.9661411"
    },
    {
      "SegmentID": "26932",
      "RoadwayName": "CONEY ISLAND AVENUE",
      "From": "Parkville Avenue",
      "To": "Foster Avenue",
      "Direction": "SB",
      "Date": "2020-10-11",
      "flow": 0.15135834411384216,
      "Latitude": "40.6299377",
      "Longitude": "-73.9661411"
    },
    {
      "SegmentID": "217716",
      "RoadwayName": "COURTLANDT AVENUE",
      "From": "East 153rd Street",
      "To": "East 154th Street",
      "Direction": "NB",
      "Date": "2020-10-11",
      "flow": 0.08020698576972833,
      "Latitude": "40.8180575",
      "Longitude": "-73.9133408"
    },
    {
      "SegmentID": "150549",
      "RoadwayName": "CROSS BAY BOULEVARD",
      "From": "165th Avenue",
      "To": "East 6th Rd",
      "Direction": "NB",
      "Date": "2020-10-11",
      "flow": 0.17076326002587322,
      "Latitude": "40.6491463",
      "Longitude": "-73.8372764"
    },
    {
      "SegmentID": "121069",
      "RoadwayName": "CROTONA AVENUE",
      "From": "Claremont Parkway",
      "To": "Crotona Park North",
      "Direction": "NB",
      "Date": "2020-10-11",
      "flow": 0.10090556274256145,
      "Latitude": "40.8394904",
      "Longitude": "-73.9045399"
    },
    {
      "SegmentID": "121069",
      "RoadwayName": "CROTONA AVENUE",
      "From": "Claremont Parkway",
      "To": "Crotona Park North",
      "Direction": "SB",
      "Date": "2020-10-11",
      "flow": 0.12289780077619664,
      "Latitude": "40.8394904",
      "Longitude": "-73.9045399"
    },
    {
      "SegmentID": "35257",
      "RoadwayName": "DRIGGS AVENUE",
      "From": "Lorimer Street",
      "To": "Union Avenue",
      "Direction": "WB",
      "Date": "2020-10-11",
      "flow": 0.08926261319534282,
      "Latitude": "40.7200011",
      "Longitude": "-73.9532534"
    },
    {
      "SegmentID": "95624",
      "RoadwayName": "DYRE AVENUE",
      "From": "Lustre Street",
      "To": "West Kingsbridge Road",
      "Direction": "NB",
      "Date": "2020-10-11",
      "flow": 0.050452781371280724,
      "Latitude": "40.8906855",
      "Longitude": "-73.8311288"
    },
    {
      "SegmentID": "95624",
      "RoadwayName": "DYRE AVENUE",
      "From": "Lustre Street",
      "To": "West Kingsbridge Road",
      "Direction": "SB",
      "Date": "2020-10-11",
      "flow": 0.07373868046571798,
      "Latitude": "40.8906855",
      "Longitude": "-73.8311288"
    },
    {
      "SegmentID": "70360",
      "RoadwayName": "EAST 149th STREET",
      "From": "Eagle Avenue",
      "To": "Cauldwell Avenue",
      "Direction": "EB",
      "Date": "2020-10-11",
      "flow": 0.2238033635187581,
      "Latitude": "40.822181",
      "Longitude": "-73.908418"
    },
    {
      "SegmentID": "70360",
      "RoadwayName": "EAST 149TH STREET",
      "From": "Eagle Avenue",
      "To": "Cauldwell Avenue",
      "Direction": "WB",
      "Date": "2020-10-11",
      "flow": 0.2147477360931436,
      "Latitude": "40.822181",
      "Longitude": "-73.908418"
    },
    {
      "SegmentID": "70586",
      "RoadwayName": "EAST 161st STREET",
      "From": "Eagle Avenue",
      "To": "Cauldwell Avenue",
      "Direction": "EB",
      "Date": "2020-10-11",
      "flow": 0.03622250970245795,
      "Latitude": "40.822181",
      "Longitude": "-73.908418"
    },
    {
      "SegmentID": "70607",
      "RoadwayName": "EAST 163rd STREET",
      "From": "Eagle Avenue",
      "To": "Cauldwell Avenue",
      "Direction": "EB",
      "Date": "2020-10-11",
      "flow": 0.35575679172056923,
      "Latitude": "40.822181",
      "Longitude": "-73.908418"
    },
    {
      "SegmentID": "70607",
      "RoadwayName": "EAST 163rd STREET",
      "From": "Eagle Avenue",
      "To": "Cauldwell Avenue",
      "Direction": "WB",
      "Date": "2020-10-11",
      "flow": 0.31047865459249674,
      "Latitude": "40.822181",
      "Longitude": "-73.908418"
    },
    {
      "SegmentID": "77429",
      "RoadwayName": "EAST 163rd STREET",
      "From": "Intervale Avenue",
      "To": "Kelly Street",
      "Direction": "EB",
      "Date": "2020-10-11",
      "flow": 0.4204398447606727,
      "Latitude": "40.8221585",
      "Longitude": "-73.8967991"
    },
    {
      "SegmentID": "77429",
      "RoadwayName": "EAST 163rd STREET",
      "From": "Intervale Avenue",
      "To": "Kelly Street",
      "Direction": "WB",
      "Date": "2020-10-11",
      "flow": 0.3221216041397154,
      "Latitude": "40.8221585",
      "Longitude": "-73.8967991"
    },
    {
      "SegmentID": "9009765",
      "RoadwayName": "EAST 169th STREET",
      "From": "Tinton Avenue",
      "To": "Union Avenue",
      "Direction": "EB",
      "Date": "2020-10-11",
      "flow": 0.1384217335058215,
      "Latitude": "40.8178792",
      "Longitude": "-73.9050078"
    },
    {
      "SegmentID": "9009765",
      "RoadwayName": "EAST 169th STREET",
      "From": "Tinton Avenue",
      "To": "Union Avenue",
      "Direction": "WB",
      "Date": "2020-10-11",
      "flow": 0.16946959896507116,
      "Latitude": "40.8178792",
      "Longitude": "-73.9050078"
    },
    {
      "SegmentID": "174360",
      "RoadwayName": "EAST 170th STREET",
      "From": "Grant Avenue",
      "To": "Walton Avenue",
      "Direction": "EB",
      "Date": "2020-10-11",
      "flow": 0.08538163001293661,
      "Latitude": "40.6768466",
      "Longitude": "-73.8653952"
    },
    {
      "SegmentID": "174360",
      "RoadwayName": "EAST 170th STREET",
      "From": "Grant Avenue",
      "To": "Morris Avenue",
      "Direction": "WB",
      "Date": "2020-10-11",
      "flow": 0.09055627425614489,
      "Latitude": "40.6768466",
      "Longitude": "-73.8653952"
    },
    {
      "SegmentID": "146865",
      "RoadwayName": "EAST 170th STREET",
      "From": "Grant Avenue",
      "To": "Morris Avenue",
      "Direction": "EB",
      "Date": "2020-10-11",
      "flow": 0.09961190168175937,
      "Latitude": "40.6768466",
      "Longitude": "-73.8653952"
    },
    {
      "SegmentID": "146864",
      "RoadwayName": "EAST 170th STREET",
      "From": "Grant Avenue",
      "To": "Morris Avenue",
      "Direction": "WB",
      "Date": "2020-10-11",
      "flow": 0.12289780077619664,
      "Latitude": "40.6768466",
      "Longitude": "-73.8653952"
    },
    {
      "SegmentID": "78940",
      "RoadwayName": "EAST 174th STREET",
      "From": "Hoe Avenue",
      "To": "Vyse Avenue",
      "Direction": "EB",
      "Date": "2020-10-11",
      "flow": 0.05821474773609314,
      "Latitude": "40.833738",
      "Longitude": "-73.888802"
    },
    {
      "SegmentID": "78940",
      "RoadwayName": "EAST 174th STREET",
      "From": "Hoe Avenue",
      "To": "Vyse Avenue",
      "Direction": "WB",
      "Date": "2020-10-11",
      "flow": 0.129366106080207,
      "Latitude": "40.833738",
      "Longitude": "-73.888802"
    },
    {
      "SegmentID": "79377",
      "RoadwayName": "EAST 177th STREET",
      "From": "East Tremont Avenue",
      "To": "Devoe Avenue",
      "Direction": "NB",
      "Date": "2020-10-11",
      "flow": 0.18240620957309184,
      "Latitude": "40.8418573",
      "Longitude": "-73.8583296"
    },
    {
      "SegmentID": "79377",
      "RoadwayName": "EAST 177th STREET",
      "From": "East Tremont Avenue",
      "To": "Devoe Avenue",
      "Direction": "SB",
      "Date": "2020-10-11",
      "flow": 0.26390685640362227,
      "Latitude": "40.8418573",
      "Longitude": "-73.8583296"
    },
    {
      "SegmentID": "89278",
      "RoadwayName": "EAST 241st STREET",
      "From": "Carpenter Avenue",
      "To": "Matilda Avenue",
      "Direction": "EB",
      "Date": "2020-10-11",
      "flow": 0.16429495472186287,
      "Latitude": "40.886608",
      "Longitude": "-73.864505"
    },
    {
      "SegmentID": "89278",
      "RoadwayName": "EAST 241st STREET",
      "From": "Carpenter Avenue",
      "To": "Matilda Avenue",
      "Direction": "WB",
      "Date": "2020-10-11",
      "flow": 0.16429495472186287,
      "Latitude": "40.886608",
      "Longitude": "-73.864505"
    },
    {
      "SegmentID": "146887",
      "RoadwayName": "EAST BURNSIDE AVENUE",
      "From": "Creston Avenue",
      "To": "Grand Concourse",
      "Direction": "EB",
      "Date": "2020-10-11",
      "flow": 0.1410090556274256,
      "Latitude": "40.8641451",
      "Longitude": "-73.8971816"
    },
    {
      "SegmentID": "146888",
      "RoadwayName": "EAST BURNSIDE AVENUE",
      "From": "Grand Concourse",
      "To": "Valentine Avenue",
      "Direction": "WB",
      "Date": "2020-10-11",
      "flow": 0.10996119016817593,
      "Latitude": "40.8510934",
      "Longitude": "-73.9046308"
    },
    {
      "SegmentID": "146886",
      "RoadwayName": "EAST BURNSIDE AVENUE",
      "From": "Grand Concourse",
      "To": "Valentine Avenue",
      "Direction": "EB",
      "Date": "2020-10-11",
      "flow": 0.12160413971539456,
      "Latitude": "40.8510934",
      "Longitude": "-73.9046308"
    },
    {
      "SegmentID": "146496",
      "RoadwayName": "EAST BURNSIDE AVENUE",
      "From": "Grand Concourse",
      "To": "Valentine Avenue",
      "Direction": "WB",
      "Date": "2020-10-11",
      "flow": 0.15265200517464425,
      "Latitude": "40.8510934",
      "Longitude": "-73.9046308"
    },
    {
      "SegmentID": "146547",
      "RoadwayName": "EAST FORDHAM ROAD",
      "From": "Bronx River Shoreline",
      "To": "Bronx River Parkway",
      "Direction": "WB",
      "Date": "2020-10-11",
      "flow": 0.7296248382923674,
      "Latitude": "40.8554124",
      "Longitude": "-73.8767367"
    },
    {
      "SegmentID": "133279",
      "RoadwayName": "EAST FORDHAM ROAD",
      "From": "Bronx River Shoreline",
      "To": "Pelham Parkway",
      "Direction": "EB",
      "Date": "2020-10-11",
      "flow": 0.5756791720569211,
      "Latitude": "40.8554124",
      "Longitude": "-73.8767367"
    },
    {
      "SegmentID": "178396",
      "RoadwayName": "EAST GUN HILL ROAD",
      "From": "Bronx Boulevard",
      "To": "Bronx River Parkway",
      "Direction": "EB",
      "Date": "2020-10-11",
      "flow": 0.47347994825355755,
      "Latitude": "40.8640107",
      "Longitude": "-73.8339775"
    },
    {
      "SegmentID": "178396",
      "RoadwayName": "EAST GUN HILL ROAD",
      "From": "Bronx Boulevard",
      "To": "Bronx River Parkway",
      "Direction": "WB",
      "Date": "2020-10-11",
      "flow": 0.7852522639068564,
      "Latitude": "40.8640107",
      "Longitude": "-73.8339775"
    },
    {
      "SegmentID": "9014434",
      "RoadwayName": "EAST TREMONT AVENUE",
      "From": "Bronx River Shoreline",
      "To": "East 177th Street",
      "Direction": "EB",
      "Date": "2020-10-11",
      "flow": 0.37645536869340235,
      "Latitude": "40.8363101",
      "Longitude": "-73.874253"
    },
    {
      "SegmentID": "9014434",
      "RoadwayName": "EAST TREMONT AVENUE",
      "From": "Bronx River Shoreline",
      "To": "East 177th Street",
      "Direction": "WB",
      "Date": "2020-10-11",
      "flow": 0.25614489003880986,
      "Latitude": "40.8363101",
      "Longitude": "-73.874253"
    },
    {
      "SegmentID": "88518",
      "RoadwayName": "EASTCHESTER ROAD",
      "From": "Givan Avenue",
      "To": "Tillotson Avenue",
      "Direction": "NB",
      "Date": "2020-10-11",
      "flow": 0.08667529107373868,
      "Latitude": "40.8775139",
      "Longitude": "-73.8364539"
    },
    {
      "SegmentID": "88518",
      "RoadwayName": "EASTCHESTER ROAD",
      "From": "Givan Avenue",
      "To": "Tillotson Avenue",
      "Direction": "SB",
      "Date": "2020-10-11",
      "flow": 0.07373868046571798,
      "Latitude": "40.8775139",
      "Longitude": "-73.8364539"
    },
    {
      "SegmentID": "145229",
      "RoadwayName": "EASTERN PARKWAY",
      "From": "Broadway",
      "To": "Cooke Ct",
      "Direction": "SB",
      "Date": "2020-10-11",
      "flow": 0.3389391979301423,
      "Latitude": "40.8028269",
      "Longitude": "-73.9675054"
    },
    {
      "SegmentID": "157872",
      "RoadwayName": "EASTERN PARKWAY",
      "From": "Broadway",
      "To": "Cooke Ct",
      "Direction": "NB",
      "Date": "2020-10-11",
      "flow": 0.19146183699870634,
      "Latitude": "40.8028269",
      "Longitude": "-73.9675054"
    },
    {
      "SegmentID": "226748",
      "RoadwayName": "EDSON AVENUE",
      "From": "New England Thruway/ Edson Avenue",
      "To": "Bartow Avenue",
      "Direction": "SB",
      "Date": "2020-10-11",
      "flow": 0.20310478654592498,
      "Latitude": "40.8682393",
      "Longitude": "-73.8335456"
    },
    {
      "SegmentID": "154911",
      "RoadwayName": "ESPLANADE",
      "From": "Hone Avenue",
      "To": "Lurting Avenue",
      "Direction": "NB",
      "Date": "2020-10-11",
      "flow": 0.00646830530401035,
      "Latitude": "40.8562345",
      "Longitude": "-73.8598498"
    },
    {
      "SegmentID": "154664",
      "RoadwayName": "ESPLANADE",
      "From": "Hone Avenue",
      "To": "Lurting Avenue",
      "Direction": "SB",
      "Date": "2020-10-11",
      "flow": 0.00646830530401035,
      "Latitude": "40.8562345",
      "Longitude": "-73.8598498"
    },
    {
      "SegmentID": "28637",
      "RoadwayName": "FLATBUSH AVENUE",
      "From": "Glenwood Road",
      "To": "East 29th Street",
      "Direction": "NB",
      "Date": "2020-10-11",
      "flow": 0.35963777490297544,
      "Latitude": "40.6031817",
      "Longitude": "-73.9152853"
    },
    {
      "SegmentID": "28637",
      "RoadwayName": "FLATBUSH AVENUE",
      "From": "Glenwood Road",
      "To": "East 29th Street",
      "Direction": "SB",
      "Date": "2020-10-11",
      "flow": 0.37257438551099614,
      "Latitude": "40.6031817",
      "Longitude": "-73.9152853"
    },
    {
      "SegmentID": "9005719",
      "RoadwayName": "FLATLANDS AVENUE",
      "From": "East 108th Street",
      "To": "Williams Avenue",
      "Direction": "NB",
      "Date": "2020-10-11",
      "flow": 0.2807244501940492,
      "Latitude": "40.651881",
      "Longitude": "-73.895861"
    },
    {
      "SegmentID": "9005717",
      "RoadwayName": "FLATLANDS AVENUE",
      "From": "East 108th Street",
      "To": "Williams Avenue",
      "Direction": "SB",
      "Date": "2020-10-11",
      "flow": 0.23803363518758086,
      "Latitude": "40.651881",
      "Longitude": "-73.895861"
    },
    {
      "SegmentID": "42542",
      "RoadwayName": "FLATLANDS AVENUE",
      "From": "East 78th Street",
      "To": "East 79th Street",
      "Direction": "EB",
      "Date": "2020-10-11",
      "flow": 0.2147477360931436,
      "Latitude": "40.637847",
      "Longitude": "-73.918436"
    },
    {
      "SegmentID": "42542",
      "RoadwayName": "FLATLANDS AVENUE",
      "From": "East 78th Street",
      "To": "East 79th Street",
      "Direction": "WB",
      "Date": "2020-10-11",
      "flow": 0.21216041397153945,
      "Latitude": "40.637847",
      "Longitude": "-73.918436"
    },
    {
      "SegmentID": "150110",
      "RoadwayName": "FRANCIS LEWIS BOULEVARD",
      "From": "Horace Harding Expy",
      "To": "73rd Avenue",
      "Direction": "SB",
      "Date": "2020-10-11",
      "flow": 0.037516170763260026,
      "Latitude": "40.77318",
      "Longitude": "-73.7958221"
    },
    {
      "SegmentID": "156785",
      "RoadwayName": "FRANCIS LEWIS BOULEVARD",
      "From": "Horace Harding Expy",
      "To": "73rd Avenue",
      "Direction": "NB",
      "Date": "2020-10-11",
      "flow": 0.014230271668822769,
      "Latitude": "40.77318",
      "Longitude": "-73.7958221"
    },
    {
      "SegmentID": "19559",
      "RoadwayName": "FT HAMILTON PARKWAY",
      "From": "66th Street",
      "To": "67th Street",
      "Direction": "EB",
      "Date": "2020-10-11",
      "flow": 0.10608020698576973,
      "Latitude": "40.7249332",
      "Longitude": "-73.8985833"
    },
    {
      "SegmentID": "19559",
      "RoadwayName": "FT HAMILTON PARKWAY",
      "From": "66th Street",
      "To": "67th Street",
      "Direction": "WB",
      "Date": "2020-10-11",
      "flow": 0.1034928848641656,
      "Latitude": "40.7249332",
      "Longitude": "-73.8985833"
    },
    {
      "SegmentID": "110263",
      "RoadwayName": "GLEN STREET",
      "From": "Lois Lane",
      "To": "Fahy Avenue",
      "Direction": "NB",
      "Date": "2020-10-11",
      "flow": 0.0517464424320828,
      "Latitude": "40.612213",
      "Longitude": "-74.175561"
    },
    {
      "SegmentID": "176279",
      "RoadwayName": "GRAND CONCOURSE",
      "From": "East 188th Street",
      "To": "East 184th Street",
      "Direction": "NB",
      "Date": "2020-10-11",
      "flow": 0.2445019404915912,
      "Latitude": "40.8510934",
      "Longitude": "-73.9046308"
    },
    {
      "SegmentID": "176279",
      "RoadwayName": "GRAND CONCOURSE",
      "From": "East 188th Street",
      "To": "East 184th Street",
      "Direction": "SB",
      "Date": "2020-10-11",
      "flow": 0.16688227684346701,
      "Latitude": "40.8510934",
      "Longitude": "-73.9046308"
    },
    {
      "SegmentID": "148198",
      "RoadwayName": "GRAND CONCOURSE",
      "From": "East 184th Street",
      "To": "East 187th Street",
      "Direction": "SB",
      "Date": "2020-10-11",
      "flow": 0.16170763260025872,
      "Latitude": "40.8510934",
      "Longitude": "-73.9046308"
    },
    {
      "SegmentID": "148197",
      "RoadwayName": "GRAND CONCOURSE",
      "From": "East 184th Street",
      "To": "East 187th Street",
      "Direction": "NB",
      "Date": "2020-10-11",
      "flow": 0.21345407503234154,
      "Latitude": "40.8510934",
      "Longitude": "-73.9046308"
    },
    {
      "SegmentID": "184562",
      "RoadwayName": "GRAND CONCOURSE",
      "From": "East Mt Eve Avenue",
      "To": "Hawkstone Street",
      "Direction": "NB",
      "Date": "2020-10-11",
      "flow": 0.2923673997412678,
      "Latitude": "40.8510934",
      "Longitude": "-73.9046308"
    },
    {
      "SegmentID": "184562",
      "RoadwayName": "GRAND CONCOURSE",
      "From": "East Mt Eve Avenue",
      "To": "Hawkstone Street",
      "Direction": "SB",
      "Date": "2020-10-11",
      "flow": 0.21992238033635186,
      "Latitude": "40.8510934",
      "Longitude": "-73.9046308"
    },
    {
      "SegmentID": "144881",
      "RoadwayName": "GRAND CONCOURSE",
      "From": "Hawkstone Street",
      "To": "East Mt Eden Avenue",
      "Direction": "SB",
      "Date": "2020-10-11",
      "flow": 0.14877102199223805,
      "Latitude": "40.8510934",
      "Longitude": "-73.9046308"
    },
    {
      "SegmentID": "149759",
      "RoadwayName": "GRAND CONCOURSE",
      "From": "Hawkstone Street",
      "To": "Mt Eden Parkway",
      "Direction": "NB",
      "Date": "2020-10-11",
      "flow": 0.1423027166882277,
      "Latitude": "40.8510934",
      "Longitude": "-73.9046308"
    },
    {
      "SegmentID": "31123",
      "RoadwayName": "GRAND STREET",
      "From": "Union Avenue",
      "To": "Lorimer Street",
      "Direction": "EB",
      "Date": "2020-10-11",
      "flow": 0.12807244501940493,
      "Latitude": "40.7132751",
      "Longitude": "-73.9776678"
    },
    {
      "SegmentID": "31123",
      "RoadwayName": "GRAND STREET",
      "From": "Union Avenue",
      "To": "Lorimer Street",
      "Direction": "WB",
      "Date": "2020-10-11",
      "flow": 0.23544631306597671,
      "Latitude": "40.7132751",
      "Longitude": "-73.9776678"
    },
    {
      "SegmentID": "9004434",
      "RoadwayName": "HARROD AVENUE",
      "From": "Cross Bronx River Expressway",
      "To": "East 174th Street",
      "Direction": "NB",
      "Date": "2020-10-11",
      "flow": 0.06338939197930142,
      "Latitude": "40.8447476",
      "Longitude": "-73.9117036"
    },
    {
      "SegmentID": "9004434",
      "RoadwayName": "HARROD AVENUE",
      "From": "Cross Bronx River Expressway",
      "To": "East 174th Street",
      "Direction": "SB",
      "Date": "2020-10-11",
      "flow": 0.056921086675291076,
      "Latitude": "40.8447476",
      "Longitude": "-73.9117036"
    },
    {
      "SegmentID": "157603",
      "RoadwayName": "JAMAICA AVENUE",
      "From": "Georgia Avenue",
      "To": "Sheffied Avenue",
      "Direction": "EB",
      "Date": "2020-10-11",
      "flow": 0.35058214747736094,
      "Latitude": "40.6521022",
      "Longitude": "-73.887989"
    },
    {
      "SegmentID": "157676",
      "RoadwayName": "JAMAICA AVENUE",
      "From": "Georgia Avenue",
      "To": "Fanchon Place",
      "Direction": "WB",
      "Date": "2020-10-11",
      "flow": 0.3001293661060802,
      "Latitude": "40.6521022",
      "Longitude": "-73.887989"
    },
    {
      "SegmentID": "49572",
      "RoadwayName": "JAMAICA AVENUE",
      "From": "Hemlock Street",
      "To": "Autumn Avenue",
      "Direction": "EB",
      "Date": "2020-10-11",
      "flow": 0.19922380336351875,
      "Latitude": "40.684704",
      "Longitude": "-73.8713701"
    },
    {
      "SegmentID": "49572",
      "RoadwayName": "JAMAICA AVENUE",
      "From": "Hemlock Street",
      "To": "Autumn Avenue",
      "Direction": "WB",
      "Date": "2020-10-11",
      "flow": 0.17205692108667528,
      "Latitude": "40.684704",
      "Longitude": "-73.8713701"
    },
    {
      "SegmentID": "236204",
      "RoadwayName": "JEROME AVENUE",
      "From": "Jerome Avenue Line",
      "To": "Jerome Avenue Line",
      "Direction": "EB",
      "Date": "2020-10-11",
      "flow": 0.12807244501940493,
      "Latitude": "40.8665331",
      "Longitude": "-73.8981713"
    },
    {
      "SegmentID": "236204",
      "RoadwayName": "JEROME AVENUE",
      "From": "Jerome Avenue Line",
      "To": "Jerome Avenue Line",
      "Direction": "WB",
      "Date": "2020-10-11",
      "flow": 0.15653298835705046,
      "Latitude": "40.8665331",
      "Longitude": "-73.8981713"
    },
    {
      "SegmentID": "167027",
      "RoadwayName": "KINGS HIGHWAY",
      "From": "Avenue J",
      "To": "Avenue I",
      "Direction": "NB",
      "Date": "2020-10-11",
      "flow": 0.13065976714100905,
      "Latitude": "40.625039",
      "Longitude": "-73.960803"
    },
    {
      "SegmentID": "167027",
      "RoadwayName": "KINGS HIGHWAY",
      "From": "Avenue J",
      "To": "Avenue I",
      "Direction": "SB",
      "Date": "2020-10-11",
      "flow": 0.17205692108667528,
      "Latitude": "40.625039",
      "Longitude": "-73.960803"
    },
    {
      "SegmentID": "228792",
      "RoadwayName": "KINGS HIGHWAY",
      "From": "Avenue J",
      "To": "Avenue I",
      "Direction": "SB",
      "Date": "2020-10-11",
      "flow": 0.03492884864165589,
      "Latitude": "40.625039",
      "Longitude": "-73.960803"
    },
    {
      "SegmentID": "228794",
      "RoadwayName": "KINGS HIGHWAY",
      "From": "Avenue J",
      "To": "Avenue I",
      "Direction": "NB",
      "Date": "2020-10-11",
      "flow": 0.0258732212160414,
      "Latitude": "40.625039",
      "Longitude": "-73.960803"
    },
    {
      "SegmentID": "167264",
      "RoadwayName": "KINGS HIGHWAY",
      "From": "Remsen Avenue",
      "To": "East 91st Street",
      "Direction": "NB",
      "Date": "2020-10-11",
      "flow": 0.4411384217335058,
      "Latitude": "40.6449389",
      "Longitude": "-73.9112164"
    },
    {
      "SegmentID": "167264",
      "RoadwayName": "KINGS HIGHWAY",
      "From": "Remsen Avenue",
      "To": "East 91st Street",
      "Direction": "SB",
      "Date": "2020-10-11",
      "flow": 0.3078913324708926,
      "Latitude": "40.6449389",
      "Longitude": "-73.9112164"
    },
    {
      "SegmentID": "148033",
      "RoadwayName": "KINGS HIGHWAY",
      "From": "Linden Boulevard",
      "To": "East 91st Street",
      "Direction": "NB",
      "Date": "2020-10-11",
      "flow": 0.11384217335058215,
      "Latitude": "40.6747473",
      "Longitude": "-73.8368685"
    },
    {
      "SegmentID": "148124",
      "RoadwayName": "KINGS HIGHWAY",
      "From": "Linden Boulevard",
      "To": "East 91st Street",
      "Direction": "SB",
      "Date": "2020-10-11",
      "flow": 0.12419146183699871,
      "Latitude": "40.6747473",
      "Longitude": "-73.8368685"
    },
    {
      "SegmentID": "88106",
      "RoadwayName": "LACONIA AVENUE",
      "From": "Adee Avenue",
      "To": "Burke Avenue",
      "Direction": "NB",
      "Date": "2020-10-11",
      "flow": 0.015523932729624839,
      "Latitude": "40.8697",
      "Longitude": "-73.8665611"
    },
    {
      "SegmentID": "88106",
      "RoadwayName": "LACONIA AVENUE",
      "From": "Adee Avenue",
      "To": "Burke Avenue",
      "Direction": "SB",
      "Date": "2020-10-11",
      "flow": 0.00646830530401035,
      "Latitude": "40.8697",
      "Longitude": "-73.8665611"
    },
    {
      "SegmentID": "9005484",
      "RoadwayName": "LAFAYETTE AVENUE",
      "From": "Classon Avenue",
      "To": "Franklin Avenue",
      "Direction": "EB",
      "Date": "2020-10-11",
      "flow": 0.16688227684346701,
      "Latitude": "40.6863074",
      "Longitude": "-73.9744304"
    },
    {
      "SegmentID": "57192",
      "RoadwayName": "LIBERTY AVENUE",
      "From": "Waltham Street",
      "To": "146th Street",
      "Direction": "EB",
      "Date": "2020-10-11",
      "flow": 0.2108667529107374,
      "Latitude": "40.6744049",
      "Longitude": "-73.8965126"
    },
    {
      "SegmentID": "57192",
      "RoadwayName": "LIBERTY AVENUE",
      "From": "Waltham Street",
      "To": "146th Street",
      "Direction": "WB",
      "Date": "2020-10-11",
      "flow": 0.2238033635187581,
      "Latitude": "40.6744049",
      "Longitude": "-73.8965126"
    },
    {
      "SegmentID": "51124",
      "RoadwayName": "LINDEN BOULEVARD",
      "From": "Amber Street",
      "To": "79th Street",
      "Direction": "EB",
      "Date": "2020-10-11",
      "flow": 0.3311772315653299,
      "Latitude": "40.6747473",
      "Longitude": "-73.8368685"
    },
    {
      "SegmentID": "156596",
      "RoadwayName": "LINDEN BOULEVARD",
      "From": "Sapphire Street",
      "To": "79th Street",
      "Direction": "WB",
      "Date": "2020-10-11",
      "flow": 0.3014230271668823,
      "Latitude": "40.6747473",
      "Longitude": "-73.8368685"
    },
    {
      "SegmentID": "184850",
      "RoadwayName": "LINDEN BOULEVARD",
      "From": "Sapphire Street",
      "To": "79th Street",
      "Direction": "WB",
      "Date": "2020-10-11",
      "flow": 0.09055627425614489,
      "Latitude": "40.6747473",
      "Longitude": "-73.8368685"
    },
    {
      "SegmentID": "145550",
      "RoadwayName": "LINDEN BOULEVARD",
      "From": "Sapphire Street",
      "To": "79th Street",
      "Direction": "EB",
      "Date": "2020-10-11",
      "flow": 0.0517464424320828,
      "Latitude": "40.6747473",
      "Longitude": "-73.8368685"
    },
    {
      "SegmentID": "21490",
      "RoadwayName": "MC DONALD AVENUE",
      "From": "Albemarle Road",
      "To": "Church Avenue",
      "Direction": "NB",
      "Date": "2020-10-11",
      "flow": 0.050452781371280724,
      "Latitude": "40.6478739",
      "Longitude": "-73.9556227"
    },
    {
      "SegmentID": "21490",
      "RoadwayName": "MC DONALD AVENUE",
      "From": "Albemarle Road",
      "To": "Church Avenue",
      "Direction": "SB",
      "Date": "2020-10-11",
      "flow": 0.045278137128072445,
      "Latitude": "40.6478739",
      "Longitude": "-73.9556227"
    },
    {
      "SegmentID": "31248",
      "RoadwayName": "MESEROLE STREET",
      "From": "Lorimer Street",
      "To": "Leonard Street",
      "Direction": "WB",
      "Date": "2020-10-11",
      "flow": 0.09702457956015524,
      "Latitude": "40.7038293",
      "Longitude": "-73.9473618"
    },
    {
      "SegmentID": "251085",
      "RoadwayName": "MONTROSE AVENUE",
      "From": "Union Avenue",
      "To": "Lorimer Street",
      "Direction": "EB",
      "Date": "2020-10-11",
      "flow": 0.16688227684346701,
      "Latitude": "40.7187096",
      "Longitude": "-73.9523721"
    },
    {
      "SegmentID": "72317",
      "RoadwayName": "MORRIS AVENUE",
      "From": "Mt Eden Parkway",
      "To": "East 173rd Street",
      "Direction": "NB",
      "Date": "2020-10-11",
      "flow": 0.10866752910737387,
      "Latitude": "40.840197",
      "Longitude": "-73.910094"
    },
    {
      "SegmentID": "72317",
      "RoadwayName": "MORRIS AVENUE",
      "From": "Mt Eden Parkway",
      "To": "East 173rd Street",
      "Direction": "SB",
      "Date": "2020-10-11",
      "flow": 0.11642949547218628,
      "Latitude": "40.840197",
      "Longitude": "-73.910094"
    },
    {
      "SegmentID": "9003578",
      "RoadwayName": "MORRIS AVENUE",
      "From": "East 156th Street",
      "To": "Concourse Village",
      "Direction": "NB",
      "Date": "2020-10-11",
      "flow": 0.2988357050452781,
      "Latitude": "40.840197",
      "Longitude": "-73.910094"
    },
    {
      "SegmentID": "9003578",
      "RoadwayName": "MORRIS AVENUE",
      "From": "East 156th Street",
      "To": "Concourse Village",
      "Direction": "SB",
      "Date": "2020-10-11",
      "flow": 0.17076326002587322,
      "Latitude": "40.840197",
      "Longitude": "-73.910094"
    },
    {
      "SegmentID": "9009379",
      "RoadwayName": "MYRTLE AVENUE",
      "From": "Throop Avenue",
      "To": "Tompkins Avenue",
      "Direction": "EB",
      "Date": "2020-10-11",
      "flow": 0.23803363518758086,
      "Latitude": "40.7004288",
      "Longitude": "-73.9443862"
    },
    {
      "SegmentID": "9009379",
      "RoadwayName": "MYRTLE AVENUE",
      "From": "Throop Avenue",
      "To": "Tompkins Avenue",
      "Direction": "WB",
      "Date": "2020-10-11",
      "flow": 0.12419146183699871,
      "Latitude": "40.7004288",
      "Longitude": "-73.9443862"
    },
    {
      "SegmentID": "19259",
      "RoadwayName": "NEPTUNE AVENUE",
      "From": "West 12th Street",
      "To": "West End/ Sea Beach Line",
      "Direction": "EB",
      "Date": "2020-10-11",
      "flow": 0.07373868046571798,
      "Latitude": "40.5747728",
      "Longitude": "-73.9796628"
    },
    {
      "SegmentID": "19259",
      "RoadwayName": "NEPTUNE AVENUE",
      "From": "West 12th Street",
      "To": "West End/ Sea Beach Line",
      "Direction": "WB",
      "Date": "2020-10-11",
      "flow": 0.047865459249676584,
      "Latitude": "40.5747728",
      "Longitude": "-73.9796628"
    },
    {
      "SegmentID": "21139",
      "RoadwayName": "NEW UTRECHT AVENUE",
      "From": "52nd Street",
      "To": "53rd Street",
      "Direction": "NB",
      "Date": "2020-10-11",
      "flow": 0.056921086675291076,
      "Latitude": "40.624842",
      "Longitude": "-73.996353"
    },
    {
      "SegmentID": "21139",
      "RoadwayName": "NEW UTRECHT AVENUE",
      "From": "52nd Street",
      "To": "53rd Street",
      "Direction": "SB",
      "Date": "2020-10-11",
      "flow": 0.05304010349288486,
      "Latitude": "40.624842",
      "Longitude": "-73.996353"
    },
    {
      "SegmentID": "19874",
      "RoadwayName": "NEW UTRECHT AVENUE",
      "From": "71st Street",
      "To": "72nd Street",
      "Direction": "NB",
      "Date": "2020-10-11",
      "flow": 0.06985769728331177,
      "Latitude": "40.624842",
      "Longitude": "-73.996353"
    },
    {
      "SegmentID": "19874",
      "RoadwayName": "NEW UTRECHT AVENUE",
      "From": "71st Street",
      "To": "72nd Street",
      "Direction": "SB",
      "Date": "2020-10-11",
      "flow": 0.06080206985769728,
      "Latitude": "40.624842",
      "Longitude": "-73.996353"
    },
    {
      "SegmentID": "50683",
      "RoadwayName": "NORTH CONDUIT AVENUE",
      "From": "Glenmore Avenue",
      "To": "Lincoln Avenue",
      "Direction": "WB",
      "Date": "2020-10-11",
      "flow": 0.5614489003880984,
      "Latitude": "40.6711683",
      "Longitude": "-73.9096274"
    },
    {
      "SegmentID": "97306",
      "RoadwayName": "NORTHERN BOULEVARD",
      "From": "190th Street",
      "To": "191th Street",
      "Direction": "EB",
      "Date": "2020-10-11",
      "flow": 0.13454075032341525,
      "Latitude": "40.7530794",
      "Longitude": "-73.9062074"
    },
    {
      "SegmentID": "97306",
      "RoadwayName": "NORTHERN BOULEVARD",
      "From": "190th Street",
      "To": "191th Street",
      "Direction": "WB",
      "Date": "2020-10-11",
      "flow": 0.13065976714100905,
      "Latitude": "40.7530794",
      "Longitude": "-73.9062074"
    },
    {
      "SegmentID": "157298",
      "RoadwayName": "NORTHERN BOULEVARD",
      "From": "College Point Boulevard",
      "To": "Prince Street",
      "Direction": "WB",
      "Date": "2020-10-11",
      "flow": 0.4113842173350582,
      "Latitude": "40.7530794",
      "Longitude": "-73.9062074"
    },
    {
      "SegmentID": "133152",
      "RoadwayName": "NORTHERN BOULEVARD",
      "From": "College Point Boulevard",
      "To": "Prince Street",
      "Direction": "EB",
      "Date": "2020-10-11",
      "flow": 0.3816300129366106,
      "Latitude": "40.7530794",
      "Longitude": "-73.9062074"
    },
    {
      "SegmentID": "111646",
      "RoadwayName": "NOSTRAND AVENUE",
      "From": "Foster Avenue",
      "To": "Farragut Road",
      "Direction": "SB",
      "Date": "2020-10-11",
      "flow": 0.2276843467011643,
      "Latitude": "40.6311231",
      "Longitude": "-73.9692209"
    },
    {
      "SegmentID": "25484",
      "RoadwayName": "OCEAN PARKWAY",
      "From": "Avenue S",
      "To": "AvenueT",
      "Direction": "NB",
      "Date": "2020-10-11",
      "flow": 0.15135834411384216,
      "Latitude": "40.610228",
      "Longitude": "-73.9306"
    },
    {
      "SegmentID": "25484",
      "RoadwayName": "OCEAN PARKWAY",
      "From": "Avenue S",
      "To": "AvenueT",
      "Direction": "SB",
      "Date": "2020-10-11",
      "flow": 0.4514877102199224,
      "Latitude": "40.610228",
      "Longitude": "-73.9306"
    },
    {
      "SegmentID": "136481",
      "RoadwayName": "OCEAN PARKWAY",
      "From": "Avenue S",
      "To": "AvenueT",
      "Direction": "NB",
      "Date": "2020-10-11",
      "flow": 0.00517464424320828,
      "Latitude": "40.610228",
      "Longitude": "-73.9306"
    },
    {
      "SegmentID": "136482",
      "RoadwayName": "OCEAN PARKWAY",
      "From": "Avenue S",
      "To": "AvenueT",
      "Direction": "SB",
      "Date": "2020-10-11",
      "flow": 0.009055627425614488,
      "Latitude": "40.610228",
      "Longitude": "-73.9306"
    },
    {
      "SegmentID": "9003584",
      "RoadwayName": "PARK AVENUE",
      "From": "Delmonico Pl",
      "To": "Tompkins Avenue",
      "Direction": "EB",
      "Date": "2020-10-11",
      "flow": 0.08279430789133248,
      "Latitude": "40.7514645",
      "Longitude": "-73.9779934"
    },
    {
      "SegmentID": "9003584",
      "RoadwayName": "PARK AVENUE",
      "From": "Delmonico Pl",
      "To": "Tompkins Avenue",
      "Direction": "WB",
      "Date": "2020-10-11",
      "flow": 0.16558861578266496,
      "Latitude": "40.7514645",
      "Longitude": "-73.9779934"
    },
    {
      "SegmentID": "30321",
      "RoadwayName": "PARK AVENUE",
      "From": "Ryerson Street",
      "To": "Grand Avenue",
      "Direction": "EB",
      "Date": "2020-10-11",
      "flow": 0.1073738680465718,
      "Latitude": "40.7514645",
      "Longitude": "-73.9779934"
    },
    {
      "SegmentID": "246365",
      "RoadwayName": "PARK ROW",
      "From": "Beekman Street",
      "To": "Broadway",
      "Direction": "WB",
      "Date": "2020-10-11",
      "flow": 0.12289780077619664,
      "Latitude": "40.628881",
      "Longitude": "-74.139772"
    },
    {
      "SegmentID": "162351",
      "RoadwayName": "PARK ROW",
      "From": "Beekman Street",
      "To": "Broadway",
      "Direction": "EB",
      "Date": "2020-10-11",
      "flow": 0.16817593790426907,
      "Latitude": "40.628881",
      "Longitude": "-74.139772"
    },
    {
      "SegmentID": "120618",
      "RoadwayName": "POLY PLACE",
      "From": "7th Avenue",
      "To": "Cropsey Avenue",
      "Direction": "EB",
      "Date": "2020-10-11",
      "flow": 0.05821474773609314,
      "Latitude": "40.7509212",
      "Longitude": "-73.9906766"
    },
    {
      "SegmentID": "120618",
      "RoadwayName": "POLY PLACE",
      "From": "7th Avenue",
      "To": "Cropsey Avenue",
      "Direction": "WB",
      "Date": "2020-10-11",
      "flow": 0.04915912031047866,
      "Latitude": "40.7509212",
      "Longitude": "-73.9906766"
    },
    {
      "SegmentID": "192425",
      "RoadwayName": "PROVOST AVENUE",
      "From": "East 233rd Street",
      "To": "East Kingsbridge Road",
      "Direction": "NB",
      "Date": "2020-10-11",
      "flow": 0.111254851228978,
      "Latitude": "40.8943484",
      "Longitude": "-73.8603418"
    },
    {
      "SegmentID": "192425",
      "RoadwayName": "PROVOST AVENUE",
      "From": "East 233rd Street",
      "To": "East Kingsbridge Road",
      "Direction": "SB",
      "Date": "2020-10-11",
      "flow": 0.06727037516170763,
      "Latitude": "40.8943484",
      "Longitude": "-73.8603418"
    },
    {
      "SegmentID": "190316",
      "RoadwayName": "QUEENS BOULEVARD",
      "From": "57th Ave",
      "To": "Woodhaven Boulevard",
      "Direction": "EB",
      "Date": "2020-10-11",
      "flow": 0.08796895213454076,
      "Latitude": "40.727634",
      "Longitude": "-73.854941"
    },
    {
      "SegmentID": "151751",
      "RoadwayName": "QUEENS BOULEVARD",
      "From": "Union Turnpike",
      "To": "78th Avenue",
      "Direction": "EB",
      "Date": "2020-10-11",
      "flow": 0.04915912031047866,
      "Latitude": "40.727634",
      "Longitude": "-73.854941"
    },
    {
      "SegmentID": "134372",
      "RoadwayName": "QUEENS BOULEVARD",
      "From": "Union Turnpike",
      "To": "80th Rd",
      "Direction": "EB",
      "Date": "2020-10-11",
      "flow": 0.09055627425614489,
      "Latitude": "40.727634",
      "Longitude": "-73.854941"
    },
    {
      "SegmentID": "157226",
      "RoadwayName": "QUEENS BOULEVARD",
      "From": "Union Turnpike",
      "To": "80th Rd",
      "Direction": "WB",
      "Date": "2020-10-11",
      "flow": 0.17205692108667528,
      "Latitude": "40.727634",
      "Longitude": "-73.854941"
    },
    {
      "SegmentID": "42389",
      "RoadwayName": "RALPH AVENUE",
      "From": "Glenwood Road",
      "To": "Flatlands Avenue",
      "Direction": "NB",
      "Date": "2020-10-11",
      "flow": 0.1203104786545925,
      "Latitude": "40.6788802",
      "Longitude": "-73.9216651"
    },
    {
      "SegmentID": "42389",
      "RoadwayName": "RALPH AVENUE",
      "From": "Glenwood Road",
      "To": "Flatlands Avenue",
      "Direction": "SB",
      "Date": "2020-10-11",
      "flow": 0.15653298835705046,
      "Latitude": "40.6788802",
      "Longitude": "-73.9216651"
    },
    {
      "SegmentID": "179513",
      "RoadwayName": "RANDALL AVENUE",
      "From": "East 177th Street",
      "To": "Cross Bronx Expressway",
      "Direction": "EB",
      "Date": "2020-10-11",
      "flow": 0.22639068564036222,
      "Latitude": "40.8363101",
      "Longitude": "-73.874253"
    },
    {
      "SegmentID": "179513",
      "RoadwayName": "RANDALL AVENUE",
      "From": "East 177th Street",
      "To": "Cross Bronx Expressway",
      "Direction": "WB",
      "Date": "2020-10-11",
      "flow": 0.04915912031047866,
      "Latitude": "40.8363101",
      "Longitude": "-73.874253"
    },
    {
      "SegmentID": "128674",
      "RoadwayName": "REMSEN AVENUE",
      "From": "Stillwell Pl",
      "To": "Avenue L",
      "Direction": "NB",
      "Date": "2020-10-11",
      "flow": 0.1927554980595084,
      "Latitude": "40.6449389",
      "Longitude": "-73.9112164"
    },
    {
      "SegmentID": "128674",
      "RoadwayName": "REMSEN AVENUE",
      "From": "Stillwell Pl",
      "To": "Avenue L",
      "Direction": "SB",
      "Date": "2020-10-11",
      "flow": 0.14359637774902975,
      "Latitude": "40.6449389",
      "Longitude": "-73.9112164"
    },
    {
      "SegmentID": "128667",
      "RoadwayName": "REMSEN AVENUE",
      "From": "Flatlands Avenue",
      "To": "Avenue J",
      "Direction": "NB",
      "Date": "2020-10-11",
      "flow": 0.24191461836998707,
      "Latitude": "40.6449389",
      "Longitude": "-73.9112164"
    },
    {
      "SegmentID": "128667",
      "RoadwayName": "REMSEN AVENUE",
      "From": "Flatlands Avenue",
      "To": "Avenue J",
      "Direction": "SB",
      "Date": "2020-10-11",
      "flow": 0.22897800776196636,
      "Latitude": "40.6449389",
      "Longitude": "-73.9112164"
    },
    {
      "SegmentID": "149201",
      "RoadwayName": "RICHMOND AVENUE",
      "From": "Forest Hill Road",
      "To": "Forest Hill Bridge",
      "Direction": "SB",
      "Date": "2020-10-11",
      "flow": 0.21345407503234154,
      "Latitude": "40.5864271",
      "Longitude": "-74.1462521"
    },
    {
      "SegmentID": "155387",
      "RoadwayName": "RICHMOND AVENUE",
      "From": "Forest Hill Road",
      "To": "Forest Hill Bridge",
      "Direction": "NB",
      "Date": "2020-10-11",
      "flow": 0.278137128072445,
      "Latitude": "40.5864271",
      "Longitude": "-74.1462521"
    },
    {
      "SegmentID": "8288",
      "RoadwayName": "RICHMOND",
      "From": "Hillman Avenue",
      "To": "Akron Street",
      "Direction": "NB",
      "Date": "2020-10-11",
      "flow": 0.07115135834411385,
      "Latitude": "40.612573",
      "Longitude": "-74.160427"
    },
    {
      "SegmentID": "8288",
      "RoadwayName": "RICHMOND",
      "From": "Hillman Avenue",
      "To": "Akron Street",
      "Direction": "SB",
      "Date": "2020-10-11",
      "flow": 0.10219922380336352,
      "Latitude": "40.612573",
      "Longitude": "-74.160427"
    },
    {
      "SegmentID": "73436",
      "RoadwayName": "RIVERDALE AVENUE",
      "From": "West 238th Street",
      "To": "West 239th Street",
      "Direction": "NB",
      "Date": "2020-10-11",
      "flow": 0.0517464424320828,
      "Latitude": "40.9122215",
      "Longitude": "-73.9026588"
    },
    {
      "SegmentID": "73436",
      "RoadwayName": "RIVERDALE AVENUE",
      "From": "West 238th Street",
      "To": "West 239th Street",
      "Direction": "SB",
      "Date": "2020-10-11",
      "flow": 0.07503234152652005,
      "Latitude": "40.9122215",
      "Longitude": "-73.9026588"
    },
    {
      "SegmentID": "46514",
      "RoadwayName": "ROCKAWAY PARKWAY",
      "From": "Avenue J",
      "To": "Avenue K",
      "Direction": "SB",
      "Date": "2020-10-11",
      "flow": 0.2315653298835705,
      "Latitude": "40.625039",
      "Longitude": "-73.960803"
    },
    {
      "SegmentID": "155745",
      "RoadwayName": "SEAGIRT BOULEVARD",
      "From": "Beach 6th Street",
      "To": "Beach 9th Street",
      "Direction": "WB",
      "Date": "2020-10-11",
      "flow": 0.10866752910737387,
      "Latitude": "40.5955565",
      "Longitude": "-73.7410999"
    },
    {
      "SegmentID": "148407",
      "RoadwayName": "SEAGIRT BOULEVARD",
      "From": "Beach 6th Street",
      "To": "Beach 9th Street",
      "Direction": "EB",
      "Date": "2020-10-11",
      "flow": 0.2238033635187581,
      "Latitude": "40.5955565",
      "Longitude": "-73.7410999"
    },
    {
      "SegmentID": "113134",
      "RoadwayName": "SEDGWICK AVENUE",
      "From": "West 183rd Street",
      "To": "West Fordham Road",
      "Direction": "NB",
      "Date": "2020-10-11",
      "flow": 0.111254851228978,
      "Latitude": "40.8825571",
      "Longitude": "-73.887063"
    },
    {
      "SegmentID": "113134",
      "RoadwayName": "SEDGWICK AVENUE",
      "From": "West 183rd Street",
      "To": "West Fordham Road",
      "Direction": "SB",
      "Date": "2020-10-11",
      "flow": 0.16558861578266496,
      "Latitude": "40.8825571",
      "Longitude": "-73.887063"
    },
    {
      "SegmentID": "150579",
      "RoadwayName": "SOUTH AVENUE",
      "From": "Lois Lane",
      "To": "Fahy Avenue",
      "Direction": "SB",
      "Date": "2020-10-11",
      "flow": 0.06338939197930142,
      "Latitude": "40.6156603",
      "Longitude": "-74.1728195"
    },
    {
      "SegmentID": "150578",
      "RoadwayName": "SOUTH AVENUE",
      "From": "Lois Lane",
      "To": "Fahy Avenue",
      "Direction": "NB",
      "Date": "2020-10-11",
      "flow": 0.027166882276843468,
      "Latitude": "40.6156603",
      "Longitude": "-74.1728195"
    },
    {
      "SegmentID": "119816",
      "RoadwayName": "SOUTHERN BOULEVARD",
      "From": "Crotona Park East",
      "To": "East 175th Street",
      "Direction": "NB",
      "Date": "2020-10-11",
      "flow": 0.10866752910737387,
      "Latitude": "40.8101526",
      "Longitude": "-73.9070982"
    },
    {
      "SegmentID": "119816",
      "RoadwayName": "SOUTHERN BOULEVARD",
      "From": "Crotona Park East",
      "To": "East 175th Street",
      "Direction": "SB",
      "Date": "2020-10-11",
      "flow": 0.17076326002587322,
      "Latitude": "40.8101526",
      "Longitude": "-73.9070982"
    },
    {
      "SegmentID": "107111",
      "RoadwayName": "SOUTHERN BOULEVARD",
      "From": "East 163rd Street",
      "To": "Aldus Street",
      "Direction": "NB",
      "Date": "2020-10-11",
      "flow": 0.1630012936610608,
      "Latitude": "40.8101526",
      "Longitude": "-73.9070982"
    },
    {
      "SegmentID": "107111",
      "RoadwayName": "SOUTHERN BOULEVARD",
      "From": "East 163rd Street",
      "To": "Aldus Street",
      "Direction": "SB",
      "Date": "2020-10-11",
      "flow": 0.15782664941785252,
      "Latitude": "40.8101526",
      "Longitude": "-73.9070982"
    },
    {
      "SegmentID": "134461",
      "RoadwayName": "SOUTHERN BOULEVARD",
      "From": "Bronx Park Road",
      "To": "East Fordham Road",
      "Direction": "SB",
      "Date": "2020-10-11",
      "flow": 0.24191461836998707,
      "Latitude": "40.8101526",
      "Longitude": "-73.9070982"
    },
    {
      "SegmentID": "146666",
      "RoadwayName": "SOUTHERN BOULEVARD",
      "From": "Bronx Park Road",
      "To": "East Fordham Road",
      "Direction": "NB",
      "Date": "2020-10-11",
      "flow": 0.16170763260025872,
      "Latitude": "40.8101526",
      "Longitude": "-73.9070982"
    },
    {
      "SegmentID": "19163",
      "RoadwayName": "STILLWELL AVENUE",
      "From": "Avenue W",
      "To": "28th Avenue",
      "Direction": "NB",
      "Date": "2020-10-11",
      "flow": 0.07373868046571798,
      "Latitude": "40.5923096",
      "Longitude": "-73.9738908"
    },
    {
      "SegmentID": "19163",
      "RoadwayName": "STILLWELL AVENUE",
      "From": "Avenue W",
      "To": "28th Avenue",
      "Direction": "SB",
      "Date": "2020-10-11",
      "flow": 0.0944372574385511,
      "Latitude": "40.5923096",
      "Longitude": "-73.9738908"
    },
    {
      "SegmentID": "77209",
      "RoadwayName": "TINTON AVENUE",
      "From": "East 150th Street",
      "To": "East 151st Street",
      "Direction": "SB",
      "Date": "2020-10-11",
      "flow": 0.08796895213454076,
      "Latitude": "40.824666",
      "Longitude": "-73.902331"
    },
    {
      "SegmentID": "107126",
      "RoadwayName": "TINTON AVENUE",
      "From": "Home Street",
      "To": "East 168th Street",
      "Direction": "NB",
      "Date": "2020-10-11",
      "flow": 0.04398447606727038,
      "Latitude": "40.824666",
      "Longitude": "-73.902331"
    },
    {
      "SegmentID": "107126",
      "RoadwayName": "TINTON AVENUE",
      "From": "Home Street",
      "To": "East 168th Street",
      "Direction": "SB",
      "Date": "2020-10-11",
      "flow": 0.0646830530401035,
      "Latitude": "40.824666",
      "Longitude": "-73.902331"
    },
    {
      "SegmentID": "112206",
      "RoadwayName": "TODT HILL ROAD",
      "From": "Sussex Avenue",
      "To": "Ocean Terrace",
      "Direction": "NB",
      "Date": "2020-10-11",
      "flow": 0.09573091849935317,
      "Latitude": "40.60327",
      "Longitude": "-74.115893"
    },
    {
      "SegmentID": "112206",
      "RoadwayName": "TODT HILL ROAD",
      "From": "Sussex Avenue",
      "To": "Ocean Terrace",
      "Direction": "SB",
      "Date": "2020-10-11",
      "flow": 0.09573091849935317,
      "Latitude": "40.60327",
      "Longitude": "-74.115893"
    },
    {
      "SegmentID": "146375",
      "RoadwayName": "UNION TURNPIKE",
      "From": "Langdale Street",
      "To": "Hewlett Street",
      "Direction": "EB",
      "Date": "2020-10-11",
      "flow": 0.06338939197930142,
      "Latitude": "40.7454151",
      "Longitude": "-73.715169"
    },
    {
      "SegmentID": "146374",
      "RoadwayName": "UNION TURNPIKE",
      "From": "Hewlett Street",
      "To": "Langdale Street",
      "Direction": "WB",
      "Date": "2020-10-11",
      "flow": 0.0685640362225097,
      "Latitude": "40.7454151",
      "Longitude": "-73.715169"
    },
    {
      "SegmentID": "41144",
      "RoadwayName": "UTICA AVENUE",
      "From": "Avenue K",
      "To": "Avenue L",
      "Direction": "NB",
      "Date": "2020-10-11",
      "flow": 0.10866752910737387,
      "Latitude": "40.637901",
      "Longitude": "-73.900838"
    },
    {
      "SegmentID": "41144",
      "RoadwayName": "UTICA AVENUE",
      "From": "Avenue K",
      "To": "Avenue L",
      "Direction": "SB",
      "Date": "2020-10-11",
      "flow": 0.13195342820181113,
      "Latitude": "40.637901",
      "Longitude": "-73.900838"
    },
    {
      "SegmentID": "42098",
      "RoadwayName": "UTICA AVENUE",
      "From": "Lenox Road",
      "To": "Linden Boulevard",
      "Direction": "NB",
      "Date": "2020-10-11",
      "flow": 0.3816300129366106,
      "Latitude": "40.6553529",
      "Longitude": "-73.9306307"
    },
    {
      "SegmentID": "42098",
      "RoadwayName": "UTICA AVENUE",
      "From": "Lenox Road",
      "To": "Linden Boulevard",
      "Direction": "SB",
      "Date": "2020-10-11",
      "flow": 0.34152652005174644,
      "Latitude": "40.6553529",
      "Longitude": "-73.9306307"
    },
    {
      "SegmentID": "114953",
      "RoadwayName": "VAN DUZER STREET",
      "From": "Court Street",
      "To": "Gordon Street",
      "Direction": "EB",
      "Date": "2020-10-11",
      "flow": 0.10090556274256145,
      "Latitude": "40.6255943",
      "Longitude": "-74.0844979"
    },
    {
      "SegmentID": "31909",
      "RoadwayName": "VARICK STREET",
      "From": "Charlton Street",
      "To": "Vandam Street",
      "Direction": "SB",
      "Date": "2020-10-11",
      "flow": 1,
      "Latitude": "40.726941",
      "Longitude": "-74.003278"
    },
    {
      "SegmentID": "41663",
      "RoadwayName": "VETERANS AVENUE",
      "From": "East 71st Street",
      "To": "Avenue U",
      "Direction": "WB",
      "Date": "2020-10-11",
      "flow": 0.0038809831824062097,
      "Latitude": "40.6166869",
      "Longitude": "-73.9039399"
    },
    {
      "SegmentID": "4832",
      "RoadwayName": "VICTORY BOULEVARD",
      "From": "Dinsmore Street",
      "To": "Signs Road",
      "Direction": "EB",
      "Date": "2020-10-11",
      "flow": 0.042690815006468305,
      "Latitude": "40.6042894",
      "Longitude": "-74.1701652"
    },
    {
      "SegmentID": "4832",
      "RoadwayName": "VICTORY BOULEVARD",
      "From": "Dinsmore Street",
      "To": "Signs Road",
      "Direction": "WB",
      "Date": "2020-10-11",
      "flow": 0.04139715394566624,
      "Latitude": "40.6042894",
      "Longitude": "-74.1701652"
    },
    {
      "SegmentID": "256800",
      "RoadwayName": "WEBSTER AVENUE",
      "From": "East 233rd Street",
      "To": "Orio J. Palmer Way",
      "Direction": "NB",
      "Date": "2020-10-11",
      "flow": 0.2445019404915912,
      "Latitude": "40.8943484",
      "Longitude": "-73.8603418"
    },
    {
      "SegmentID": "256800",
      "RoadwayName": "WEBSTER AVENUE",
      "From": "East 233rd Street",
      "To": "Orio J. Palmer Way",
      "Direction": "SB",
      "Date": "2020-10-11",
      "flow": 0.1384217335058215,
      "Latitude": "40.8943484",
      "Longitude": "-73.8603418"
    },
    {
      "SegmentID": "78177",
      "RoadwayName": "WEBSTER AVENUE",
      "From": "East Mt Eden Avenue",
      "To": "East 173rd Street",
      "Direction": "NB",
      "Date": "2020-10-11",
      "flow": 0.4087968952134541,
      "Latitude": "40.8435761",
      "Longitude": "-73.9130722"
    },
    {
      "SegmentID": "78177",
      "RoadwayName": "WEBSTER AVENUE",
      "From": "East Mt Eden Avenue",
      "To": "East 173rd Street",
      "Direction": "SB",
      "Date": "2020-10-11",
      "flow": 0.49159120310478654,
      "Latitude": "40.8435761",
      "Longitude": "-73.9130722"
    },
    {
      "SegmentID": "81384",
      "RoadwayName": "WEBSTER AVENUE",
      "From": "Woodlawn Cemetery Boundary",
      "To": "East Gun Hill Rd",
      "Direction": "NB",
      "Date": "2020-10-11",
      "flow": 0.0724450194049159,
      "Latitude": "40.8640107",
      "Longitude": "-73.8339775"
    },
    {
      "SegmentID": "81384",
      "RoadwayName": "WEBSTER AVENUE",
      "From": "Woodlawn Cemetery Boundary",
      "To": "East Gun Hill Rd",
      "Direction": "SB",
      "Date": "2020-10-11",
      "flow": 0.08926261319534282,
      "Latitude": "40.8640107",
      "Longitude": "-73.8339775"
    },
    {
      "SegmentID": "262242",
      "RoadwayName": "WEST BROADWAY",
      "From": "Worth Street",
      "To": "Leonard Street",
      "Direction": "SB",
      "Date": "2020-10-11",
      "flow": 0.35963777490297544,
      "Latitude": "40.7152194",
      "Longitude": "-74.0022433"
    },
    {
      "SegmentID": "121148",
      "RoadwayName": "WEST GUN HILL ROAD",
      "From": "West Mosholu Parkway North",
      "To": "Mosholu Parkway",
      "Direction": "EB",
      "Date": "2020-10-11",
      "flow": 0.1591203104786546,
      "Latitude": "40.881968",
      "Longitude": "-73.884692"
    },
    {
      "SegmentID": "121148",
      "RoadwayName": "WEST GUN HILL ROAD",
      "From": "West Mosholu Parkway North",
      "To": "Mosholu Parkway",
      "Direction": "WB",
      "Date": "2020-10-11",
      "flow": 0.17205692108667528,
      "Latitude": "40.881968",
      "Longitude": "-73.884692"
    },
    {
      "SegmentID": "95195",
      "RoadwayName": "WESTCHESTER AVENUE",
      "From": "Bruckner Boulevard",
      "To": "Burr Avenue",
      "Direction": "SB",
      "Date": "2020-10-11",
      "flow": 0.1461836998706339,
      "Latitude": "40.8301747",
      "Longitude": "-73.8375135"
    },
    {
      "SegmentID": "78877",
      "RoadwayName": "WESTCHESTER AVENUE",
      "From": "East 167th Street",
      "To": "Home Street",
      "Direction": "EB",
      "Date": "2020-10-11",
      "flow": 0.296248382923674,
      "Latitude": "40.8263976",
      "Longitude": "-73.8989844"
    },
    {
      "SegmentID": "78877",
      "RoadwayName": "WESTCHESTER AVENUE",
      "From": "East 167th Street",
      "To": "Home Street",
      "Direction": "WB",
      "Date": "2020-10-11",
      "flow": 0.3738680465717982,
      "Latitude": "40.8263976",
      "Longitude": "-73.8989844"
    },
    {
      "SegmentID": "147032",
      "RoadwayName": "WHITE PLAINS ROAD",
      "From": "East 215th Street",
      "To": "East 216th Street",
      "Direction": "NB",
      "Date": "2020-10-11",
      "flow": 0.1630012936610608,
      "Latitude": "40.8941458",
      "Longitude": "-73.8569108"
    },
    {
      "SegmentID": "132595",
      "RoadwayName": "WHITE PLAINS ROAD",
      "From": "East 215th Street",
      "To": "East 216th Street",
      "Direction": "SB",
      "Date": "2020-10-11",
      "flow": 0.2858990944372574,
      "Latitude": "40.8941458",
      "Longitude": "-73.8569108"
    },
    {
      "SegmentID": "151663",
      "RoadwayName": "WOODHAVEN BOULEVARD",
      "From": "97th Avenue",
      "To": "101st Avenue",
      "Direction": "NB",
      "Date": "2020-10-11",
      "flow": 0.3078913324708926,
      "Latitude": "40.7332625",
      "Longitude": "-73.8697005"
    },
    {
      "SegmentID": "156005",
      "RoadwayName": "WOODHAVEN BOULEVARD",
      "From": "97th Avenue",
      "To": "101st Avenue",
      "Direction": "SB",
      "Date": "2020-10-11",
      "flow": 0.3984476067270375,
      "Latitude": "40.7332625",
      "Longitude": "-73.8697005"
    },
    {
      "SegmentID": "151662",
      "RoadwayName": "WOODHAVEN BOULEVARD",
      "From": "97th Avenue",
      "To": "101st Avenue",
      "Direction": "NB",
      "Date": "2020-10-11",
      "flow": 0.062095730918499355,
      "Latitude": "40.7332625",
      "Longitude": "-73.8697005"
    },
    {
      "SegmentID": "151664",
      "RoadwayName": "WOODHAVEN BOULEVARD",
      "From": "97th Avenue",
      "To": "101st Avenue",
      "Direction": "SB",
      "Date": "2020-10-11",
      "flow": 0.0944372574385511,
      "Latitude": "40.7332625",
      "Longitude": "-73.8697005"
    },
    {
      "SegmentID": "134660",
      "RoadwayName": "WOODHAVEN BOULEVARD",
      "From": "Union Turnpike",
      "To": "79th Avenue",
      "Direction": "NB",
      "Date": "2020-10-11",
      "flow": 0.5498059508408797,
      "Latitude": "40.7332625",
      "Longitude": "-73.8697005"
    },
    {
      "SegmentID": "134660",
      "RoadwayName": "WOODHAVEN BOULEVARD",
      "From": "Union Turnpike",
      "To": "79th Avenue",
      "Direction": "NB",
      "Date": "2020-10-11",
      "flow": 0.01164294954721863,
      "Latitude": "40.7332625",
      "Longitude": "-73.8697005"
    },
    {
      "SegmentID": "151704",
      "RoadwayName": "WOODHAVEN BOULEVARD",
      "From": "73rd Avenue",
      "To": "74th Avenue",
      "Direction": "SB",
      "Date": "2020-10-11",
      "flow": 0.22509702457956016,
      "Latitude": "40.7332625",
      "Longitude": "-73.8697005"
    },
    {
      "SegmentID": "151704",
      "RoadwayName": "WOODHAVEN BOULEVARD",
      "From": "73rd Avenue",
      "To": "74th Avenue",
      "Direction": "SB",
      "Date": "2020-10-11",
      "flow": 0.02069857697283312,
      "Latitude": "40.7332625",
      "Longitude": "-73.8697005"
    },
    {
      "SegmentID": "36517",
      "RoadwayName": "YORK AVENUE",
      "From": "East 60th Street",
      "To": "East 61st Street",
      "Direction": "NB",
      "Date": "2020-10-11",
      "flow": 0.14747736093143596,
      "Latitude": "40.7603138",
      "Longitude": "-73.9616495"
    },
    {
      "SegmentID": "36517",
      "RoadwayName": "YORK AVENUE",
      "From": "East 61st Street",
      "To": "East 60th Street",
      "Direction": "SB",
      "Date": "2020-10-11",
      "flow": 0.11513583441138421,
      "Latitude": "40.616553",
      "Longitude": "-73.916486"
    }
  ],
  "2:00-3:00AM": [
    {
      "SegmentID": "33758",
      "RoadwayName": "10TH AVENUE",
      "From": "West 45th Street",
      "To": "West 46th Street",
      "Direction": "NB",
      "Date": "2020-10-11",
      "flow": 0.6655683690280065,
      "Latitude": "40.761801",
      "Longitude": "-73.994646"
    },
    {
      "SegmentID": "57189",
      "RoadwayName": "101 AVENUE",
      "From": "Waltham Street",
      "To": "146th Street",
      "Direction": "WB",
      "Date": "2020-10-11",
      "flow": 0.05601317957166392,
      "Latitude": "40.7127281",
      "Longitude": "-74.0060152"
    },
    {
      "SegmentID": "82326",
      "RoadwayName": "108 STREET",
      "From": "62nd Avenue",
      "To": "Apex Place",
      "Direction": "NB",
      "Date": "2020-10-11",
      "flow": 0.009884678747940691,
      "Latitude": "40.7941983",
      "Longitude": "-73.9468558"
    },
    {
      "SegmentID": "82326",
      "RoadwayName": "108 STREET",
      "From": "62nd Avenue",
      "To": "Apex Place",
      "Direction": "SB",
      "Date": "2020-10-11",
      "flow": 0.1186161449752883,
      "Latitude": "40.7941983",
      "Longitude": "-73.9468558"
    },
    {
      "SegmentID": "63023",
      "RoadwayName": "120 AVENUE",
      "From": "191th Street",
      "To": "192th Street",
      "Direction": "EB",
      "Date": "2020-10-11",
      "flow": 0.10049423393739704,
      "Latitude": "40.7340069",
      "Longitude": "-73.7801978"
    },
    {
      "SegmentID": "63023",
      "RoadwayName": "120 AVENUE",
      "From": "191th Street",
      "To": "192th Street",
      "Direction": "WB",
      "Date": "2020-10-11",
      "flow": 0.060955518945634266,
      "Latitude": "40.7340069",
      "Longitude": "-73.7801978"
    },
    {
      "SegmentID": "19653",
      "RoadwayName": "13th AVENUE",
      "From": "71st Street",
      "To": "72nd Street",
      "Direction": "EB",
      "Date": "2020-10-11",
      "flow": 0.019769357495881382,
      "Latitude": "40.6193283",
      "Longitude": "-73.9989445"
    },
    {
      "SegmentID": "19653",
      "RoadwayName": "13th AVENUE",
      "From": "71st Street",
      "To": "72nd Street",
      "Direction": "WB",
      "Date": "2020-10-11",
      "flow": 0.03130148270181219,
      "Latitude": "40.6193283",
      "Longitude": "-73.9989445"
    },
    {
      "SegmentID": "19762",
      "RoadwayName": "14th AVENUE",
      "From": "71st Street",
      "To": "72nd Street",
      "Direction": "NB",
      "Date": "2020-10-11",
      "flow": 0.039538714991762765,
      "Latitude": "40.6193283",
      "Longitude": "-73.9989445"
    },
    {
      "SegmentID": "19762",
      "RoadwayName": "14th AVENUE",
      "From": "71st Street",
      "To": "72nd Street",
      "Direction": "SB",
      "Date": "2020-10-11",
      "flow": 0.032948929159802305,
      "Latitude": "40.6193283",
      "Longitude": "-73.9989445"
    },
    {
      "SegmentID": "21018",
      "RoadwayName": "3rd AVENUE",
      "From": "30th Street",
      "To": "31st Street",
      "Direction": "SB",
      "Date": "2020-10-11",
      "flow": 0.11532125205930807,
      "Latitude": "40.7599886",
      "Longitude": "-73.9281136"
    },
    {
      "SegmentID": "21022",
      "RoadwayName": "3rd AVENUE",
      "From": "30th Street",
      "To": "31st Street",
      "Direction": "NB",
      "Date": "2020-10-11",
      "flow": 0.19934102141680396,
      "Latitude": "40.7599886",
      "Longitude": "-73.9281136"
    },
    {
      "SegmentID": "22806",
      "RoadwayName": "3rd AVENUE",
      "From": "Baltic Street",
      "To": "Butler Street",
      "Direction": "NB",
      "Date": "2020-10-11",
      "flow": 0.05271828665568369,
      "Latitude": "40.6884386",
      "Longitude": "-74.0011557"
    },
    {
      "SegmentID": "22806",
      "RoadwayName": "3rd AVENUE",
      "From": "Baltic Street",
      "To": "Butler Street",
      "Direction": "SB",
      "Date": "2020-10-11",
      "flow": 0.051070840197693576,
      "Latitude": "40.6884386",
      "Longitude": "-74.0011557"
    },
    {
      "SegmentID": "133942",
      "RoadwayName": "65th Street",
      "From": "5th Avenue",
      "To": "6th Avenue",
      "Direction": "EB",
      "Date": "2020-10-11",
      "flow": 0.060955518945634266,
      "Latitude": "40.7647467",
      "Longitude": "-73.9726829"
    },
    {
      "SegmentID": "133942",
      "RoadwayName": "65th Street",
      "From": "5th Avenue",
      "To": "6th Avenue",
      "Direction": "WB",
      "Date": "2020-10-11",
      "flow": 0.08731466227347612,
      "Latitude": "40.7647467",
      "Longitude": "-73.9726829"
    },
    {
      "SegmentID": "33850",
      "RoadwayName": "9TH AVENUE",
      "From": "West 46th Street",
      "To": "West 47th Street",
      "Direction": "SB",
      "Date": "2020-10-11",
      "flow": 0.5634266886326195,
      "Latitude": "40.7582569",
      "Longitude": "-73.9842778"
    },
    {
      "SegmentID": "9003670",
      "RoadwayName": "ASTOR AVENUE",
      "From": "Wallace Avenue",
      "To": "Barnes Avenue",
      "Direction": "EB",
      "Date": "2020-10-11",
      "flow": 0.06919275123558484,
      "Latitude": "40.8543854",
      "Longitude": "-73.8648158"
    },
    {
      "SegmentID": "9003670",
      "RoadwayName": "ASTOR AVENUE",
      "From": "Wallace Avenue",
      "To": "Barnes Avenue",
      "Direction": "WB",
      "Date": "2020-10-11",
      "flow": 0.02471169686985173,
      "Latitude": "40.8543854",
      "Longitude": "-73.8648158"
    },
    {
      "SegmentID": "157870",
      "RoadwayName": "ATLANTIC AVENUE",
      "From": "Crescent Street",
      "To": "Autumn Avenue",
      "Direction": "EB",
      "Date": "2020-10-11",
      "flow": 0.34102141680395387,
      "Latitude": "40.6833496",
      "Longitude": "-73.873286"
    },
    {
      "SegmentID": "158264",
      "RoadwayName": "ATLANTIC AVENUE",
      "From": "Hemlock Street",
      "To": "Autumn Avenue",
      "Direction": "WB",
      "Date": "2020-10-11",
      "flow": 0.3443163097199341,
      "Latitude": "40.684704",
      "Longitude": "-73.8713701"
    },
    {
      "SegmentID": "41720",
      "RoadwayName": "AVENUE D",
      "From": "Brooklyn Avenue",
      "To": "East 37th Street",
      "Direction": "EB",
      "Date": "2020-10-11",
      "flow": 0.14497528830313014,
      "Latitude": "40.6313796",
      "Longitude": "-73.9416905"
    },
    {
      "SegmentID": "41720",
      "RoadwayName": "AVENUE D",
      "From": "Brooklyn Avenue",
      "To": "East 37th Street",
      "Direction": "WB",
      "Date": "2020-10-11",
      "flow": 0.11696869851729819,
      "Latitude": "40.6313796",
      "Longitude": "-73.9416905"
    },
    {
      "SegmentID": "41040",
      "RoadwayName": "AVENUE J",
      "From": "Schenectady Avenue",
      "To": "East 48th Street",
      "Direction": "EB",
      "Date": "2020-10-11",
      "flow": 0.036243822075782535,
      "Latitude": "40.625039",
      "Longitude": "-73.960803"
    },
    {
      "SegmentID": "41040",
      "RoadwayName": "AVENUE J",
      "From": "Schenectady Avenue",
      "To": "East 48th Street",
      "Direction": "WB",
      "Date": "2020-10-11",
      "flow": 0.03130148270181219,
      "Latitude": "40.625039",
      "Longitude": "-73.960803"
    },
    {
      "SegmentID": "27139",
      "RoadwayName": "AVENUE M",
      "From": "East 15th Street",
      "To": "Buckingham Road",
      "Direction": "EB",
      "Date": "2020-10-11",
      "flow": 0.060955518945634266,
      "Latitude": "40.6178971",
      "Longitude": "-73.959474"
    },
    {
      "SegmentID": "27139",
      "RoadwayName": "AVENUE M",
      "From": "East 15th Street",
      "To": "Buckingham Road",
      "Direction": "WB",
      "Date": "2020-10-11",
      "flow": 0.032948929159802305,
      "Latitude": "40.6178971",
      "Longitude": "-73.959474"
    },
    {
      "SegmentID": "41000",
      "RoadwayName": "AVENUE M",
      "From": "East 45th Street",
      "To": "East 46th Street",
      "Direction": "WB",
      "Date": "2020-10-11",
      "flow": 0.03459637561779242,
      "Latitude": "40.6178971",
      "Longitude": "-73.959474"
    },
    {
      "SegmentID": "27121",
      "RoadwayName": "AVENUE N",
      "From": "Brington Line",
      "To": "East 16th Street",
      "Direction": "EB",
      "Date": "2020-10-11",
      "flow": 0.09884678747940692,
      "Latitude": "40.5873782",
      "Longitude": "-73.9532845"
    },
    {
      "SegmentID": "34188",
      "RoadwayName": "6TH AVENUE",
      "From": "West 45th Street",
      "To": "West 46th Street",
      "Direction": "NB",
      "Date": "2020-10-11",
      "flow": 0.8352553542009885,
      "Latitude": "40.761801",
      "Longitude": "-73.994646"
    },
    {
      "SegmentID": "20337",
      "RoadwayName": "AVENUE P",
      "From": "West 10th Street",
      "To": "West 9th Street",
      "Direction": "EB",
      "Date": "2020-10-11",
      "flow": 0.047775947281713346,
      "Latitude": "40.608944",
      "Longitude": "-73.973022"
    },
    {
      "SegmentID": "20337",
      "RoadwayName": "AVENUE P",
      "From": "West 10th Street",
      "To": "West 9th Street",
      "Direction": "WB",
      "Date": "2020-10-11",
      "flow": 0.057660626029654036,
      "Latitude": "40.608944",
      "Longitude": "-73.973022"
    },
    {
      "SegmentID": "41312",
      "RoadwayName": "AVENUE U",
      "From": "East 56th Street",
      "To": "Pearson Street",
      "Direction": "EB",
      "Date": "2020-10-11",
      "flow": 0.11367380560131796,
      "Latitude": "40.6478985",
      "Longitude": "-73.9241338"
    },
    {
      "SegmentID": "41312",
      "RoadwayName": "AVENUE U",
      "From": "East 56th Street",
      "To": "Pearson Street",
      "Direction": "WB",
      "Date": "2020-10-11",
      "flow": 0.11696869851729819,
      "Latitude": "40.6478985",
      "Longitude": "-73.9241338"
    },
    {
      "SegmentID": "41667",
      "RoadwayName": "AVENUE U",
      "From": "East 71st Street",
      "To": "Veterans Avenue",
      "Direction": "EB",
      "Date": "2020-10-11",
      "flow": 0.03459637561779242,
      "Latitude": "40.6166869",
      "Longitude": "-73.9039399"
    },
    {
      "SegmentID": "41667",
      "RoadwayName": "AVENUE U",
      "From": "East 71st Street",
      "To": "Veterans Avenue",
      "Direction": "WB",
      "Date": "2020-10-11",
      "flow": 0.018121911037891267,
      "Latitude": "40.6166869",
      "Longitude": "-73.9039399"
    },
    {
      "SegmentID": "19550",
      "RoadwayName": "BAY RIDGE AVENUE",
      "From": "11th Avenue",
      "To": "12th Avenue",
      "Direction": "EB",
      "Date": "2020-10-11",
      "flow": 0.023064250411861616,
      "Latitude": "40.7444306",
      "Longitude": "-74.0084954"
    },
    {
      "SegmentID": "19550",
      "RoadwayName": "BAY RIDGE AVENUE",
      "From": "11th Avenue",
      "To": "12th Avenue",
      "Direction": "WB",
      "Date": "2020-10-11",
      "flow": 0.0032948929159802307,
      "Latitude": "40.7444306",
      "Longitude": "-74.0084954"
    },
    {
      "SegmentID": "20149",
      "RoadwayName": "BAY RIDGE AVENUE",
      "From": "18th Avenue",
      "To": "19th Avenue",
      "Direction": "EB",
      "Date": "2020-10-11",
      "flow": 0.018121911037891267,
      "Latitude": "40.620671",
      "Longitude": "-73.990414"
    },
    {
      "SegmentID": "132816",
      "RoadwayName": "BAYCHESTER AVENUE",
      "From": "Bay Plaza Boulevard",
      "To": "Hutchinson River Parkway",
      "Direction": "NB",
      "Date": "2020-10-11",
      "flow": 0.036243822075782535,
      "Latitude": "40.8670077",
      "Longitude": "-73.8306367"
    },
    {
      "SegmentID": "254353",
      "RoadwayName": "BEDFORD AVENUE",
      "From": "Lorimer Street",
      "To": "Union Avenue",
      "Direction": "EB",
      "Date": "2020-10-11",
      "flow": 0.09555189456342669,
      "Latitude": "40.7174046",
      "Longitude": "-73.9570004"
    },
    {
      "SegmentID": "27462",
      "RoadwayName": "BEDFORD AVENUE",
      "From": "Quentin Road",
      "To": "Avenue R",
      "Direction": "NB",
      "Date": "2020-10-11",
      "flow": 0.0214168039538715,
      "Latitude": "40.7174046",
      "Longitude": "-73.9570004"
    },
    {
      "SegmentID": "27462",
      "RoadwayName": "BEDFORD AVENUE",
      "From": "Quentin Road",
      "To": "Avenue R",
      "Direction": "SB",
      "Date": "2020-10-11",
      "flow": 0.06754530477759473,
      "Latitude": "40.7174046",
      "Longitude": "-73.9570004"
    },
    {
      "SegmentID": "176365",
      "RoadwayName": "BEDFORD PARK BOULEVARD",
      "From": "Grand Concourse",
      "To": "Briggs Avenue",
      "Direction": "NB",
      "Date": "2020-10-11",
      "flow": 0.0642504118616145,
      "Latitude": "40.8510934",
      "Longitude": "-73.9046308"
    },
    {
      "SegmentID": "176365",
      "RoadwayName": "BEDFORD PARK BOULEVARD",
      "From": "Grand Concourse",
      "To": "Briggs Avenue",
      "Direction": "SB",
      "Date": "2020-10-11",
      "flow": 0.07907742998352553,
      "Latitude": "40.8510934",
      "Longitude": "-73.9046308"
    },
    {
      "SegmentID": "154787",
      "RoadwayName": "BEDFORD PARK BOULEVARD",
      "From": "Grand Concourse",
      "To": "Briggs Avenue",
      "Direction": "NB",
      "Date": "2020-10-11",
      "flow": 0.1070840197693575,
      "Latitude": "40.8510934",
      "Longitude": "-73.9046308"
    },
    {
      "SegmentID": "154501",
      "RoadwayName": "BEDFORD PARK BOULEVARD",
      "From": "Grand Concourse",
      "To": "Briggs Avenue",
      "Direction": "SB",
      "Date": "2020-10-11",
      "flow": 0.1070840197693575,
      "Latitude": "40.8510934",
      "Longitude": "-73.9046308"
    },
    {
      "SegmentID": "148978",
      "RoadwayName": "BELL BOULEVARD",
      "From": "67th Avenue",
      "To": "67th Avenue",
      "Direction": "NB",
      "Date": "2020-10-11",
      "flow": 0.009884678747940691,
      "Latitude": "40.7267968",
      "Longitude": "-73.8532472"
    },
    {
      "SegmentID": "148980",
      "RoadwayName": "BELL BOULEVARD",
      "From": "67th Avenue",
      "To": "67th Avenue",
      "Direction": "SB",
      "Date": "2020-10-11",
      "flow": 0.008237232289950576,
      "Latitude": "40.7267968",
      "Longitude": "-73.8532472"
    },
    {
      "SegmentID": "8152",
      "RoadwayName": "BRIELLE AVENUE",
      "From": "Suffolk Avenue",
      "To": "Livingston Avenue",
      "Direction": "EB",
      "Date": "2020-10-11",
      "flow": 0.014827018121911038,
      "Latitude": "40.5989787",
      "Longitude": "-74.1230537"
    },
    {
      "SegmentID": "8152",
      "RoadwayName": "BRIELLE AVENUE",
      "From": "Suffolk Avenue",
      "To": "Livingston Avenue",
      "Direction": "WB",
      "Date": "2020-10-11",
      "flow": 0.008237232289950576,
      "Latitude": "40.5989787",
      "Longitude": "-74.1230537"
    },
    {
      "SegmentID": "147673",
      "RoadwayName": "BROADWAY",
      "From": "Van Cortlandt Park South",
      "To": "West 242nd Street",
      "Direction": "SB",
      "Date": "2020-10-11",
      "flow": 0.1186161449752883,
      "Latitude": "40.8020029",
      "Longitude": "-73.9679456"
    },
    {
      "SegmentID": "255653",
      "RoadwayName": "BROADWAY",
      "From": "Broadway/ 7 Avenue Line",
      "To": "Broadway/ 7 Avenue Line",
      "Direction": "SB",
      "Date": "2020-10-11",
      "flow": 0.032948929159802305,
      "Latitude": "40.8020029",
      "Longitude": "-73.9679456"
    },
    {
      "SegmentID": "158447",
      "RoadwayName": "BROADWAY",
      "From": "West 242nd Street",
      "To": "Van Cortlandt Park South",
      "Direction": "NB",
      "Date": "2020-10-11",
      "flow": 0.1416803953871499,
      "Latitude": "40.8020029",
      "Longitude": "-73.9679456"
    },
    {
      "SegmentID": "221955",
      "RoadwayName": "BROADWAY",
      "From": "West 260th Street",
      "To": "West 261st Street",
      "Direction": "NB",
      "Date": "2020-10-11",
      "flow": 0.29654036243822074,
      "Latitude": "40.8020029",
      "Longitude": "-73.9679456"
    },
    {
      "SegmentID": "221955",
      "RoadwayName": "BROADWAY",
      "From": "West 260th Street",
      "To": "West 261st Street",
      "Direction": "SB",
      "Date": "2020-10-11",
      "flow": 0.21746293245469522,
      "Latitude": "40.8020029",
      "Longitude": "-73.9679456"
    },
    {
      "SegmentID": "87808",
      "RoadwayName": "BRONXWOOD AVENUE",
      "From": "Mace Avenue",
      "To": "Allerton Avenue",
      "Direction": "NB",
      "Date": "2020-10-11",
      "flow": 0.019769357495881382,
      "Latitude": "40.8709169",
      "Longitude": "-73.8613921"
    },
    {
      "SegmentID": "87808",
      "RoadwayName": "BRONXWOOD AVENUE",
      "From": "Mace Avenue",
      "To": "Allerton Avenue",
      "Direction": "SB",
      "Date": "2020-10-11",
      "flow": 0.014827018121911038,
      "Latitude": "40.8709169",
      "Longitude": "-73.8613921"
    },
    {
      "SegmentID": "70364",
      "RoadwayName": "BROOK AVENUE",
      "From": "East 152nd Street",
      "To": "East 153rd Street",
      "Direction": "SB",
      "Date": "2020-10-11",
      "flow": 0.09555189456342669,
      "Latitude": "40.807555",
      "Longitude": "-73.9192429"
    },
    {
      "SegmentID": "9003976",
      "RoadwayName": "BURKE AVENUE",
      "From": "Yates Avenue",
      "To": "Bouck Avenue",
      "Direction": "EB",
      "Date": "2020-10-11",
      "flow": 0.057660626029654036,
      "Latitude": "40.8714348",
      "Longitude": "-73.8671748"
    },
    {
      "SegmentID": "9003976",
      "RoadwayName": "BURKE AVENUE",
      "From": "Yates Avenue",
      "To": "Bouck Avenue",
      "Direction": "WB",
      "Date": "2020-10-11",
      "flow": 0.0642504118616145,
      "Latitude": "40.8714348",
      "Longitude": "-73.8671748"
    },
    {
      "SegmentID": "47359",
      "RoadwayName": "BUSHWICK AVENUE",
      "From": "Cemetery Of Evergrns Boundary",
      "To": "Highland Boulevard",
      "Direction": "EB",
      "Date": "2020-10-11",
      "flow": 0.5963756177924218,
      "Latitude": "40.6815336",
      "Longitude": "-73.8943809"
    },
    {
      "SegmentID": "47359",
      "RoadwayName": "BUSHWICK AVENUE",
      "From": "Cemetery Of Evergrns Boundary",
      "To": "Highland Boulevard",
      "Direction": "WB",
      "Date": "2020-10-11",
      "flow": 0.7051070840197694,
      "Latitude": "40.6815336",
      "Longitude": "-73.8943809"
    },
    {
      "SegmentID": "9002977",
      "RoadwayName": "CALHOUN AVENUE",
      "From": "East 177th Street",
      "To": "Dewey Avenue",
      "Direction": "NB",
      "Date": "2020-10-11",
      "flow": 0.013179571663920923,
      "Latitude": "40.8363101",
      "Longitude": "-73.874253"
    },
    {
      "SegmentID": "9002977",
      "RoadwayName": "CALHOUN AVENUE",
      "From": "East 177th Street",
      "To": "Dewey Avenue",
      "Direction": "SB",
      "Date": "2020-10-11",
      "flow": 0.044481054365733116,
      "Latitude": "40.8363101",
      "Longitude": "-73.874253"
    },
    {
      "SegmentID": "28234",
      "RoadwayName": "CATON AVENUE",
      "From": "East 18th Street",
      "To": "St Pauls Place",
      "Direction": "EB",
      "Date": "2020-10-11",
      "flow": 0.15485996705107083,
      "Latitude": "40.6475964",
      "Longitude": "-73.9733121"
    },
    {
      "SegmentID": "28234",
      "RoadwayName": "CATON AVENUE",
      "From": "East 18th Street",
      "To": "St Pauls Place",
      "Direction": "WB",
      "Date": "2020-10-11",
      "flow": 0.1070840197693575,
      "Latitude": "40.6475964",
      "Longitude": "-73.9733121"
    },
    {
      "SegmentID": "160467",
      "RoadwayName": "CLOVE ROAD",
      "From": "Narrows Road North",
      "To": "Staten Island Expressway",
      "Direction": "NB",
      "Date": "2020-10-11",
      "flow": 0.16639209225700163,
      "Latitude": "40.6139911",
      "Longitude": "-74.1012626"
    },