{
  "1:00-2:00AM": [
    {
      "SegmentID": "152665",
      "RoadwayName": "ATLANTIC AVENUE",
      "From": "Classon Avenue",
      "To": "Franklin Avenue Shuttle Line",
      "Direction": "WB",
      "Date": "2019-11-02",
      "flow": 0.14839319470699433,
      "Latitude": "40.688873",
      "Longitude": "-73.96007"
    },
    {
      "SegmentID": "108866",
      "RoadwayName": "Bainbridge Avenue",
      "From": "East 213 Street",
      "To": "Jerome Avenue",
      "Direction": "NB",
      "Date": "2019-11-02",
      "flow": 0.005198487712665407,
      "Latitude": "40.8665331",
      "Longitude": "-73.8981713"
    },
    {
      "SegmentID": "108866",
      "RoadwayName": "Bainbrige Avenue",
      "From": "East 213 Street",
      "To": "Jerome Avenue",
      "Direction": "SB",
      "Date": "2019-11-02",
      "flow": 0.013232514177693762,
      "Latitude": "40.8665331",
      "Longitude": "-73.8981713"
    },
    {
      "SegmentID": "88826",
      "RoadwayName": "Baychester Avenue",
      "From": "Tilotson Avenue",
      "To": "Dyre Avenue Line",
      "Direction": "NB",
      "Date": "2019-11-02",
      "flow": 0.12003780718336483,
      "Latitude": "40.8699949",
      "Longitude": "-73.8458916"
    },
    {
      "SegmentID": "88826",
      "RoadwayName": "Baychester Avenue",
      "From": "Tilotson Avenue",
      "To": "Dyre Avenue Line",
      "Direction": "SB",
      "Date": "2019-11-02",
      "flow": 0.05103969754253308,
      "Latitude": "40.8699949",
      "Longitude": "-73.8458916"
    },
    {
      "SegmentID": "88298",
      "RoadwayName": "Boston Road",
      "From": "Fish Avenue",
      "To": "Seymour Avenue",
      "Direction": "EB",
      "Date": "2019-11-02",
      "flow": 0.11720226843100189,
      "Latitude": "40.8673321",
      "Longitude": "-73.8600312"
    },
    {
      "SegmentID": "88298",
      "RoadwayName": "Boston Road",
      "From": "Fish Avenue",
      "To": "Seymour Avenue",
      "Direction": "WB",
      "Date": "2019-11-02",
      "flow": 0.08223062381852551,
      "Latitude": "40.8673321",
      "Longitude": "-73.8600312"
    },
    {
      "SegmentID": "146329",
      "RoadwayName": "Boston Road",
      "From": "Connector",
      "To": "Connector",
      "Direction": "WB",
      "Date": "2019-11-02",
      "flow": 0.05434782608695652,
      "Latitude": "40.8673321",
      "Longitude": "-73.8600312"
    },
    {
      "SegmentID": "146328",
      "RoadwayName": "Boston Road",
      "From": "Connector",
      "To": "Connector",
      "Direction": "EB",
      "Date": "2019-11-02",
      "flow": 0.058128544423440454,
      "Latitude": "40.8673321",
      "Longitude": "-73.8600312"
    },
    {
      "SegmentID": "81165",
      "RoadwayName": "Broadway",
      "From": "West 259 Street",
      "To": "West 260 Street",
      "Direction": "NB",
      "Date": "2019-11-02",
      "flow": 0.09168241965973535,
      "Latitude": "40.8028269",
      "Longitude": "-73.9675054"
    },
    {
      "SegmentID": "81165",
      "RoadwayName": "Broadway",
      "From": "West 259 Street",
      "To": "West 260 Street",
      "Direction": "SB",
      "Date": "2019-11-02",
      "flow": 0.07372400756143667,
      "Latitude": "40.8028269",
      "Longitude": "-73.9675054"
    },
    {
      "SegmentID": "134084",
      "RoadwayName": "Broadway",
      "From": "Dead End",
      "To": "Dead End",
      "Direction": "SB",
      "Date": "2019-11-02",
      "flow": 0.04914933837429111,
      "Latitude": "40.8028269",
      "Longitude": "-73.9675054"
    },
    {
      "SegmentID": "134083",
      "RoadwayName": "Broadway",
      "From": "Van Cortlandt Park South",
      "To": "Dead End",
      "Direction": "NB",
      "Date": "2019-11-02",
      "flow": 0.08459357277882798,
      "Latitude": "40.8028269",
      "Longitude": "-73.9675054"
    },
    {
      "SegmentID": "255657",
      "RoadwayName": "Broadway",
      "From": "Broadway/ 7 Avenue Line",
      "To": "Broadway/ 7 Avenue Line",
      "Direction": "SB",
      "Date": "2019-11-02",
      "flow": 0.036389413988657845,
      "Latitude": "40.8028269",
      "Longitude": "-73.9675054"
    },
    {
      "SegmentID": "88880",
      "RoadwayName": "Bronx Boulevard",
      "From": "Bronx River Greenway",
      "To": "Dead End",
      "Direction": "NB",
      "Date": "2019-11-02",
      "flow": 0.03497164461247637,
      "Latitude": "40.8870077",
      "Longitude": "-73.8653065"
    },
    {
      "SegmentID": "87447",
      "RoadwayName": "Bronx Park East",
      "From": "Maran Place",
      "To": "Lydig Avenue",
      "Direction": "NB",
      "Date": "2019-11-02",
      "flow": 0.054820415879017016,
      "Latitude": "40.8489744",
      "Longitude": "-73.8683841"
    },
    {
      "SegmentID": "87447",
      "RoadwayName": "Bronx Park East",
      "From": "Maran Place",
      "To": "Lydig Avenue",
      "Direction": "SB",
      "Date": "2019-11-02",
      "flow": 0.1285444234404537,
      "Latitude": "40.8489744",
      "Longitude": "-73.8683841"
    },
    {
      "SegmentID": "29843",
      "RoadwayName": "BROOKLYN AVENUE",
      "From": "St Johns Place",
      "To": "Lincoln Place",
      "Direction": "SB",
      "Date": "2019-11-02",
      "flow": 0.07183364839319471,
      "Latitude": "40.6313796",
      "Longitude": "-73.9416905"
    },
    {
      "SegmentID": "9003959",
      "RoadwayName": "Burke Avenue",
      "From": "Yates Avenue",
      "To": "Dead End",
      "Direction": "EB",
      "Date": "2019-11-02",
      "flow": 0.0165406427221172,
      "Latitude": "40.8714348",
      "Longitude": "-73.8671748"
    },
    {
      "SegmentID": "9003959",
      "RoadwayName": "Burke Avenue",
      "From": "Yates Avenue",
      "To": "Dead End",
      "Direction": "WB",
      "Date": "2019-11-02",
      "flow": 0.036862003780718335,
      "Latitude": "40.8714348",
      "Longitude": "-73.8671748"
    },
    {
      "SegmentID": "9002975",
      "RoadwayName": "Calhoun Avenue",
      "From": "Dead End",
      "To": "Dead End",
      "Direction": "NB",
      "Date": "2019-11-02",
      "flow": 0,
      "Latitude": "40.8401745",
      "Longitude": "-73.82344175"
    },
    {
      "SegmentID": "9002975",
      "RoadwayName": "Calhoun Avenue",
      "From": "Dead End",
      "To": "Dead End",
      "Direction": "SB",
      "Date": "2019-11-02",
      "flow": 0.005671077504725898,
      "Latitude": "40.8401745",
      "Longitude": "-73.82344175"
    },
    {
      "SegmentID": "95712",
      "RoadwayName": "Conner Street",
      "From": "Hollers Avenue",
      "To": "Boston Road",
      "Direction": "NB",
      "Date": "2019-11-02",
      "flow": 0.16398865784499056,
      "Latitude": "40.8887386",
      "Longitude": "-73.8168994"
    },
    {
      "SegmentID": "95712",
      "RoadwayName": "Conner Street",
      "From": "Hollers Avenue",
      "To": "Boston Road",
      "Direction": "SB",
      "Date": "2019-11-02",
      "flow": 0.10633270321361059,
      "Latitude": "40.8887386",
      "Longitude": "-73.8168994"
    },
    {
      "SegmentID": "188574",
      "RoadwayName": "East 133 Street",
      "From": "Bruckner Boulevard",
      "To": "Bruckner Boulevard",
      "Direction": "EB",
      "Date": "2019-11-02",
      "flow": 0.057655954631379965,
      "Latitude": "40.8301747",
      "Longitude": "-73.8375135"
    },
    {
      "SegmentID": "174149",
      "RoadwayName": "East 161 Street",
      "From": "Connector",
      "To": "Dead end",
      "Direction": "EB",
      "Date": "2019-11-02",
      "flow": 0.0500945179584121,
      "Latitude": "40.7516976",
      "Longitude": "-73.9997739"
    },
    {
      "SegmentID": "174149",
      "RoadwayName": "East 161 Street",
      "From": "Connector",
      "To": "Dead end",
      "Direction": "WB",
      "Date": "2019-11-02",
      "flow": 0.09310018903591682,
      "Latitude": "40.7516976",
      "Longitude": "-73.9997739"
    },
    {
      "SegmentID": "147472",
      "RoadwayName": "East 161 Street",
      "From": "Grand Concourse",
      "To": "Dead End",
      "Direction": "WB",
      "Date": "2019-11-02",
      "flow": 0.06568998109640832,
      "Latitude": "40.8510934",
      "Longitude": "-73.9046308"
    },
    {
      "SegmentID": "147471",
      "RoadwayName": "East 161 Street",
      "From": "Grand Concourse",
      "To": "Dead End",
      "Direction": "EB",
      "Date": "2019-11-02",
      "flow": 0.05954631379962193,
      "Latitude": "40.8510934",
      "Longitude": "-73.9046308"
    },
    {
      "SegmentID": "77424",
      "RoadwayName": "East 163 Street",
      "From": "Rogers Place",
      "To": "Intervale Avenue",
      "Direction": "EB",
      "Date": "2019-11-02",
      "flow": 0.07703213610586011,
      "Latitude": "40.8237575",
      "Longitude": "-73.8976172"
    },
    {
      "SegmentID": "77424",
      "RoadwayName": "East 163 Street",
      "From": "Rogers Place",
      "To": "Intervale Avenue",
      "Direction": "WB",
      "Date": "2019-11-02",
      "flow": 0.08364839319470699,
      "Latitude": "40.8237575",
      "Longitude": "-73.8976172"
    },
    {
      "SegmentID": "174289",
      "RoadwayName": "East 167 Street",
      "From": "Dead End",
      "To": "Dead End",
      "Direction": "EB",
      "Date": "2019-11-02",
      "flow": 0.029773156899810964,
      "Latitude": "40.8401745",
      "Longitude": "-73.82344175"
    },
    {
      "SegmentID": "174289",
      "RoadwayName": "East 167 Street",
      "From": "Dead End",
      "To": "Dead End",
      "Direction": "WB",
      "Date": "2019-11-02",
      "flow": 0.035916824196597356,
      "Latitude": "40.8401745",
      "Longitude": "-73.82344175"
    },
    {
      "SegmentID": "116598",
      "RoadwayName": "East 222 Street",
      "From": "Wickham Avenue",
      "To": "Bruner Avenue",
      "Direction": "EB",
      "Date": "2019-11-02",
      "flow": 0.05056710775047259,
      "Latitude": "40.8607479",
      "Longitude": "-73.8352367"
    },
    {
      "SegmentID": "116598",
      "RoadwayName": "East 222 Street",
      "From": "Wickham Avenue",
      "To": "Bruner Avenue",
      "Direction": "WB",
      "Date": "2019-11-02",
      "flow": 0.06190926275992439,
      "Latitude": "40.8607479",
      "Longitude": "-73.8352367"
    },
    {
      "SegmentID": "89274",
      "RoadwayName": "East 241 Street",
      "From": "Bronx Boulevard",
      "To": "Carpenter Avenue",
      "Direction": "EB",
      "Date": "2019-11-02",
      "flow": 0.055293005671077505,
      "Latitude": "40.8870077",
      "Longitude": "-73.8653065"
    },
    {
      "SegmentID": "89274",
      "RoadwayName": "East 241 Street",
      "From": "Bronx Boulevard",
      "To": "Carpenter Avenue",
      "Direction": "WB",
      "Date": "2019-11-02",
      "flow": 0.057655954631379965,
      "Latitude": "40.8870077",
      "Longitude": "-73.8653065"
    },
    {
      "SegmentID": "116587",
      "RoadwayName": "East Gun Hill Road",
      "From": "Givan Avenue",
      "To": "Pearsall Avenue",
      "Direction": "EB",
      "Date": "2019-11-02",
      "flow": 0.05860113421550094,
      "Latitude": "40.8640107",
      "Longitude": "-73.8339775"
    },
    {
      "SegmentID": "116587",
      "RoadwayName": "East Gun Hill Road",
      "From": "Givan Avenue",
      "To": "Pearsall Avenue",
      "Direction": "WB",
      "Date": "2019-11-02",
      "flow": 0.08364839319470699,
      "Latitude": "40.8640107",
      "Longitude": "-73.8339775"
    },
    {
      "SegmentID": "178395",
      "RoadwayName": "East Gun Hill Road",
      "From": "Bronx River Parkway",
      "To": "Dead End",
      "Direction": "EB",
      "Date": "2019-11-02",
      "flow": 0.15879017013232513,
      "Latitude": "40.8640107",
      "Longitude": "-73.8339775"
    },
    {
      "SegmentID": "178395",
      "RoadwayName": "East Gun Hill Road",
      "From": "Bronx River Parkway",
      "To": "Dead End",
      "Direction": "WB",
      "Date": "2019-11-02",
      "flow": 0.22400756143667297,
      "Latitude": "40.8640107",
      "Longitude": "-73.8339775"
    },
    {
      "SegmentID": "78404",
      "RoadwayName": "East Tremont Avenue",
      "From": "Anthony Avenue",
      "To": "Dead end",
      "Direction": "EB",
      "Date": "2019-11-02",
      "flow": 0.07136105860113422,
      "Latitude": "40.8418573",
      "Longitude": "-73.8583296"
    },
    {
      "SegmentID": "78404",
      "RoadwayName": "East Tremont Avenue",
      "From": "Anthony Avenue",
      "To": "Dead End",
      "Direction": "WB",
      "Date": "2019-11-02",
      "flow": 0.13090737240075614,
      "Latitude": "40.8418573",
      "Longitude": "-73.8583296"
    },
    {
      "SegmentID": "93653",
      "RoadwayName": "East Tremont Avenue",
      "From": "Harding Avenue",
      "To": "Silver Beach Place",
      "Direction": "NB",
      "Date": "2019-11-02",
      "flow": 0.008979206049149339,
      "Latitude": "40.8418573",
      "Longitude": "-73.8583296"
    },
    {
      "SegmentID": "93653",
      "RoadwayName": "East Tremont Avenue",
      "From": "Harding Avenue",
      "To": "Silver Beach Place",
      "Direction": "SB",
      "Date": "2019-11-02",
      "flow": 0.004725897920604915,
      "Latitude": "40.8418573",
      "Longitude": "-73.8583296"
    },
    {
      "SegmentID": "251949",
      "RoadwayName": "Exterior Street",
      "From": "Dead End",
      "To": "Dead End",
      "Direction": "NB",
      "Date": "2019-11-02",
      "flow": 1,
      "Latitude": "40.8401745",
      "Longitude": "-73.82344175"
    },
    {
      "SegmentID": "251949",
      "RoadwayName": "Exterior Street",
      "From": "Dead End",
      "To": "Dead End",
      "Direction": "SB",
      "Date": "2019-11-02",
      "flow": 0.4995274102079395,
      "Latitude": "40.8401745",
      "Longitude": "-73.82344175"
    },
    {
      "SegmentID": "29461",
      "RoadwayName": "Fulton Street",
      "From": "Classon Avenue",
      "To": "Claver Place",
      "Direction": "EB",
      "Date": "2019-11-02",
      "flow": 0.11342155009451796,
      "Latitude": "40.7101857",
      "Longitude": "-74.0076638"
    },
    {
      "SegmentID": "29461",
      "RoadwayName": "FULTON STREET",
      "From": "Classon Avenue",
      "To": "Claver Place",
      "Direction": "WB",
      "Date": "2019-11-02",
      "flow": 0.08364839319470699,
      "Latitude": "40.7101857",
      "Longitude": "-74.0076638"
    },
    {
      "SegmentID": "176284",
      "RoadwayName": "Grand Concourse",
      "From": "Concourse Line",
      "To": "Concourse Line",
      "Direction": "NB",
      "Date": "2019-11-02",
      "flow": 0.07088846880907372,
      "Latitude": "40.8510934",
      "Longitude": "-73.9046308"
    },
    {
      "SegmentID": "176284",
      "RoadwayName": "Grand Concourse",
      "From": "Concourse Line",
      "To": "Concourse Line",
      "Direction": "SB",
      "Date": "2019-11-02",
      "flow": 0.04395085066162571,
      "Latitude": "40.8510934",
      "Longitude": "-73.9046308"
    },
    {
      "SegmentID": "148196",
      "RoadwayName": "Grand Concourse",
      "From": "East 187 Street",
      "To": "Connector",
      "Direction": "SB",
      "Date": "2019-11-02",
      "flow": 0.0500945179584121,
      "Latitude": "40.8510934",
      "Longitude": "-73.9046308"
    },
    {
      "SegmentID": "148195",
      "RoadwayName": "Grand Concourse",
      "From": "East 187 Street",
      "To": "Connector",
      "Direction": "NB",
      "Date": "2019-11-02",
      "flow": 0.05434782608695652,
      "Latitude": "40.8510934",
      "Longitude": "-73.9046308"
    },
    {
      "SegmentID": "9008598",
      "RoadwayName": "Harrod Avenue",
      "From": "Dead End",
      "To": "Dead End",
      "Direction": "NB",
      "Date": "2019-11-02",
      "flow": 0.019376181474480152,
      "Latitude": "40.8401745",
      "Longitude": "-73.82344175"
    },
    {
      "SegmentID": "9008598",
      "RoadwayName": "Harrod Avenue",
      "From": "Dead End",
      "To": "Dead End",
      "Direction": "SB",
      "Date": "2019-11-02",
      "flow": 0.017958412098298678,
      "Latitude": "40.8401745",
      "Longitude": "-73.82344175"
    },
    {
      "SegmentID": "9009984",
      "RoadwayName": "Jerome Avenue",
      "From": "East 213 Street",
      "To": "Jerome Avenue Line",
      "Direction": "NB",
      "Date": "2019-11-02",
      "flow": 0.05387523629489603,
      "Latitude": "40.8665331",
      "Longitude": "-73.8981713"
    },
    {
      "SegmentID": "9009984",
      "RoadwayName": "Jerome Avenue",
      "From": "East 213 Street",
      "To": "Jerome Avenue Line",
      "Direction": "SB",
      "Date": "2019-11-02",
      "flow": 0.045841209829867675,
      "Latitude": "40.8665331",
      "Longitude": "-73.8981713"
    },
    {
      "SegmentID": "77328",
      "RoadwayName": "Longwood Avenue",
      "From": "Prospect Avenue",
      "To": "Hewitt Place",
      "Direction": "EB",
      "Date": "2019-11-02",
      "flow": 0.01606805293005671,
      "Latitude": "40.665414",
      "Longitude": "-73.992872"
    },
    {
      "SegmentID": "77328",
      "RoadwayName": "Longwood Avenue",
      "From": "Prospect Avenue",
      "To": "Hewitt Place",
      "Direction": "WB",
      "Date": "2019-11-02",
      "flow": 0.017485822306238186,
      "Latitude": "40.665414",
      "Longitude": "-73.992872"
    },
    {
      "SegmentID": "141740",
      "RoadwayName": "Mosholu Parkway",
      "From": "Dead End",
      "To": "Major Deegan Expwy Et 12 Nb",
      "Direction": "SB",
      "Date": "2019-11-02",
      "flow": 0.09262759924385633,
      "Latitude": "40.8792799",
      "Longitude": "-73.8852693"
    },
    {
      "SegmentID": "176737",
      "RoadwayName": "Mosholu Parkway",
      "From": "Dead End",
      "To": "Dead End",
      "Direction": "NB",
      "Date": "2019-11-02",
      "flow": 0.07939508506616257,
      "Latitude": "40.8792799",
      "Longitude": "-73.8852693"
    },
    {
      "SegmentID": "89614",
      "RoadwayName": "Nereid Avenue",
      "From": "Hill Avenue",
      "To": "Monticello Avenue",
      "Direction": "EB",
      "Date": "2019-11-02",
      "flow": 0.013232514177693762,
      "Latitude": "40.8935705",
      "Longitude": "-73.84011"
    },
    {
      "SegmentID": "89614",
      "RoadwayName": "Nereid Avenue",
      "From": "Hill Avenue",
      "To": "Monticello Avenue",
      "Direction": "WB",
      "Date": "2019-11-02",
      "flow": 0.020793950850661626,
      "Latitude": "40.8935705",
      "Longitude": "-73.84011"
    },
    {
      "SegmentID": "9008830",
      "RoadwayName": "Pelham Parkway",
      "From": "Dead End",
      "To": "Dead End",
      "Direction": "EB",
      "Date": "2019-11-02",
      "flow": 0.11058601134215501,
      "Latitude": "40.857229",
      "Longitude": "-73.8676281"
    },
    {
      "SegmentID": "9008826",
      "RoadwayName": "Pelham Parkway",
      "From": "Dead End",
      "To": "Dead End",
      "Direction": "WB",
      "Date": "2019-11-02",
      "flow": 0.10916824196597354,
      "Latitude": "40.857229",
      "Longitude": "-73.8676281"
    },
    {
      "SegmentID": "9003698",
      "RoadwayName": "Pelham Parkway North",
      "From": "Dead End",
      "To": "Dead End",
      "Direction": "WB",
      "Date": "2019-11-02",
      "flow": 0.02504725897920605,
      "Latitude": "40.8401745",
      "Longitude": "-73.82344175"
    },
    {
      "SegmentID": "87638",
      "RoadwayName": "Pelham Parkway South",
      "From": "Wallace Avenue",
      "To": "Barnes Avenue",
      "Direction": "EB",
      "Date": "2019-11-02",
      "flow": 0.08742911153119093,
      "Latitude": "40.8563458",
      "Longitude": "-73.8385504"
    },
    {
      "SegmentID": "194263",
      "RoadwayName": "Pelham Parkway",
      "From": "Boston Road",
      "To": "White Plains Road",
      "Direction": "EB",
      "Date": "2019-11-02",
      "flow": 0.14555765595463138,
      "Latitude": "40.857229",
      "Longitude": "-73.8676281"
    },
    {
      "SegmentID": "193983",
      "RoadwayName": "Pelham Parkway",
      "From": "Boston Road",
      "To": "White Plains Road",
      "Direction": "WB",
      "Date": "2019-11-02",
      "flow": 0.11578449905482041,
      "Latitude": "40.857229",
      "Longitude": "-73.8676281"
    },
    {
      "SegmentID": "178366",
      "RoadwayName": "Pelham Parkway North",
      "From": "Dead End",
      "To": "White Plains Road",
      "Direction": "WB",
      "Date": "2019-11-02",
      "flow": 0,
      "Latitude": "40.8401745",
      "Longitude": "-73.82344175"
    },
    {
      "SegmentID": "194327",
      "RoadwayName": "Pelham Parkway South",
      "From": "Bolton Street",
      "To": "White Plains Road",
      "Direction": "EB",
      "Date": "2019-11-02",
      "flow": 0.08459357277882798,
      "Latitude": "40.8563458",
      "Longitude": "-73.8385504"
    },
    {
      "SegmentID": "93887",
      "RoadwayName": "Pennyfield Avenue",
      "From": "Mullen Place",
      "To": "Harding Avenue",
      "Direction": "NB",
      "Date": "2019-11-02",
      "flow": 0.02504725897920605,
      "Latitude": "43.1560584",
      "Longitude": "-77.6332169"
    },
    {
      "SegmentID": "93887",
      "RoadwayName": "Pennyfield Avenue",
      "From": "Mullen Place",
      "To": "Harding Avenue",
      "Direction": "SB",
      "Date": "2019-11-02",
      "flow": 0.024102079395085067,
      "Latitude": "43.1560584",
      "Longitude": "-77.6332169"
    },
    {
      "SegmentID": "89600",
      "RoadwayName": "Pitman Avenue",
      "From": "Wilder Avenue",
      "To": "Murdock Avenue",
      "Direction": "EB",
      "Date": "2019-11-02",
      "flow": 0.04206049149338374,
      "Latitude": "40.89581",
      "Longitude": "-73.8428862"
    },
    {
      "SegmentID": "89600",
      "RoadwayName": "Pitman Avenue",
      "From": "Wilder Avenue",
      "To": "Murdock Avenue",
      "Direction": "WB",
      "Date": "2019-11-02",
      "flow": 0.054820415879017016,
      "Latitude": "40.89581",
      "Longitude": "-73.8428862"
    },
    {
      "SegmentID": "179513",
      "RoadwayName": "Randall Avenue",
      "From": "Dead End",
      "To": "Cross Bronx Expressway",
      "Direction": "NB",
      "Date": "2019-11-02",
      "flow": 0.13468809073724008,
      "Latitude": "40.8401745",
      "Longitude": "-73.82344175"
    },
    {
      "SegmentID": "179513",
      "RoadwayName": "Randall Avenue",
      "From": "Dead End",
      "To": "Cross Bronx Expressway",
      "Direction": "SB",
      "Date": "2019-11-02",
      "flow": 0.21361058601134217,
      "Latitude": "40.8401745",
      "Longitude": "-73.82344175"
    },
    {
      "SegmentID": "109429",
      "RoadwayName": "Roosevelt Avenue",
      "From": "57 Street",
      "To": "58 Street",
      "Direction": "EB",
      "Date": "2019-11-02",
      "flow": 0.13043478260869565,
      "Latitude": "40.7582939",
      "Longitude": "-73.8342154"
    },
    {
      "SegmentID": "109429",
      "RoadwayName": "Roosevelt Avenue",
      "From": "57 Street",
      "To": "58 Street",
      "Direction": "WB",
      "Date": "2019-11-02",
      "flow": 0.10633270321361059,
      "Latitude": "40.7582939",
      "Longitude": "-73.8342154"
    },
    {
      "SegmentID": "146666",
      "RoadwayName": "Southern Boulevard",
      "From": "Dead End",
      "To": "East Fordham Road",
      "Direction": "NB",
      "Date": "2019-11-02",
      "flow": 0.048204158790170135,
      "Latitude": "40.8101526",
      "Longitude": "-73.9070982"
    },
    {
      "SegmentID": "154724",
      "RoadwayName": "Southern Boulevard",
      "From": "East Fordham Road",
      "To": "Dead End",
      "Direction": "SB",
      "Date": "2019-11-02",
      "flow": 0.07372400756143667,
      "Latitude": "40.8101526",
      "Longitude": "-73.9070982"
    },
    {
      "SegmentID": "9001821",
      "RoadwayName": "St Anns Avenue",
      "From": "Dead End",
      "To": "East 156 Street",
      "Direction": "NB",
      "Date": "2019-11-02",
      "flow": 0.04253308128544423,
      "Latitude": "40.59127905",
      "Longitude": "-74.09666133"
    },
    {
      "SegmentID": "9001821",
      "RoadwayName": "St Anns Avenue",
      "From": "Dead End",
      "To": "East 156 Street",
      "Direction": "SB",
      "Date": "2019-11-02",
      "flow": 0.019376181474480152,
      "Latitude": "40.59127905",
      "Longitude": "-74.09666133"
    },
    {
      "SegmentID": "178549",
      "RoadwayName": "Stillwell Avenue",
      "From": "Rhinelander Avenue",
      "To": "Pelham Parkway South",
      "Direction": "NB",
      "Date": "2019-11-02",
      "flow": 0.021266540642722116,
      "Latitude": "40.5870044",
      "Longitude": "-73.983419"
    },
    {
      "SegmentID": "178549",
      "RoadwayName": "Stillwell Avenue",
      "From": "Rhinelander Avenue",
      "To": "Pelham Parkway South",
      "Direction": "SB",
      "Date": "2019-11-02",
      "flow": 0.018431001890359167,
      "Latitude": "40.5870044",
      "Longitude": "-73.983419"
    },
    {
      "SegmentID": "113476",
      "RoadwayName": "Webster Avenue",
      "From": "Clay Avenue",
      "To": "East Mt Eden Avenue",
      "Direction": "NB",
      "Date": "2019-11-02",
      "flow": 0.139413988657845,
      "Latitude": "40.8301832",
      "Longitude": "-73.9108058"
    },
    {
      "SegmentID": "113476",
      "RoadwayName": "Webster Avenue",
      "From": "Clay Avenue",
      "To": "East Mt Eden Avenue",
      "Direction": "SB",
      "Date": "2019-11-02",
      "flow": 0.16351606805293006,
      "Latitude": "40.8301832",
      "Longitude": "-73.9108058"
    },
    {
      "SegmentID": "176295",
      "RoadwayName": "Webster Avenue",
      "From": "East 189 Street",
      "To": "East Fordham Road",
      "Direction": "NB",
      "Date": "2019-11-02",
      "flow": 0.14603024574669188,
      "Latitude": "40.8301832",
      "Longitude": "-73.9108058"
    },
    {
      "SegmentID": "176295",
      "RoadwayName": "Webster Avenue",
      "From": "East 189 Street",
      "To": "East Fordham Road",
      "Direction": "SB",
      "Date": "2019-11-02",
      "flow": 0.07986767485822306,
      "Latitude": "40.8301832",
      "Longitude": "-73.9108058"
    },
    {
      "SegmentID": "107183",
      "RoadwayName": "Mosholu Parkway",
      "From": "Grand Concourse",
      "To": "Bike Path",
      "Direction": "NB",
      "Date": "2019-11-02",
      "flow": 0.055765595463137994,
      "Latitude": "40.8792799",
      "Longitude": "-73.8852693"
    },
    {
      "SegmentID": "107183",
      "RoadwayName": "Mosholu Parkway",
      "From": "Grand Concourse",
      "To": "Bike Path",
      "Direction": "SB",
      "Date": "2019-11-02",
      "flow": 0.07136105860113422,
      "Latitude": "40.8792799",
      "Longitude": "-73.8852693"
    },
    {
      "SegmentID": "89398",
      "RoadwayName": "White Plains Road",
      "From": "St Ouen Street",
      "To": "Penfield Street",
      "Direction": "NB",
      "Date": "2019-11-02",
      "flow": 0.03213610586011342,
      "Latitude": "40.8573681",
      "Longitude": "-73.8676146"
    },
    {
      "SegmentID": "89398",
      "RoadwayName": "White Plains Road",
      "From": "St Ouen Street",
      "To": "Penfield Street",
      "Direction": "SB",
      "Date": "2019-11-02",
      "flow": 0.05718336483931947,
      "Latitude": "40.8573681",
      "Longitude": "-73.8676146"
    }
  ],
  "2:00-3:00AM": [
    {
      "SegmentID": "152665",
      "RoadwayName": "ATLANTIC AVENUE",
      "From": "Classon Avenue",
      "To": "Franklin Avenue Shuttle Line",
      "Direction": "WB",
      "Date": "2019-11-02",
      "flow": 0.18419415059116365,
      "Latitude": "40.688873",
      "Longitude": "-73.96007"
    },
    {
      "SegmentID": "108866",
      "RoadwayName": "Bainbridge Avenue",
      "From": "East 213 Street",
      "To": "Jerome Avenue",
      "Direction": "NB",
      "Date": "2019-11-02",
      "flow": 0.0074673304293715,
      "Latitude": "40.8665331",
      "Longitude": "-73.8981713"
    },
    {
      "SegmentID": "108866",
      "RoadwayName": "Bainbrige Avenue",
      "From": "East 213 Street",
      "To": "Jerome Avenue",
      "Direction": "SB",
      "Date": "2019-11-02",
      "flow": 0.010578718108276292,
      "Latitude": "40.8665331",
      "Longitude": "-73.8981713"
    },
    {
      "SegmentID": "88826",
      "RoadwayName": "Baychester Avenue",
      "From": "Tilotson Avenue",
      "To": "Dyre Avenue Line",
      "Direction": "NB",
      "Date": "2019-11-02",
      "flow": 0.11636589919103921,
      "Latitude": "40.8699949",
      "Longitude": "-73.8458916"
    },
    {
      "SegmentID": "88826",
      "RoadwayName": "Baychester Avenue",
      "From": "Tilotson Avenue",
      "To": "Dyre Avenue Line",
      "Direction": "SB",
      "Date": "2019-11-02",
      "flow": 0.03360298693217175,
      "Latitude": "40.8699949",
      "Longitude": "-73.8458916"
    },
    {
      "SegmentID": "88298",
      "RoadwayName": "Boston Road",
      "From": "Fish Avenue",
      "To": "Seymour Avenue",
      "Direction": "EB",
      "Date": "2019-11-02",
      "flow": 0.11698817672682016,
      "Latitude": "40.8673321",
      "Longitude": "-73.8600312"
    },
    {
      "SegmentID": "88298",
      "RoadwayName": "Boston Road",
      "From": "Fish Avenue",
      "To": "Seymour Avenue",
      "Direction": "WB",
      "Date": "2019-11-02",
      "flow": 0.07716241443683883,
      "Latitude": "40.8673321",
      "Longitude": "-73.8600312"
    },
    {
      "SegmentID": "146329",
      "RoadwayName": "Boston Road",
      "From": "Connector",
      "To": "Connector",
      "Direction": "WB",
      "Date": "2019-11-02",
      "flow": 0.04667081518357187,
      "Latitude": "40.8673321",
      "Longitude": "-73.8600312"
    },
    {
      "SegmentID": "146328",
      "RoadwayName": "Boston Road",
      "From": "Connector",
      "To": "Connector",
      "Direction": "EB",
      "Date": "2019-11-02",
      "flow": 0.03609209707529558,
      "Latitude": "40.8673321",
      "Longitude": "-73.8600312"
    },
    {
      "SegmentID": "81165",
      "RoadwayName": "Broadway",
      "From": "West 259 Street",
      "To": "West 260 Street",
      "Direction": "NB",
      "Date": "2019-11-02",
      "flow": 0.09085252022401992,
      "Latitude": "40.8028269",
      "Longitude": "-73.9675054"
    },
    {
      "SegmentID": "81165",
      "RoadwayName": "Broadway",
      "From": "West 259 Street",
      "To": "West 260 Street",
      "Direction": "SB",
      "Date": "2019-11-02",
      "flow": 0.07902924704418171,
      "Latitude": "40.8028269",
      "Longitude": "-73.9675054"
    },
    {
      "SegmentID": "134084",
      "RoadwayName": "Broadway",
      "From": "Dead End",
      "To": "Dead End",
      "Direction": "SB",
      "Date": "2019-11-02",
      "flow": 0.053515868077162417,
      "Latitude": "40.8028269",
      "Longitude": "-73.9675054"
    },
    {
      "SegmentID": "134083",
      "RoadwayName": "Broadway",
      "From": "Van Cortlandt Park South",
      "To": "Dead End",
      "Direction": "NB",
      "Date": "2019-11-02",
      "flow": 0.07529558182949596,
      "Latitude": "40.8028269",
      "Longitude": "-73.9675054"
    },
    {
      "SegmentID": "255657",
      "RoadwayName": "Broadway",
      "From": "Broadway/ 7 Avenue Line",
      "To": "Broadway/ 7 Avenue Line",
      "Direction": "SB",
      "Date": "2019-11-02",
      "flow": 0.028002489110143122,
      "Latitude": "40.8028269",
      "Longitude": "-73.9675054"
    },
    {
      "SegmentID": "88880",
      "RoadwayName": "Bronx Boulevard",
      "From": "Bronx River Greenway",
      "To": "Dead End",
      "Direction": "NB",
      "Date": "2019-11-02",
      "flow": 0.03982576228998133,
      "Latitude": "40.8870077",
      "Longitude": "-73.8653065"
    },
    {
      "SegmentID": "87447",
      "RoadwayName": "Bronx Park East",
      "From": "Maran Place",
      "To": "Lydig Avenue",
      "Direction": "NB",
      "Date": "2019-11-02",
      "flow": 0.06658369632856254,
      "Latitude": "40.8489744",
      "Longitude": "-73.8683841"
    },
    {
      "SegmentID": "87447",
      "RoadwayName": "Bronx Park East",
      "From": "Maran Place",
      "To": "Lydig Avenue",
      "Direction": "SB",
      "Date": "2019-11-02",
      "flow": 0.11387678904791537,
      "Latitude": "40.8489744",
      "Longitude": "-73.8683841"
    },
    {
      "SegmentID": "29843",
      "RoadwayName": "BROOKLYN AVENUE",
      "From": "St Johns Place",
      "To": "Lincoln Place",
      "Direction": "SB",
      "Date": "2019-11-02",
      "flow": 0.0715619166148102,
      "Latitude": "40.6313796",
      "Longitude": "-73.9416905"
    },
    {
      "SegmentID": "9003959",
      "RoadwayName": "Burke Avenue",
      "From": "Yates Avenue",
      "To": "Dead End",
      "Direction": "EB",
      "Date": "2019-11-02",
      "flow": 0.015556938394523958,
      "Latitude": "40.8714348",
      "Longitude": "-73.8671748"
    },
    {
      "SegmentID": "9003959",
      "RoadwayName": "Burke Avenue",
      "From": "Yates Avenue",
      "To": "Dead End",
      "Direction": "WB",
      "Date": "2019-11-02",
      "flow": 0.029869321717486,
      "Latitude": "40.8714348",
      "Longitude": "-73.8671748"
    },
    {
      "SegmentID": "9002975",
      "RoadwayName": "Calhoun Avenue",
      "From": "Dead End",
      "To": "Dead End",
      "Direction": "NB",
      "Date": "2019-11-02",
      "flow": 0.0031113876789047915,
      "Latitude": "40.8401745",
      "Longitude": "-73.82344175"
    },
    {
      "SegmentID": "9002975",
      "RoadwayName": "Calhoun Avenue",
      "From": "Dead End",
      "To": "Dead End",
      "Direction": "SB",
      "Date": "2019-11-02",
      "flow": 0.006845052893590542,
      "Latitude": "40.8401745",
      "Longitude": "-73.82344175"
    },
    {
      "SegmentID": "95712",
      "RoadwayName": "Conner Street",
      "From": "Hollers Avenue",
      "To": "Boston Road",
      "Direction": "NB",
      "Date": "2019-11-02",
      "flow": 0.1449906658369633,
      "Latitude": "40.8887386",
      "Longitude": "-73.8168994"
    },
    {
      "SegmentID": "95712",
      "RoadwayName": "Conner Street",
      "From": "Hollers Avenue",
      "To": "Boston Road",
      "Direction": "SB",
      "Date": "2019-11-02",
      "flow": 0.10267579340385811,
      "Latitude": "40.8887386",
      "Longitude": "-73.8168994"
    },
    {
      "SegmentID": "188574",
      "RoadwayName": "East 133 Street",
      "From": "Bruckner Boulevard",
      "To": "Bruckner Boulevard",
      "Direction": "EB",
      "Date": "2019-11-02",
      "flow": 0.07467330429371499,
      "Latitude": "40.8301747",
      "Longitude": "-73.8375135"
    },
    {
      "SegmentID": "174149",
      "RoadwayName": "East 161 Street",
      "From": "Connector",
      "To": "Dead end",
      "Direction": "EB",
      "Date": "2019-11-02",
      "flow": 0.043559427504667084,
      "Latitude": "40.7516976",
      "Longitude": "-73.9997739"
    },
    {
      "SegmentID": "174149",
      "RoadwayName": "East 161 Street",
      "From": "Connector",
      "To": "Dead end",
      "Direction": "WB",
      "Date": "2019-11-02",
      "flow": 0.08089607965152458,
      "Latitude": "40.7516976",
      "Longitude": "-73.9997739"
    },
    {
      "SegmentID": "147472",
      "RoadwayName": "East 161 Street",
      "From": "Grand Concourse",
      "To": "Dead End",
      "Direction": "WB",
      "Date": "2019-11-02",
      "flow": 0.0640945861854387,
      "Latitude": "40.8510934",
      "Longitude": "-73.9046308"
    },
    {
      "SegmentID": "147471",
      "RoadwayName": "East 161 Street",
      "From": "Grand Concourse",
      "To": "Dead End",
      "Direction": "EB",
      "Date": "2019-11-02",
      "flow": 0.04791537025513379,
      "Latitude": "40.8510934",
      "Longitude": "-73.9046308"
    },
    {
      "SegmentID": "77424",
      "RoadwayName": "East 163 Street",
      "From": "Rogers Place",
      "To": "Intervale Avenue",
      "Direction": "EB",
      "Date": "2019-11-02",
      "flow": 0.05787181082762912,
      "Latitude": "40.8237575",
      "Longitude": "-73.8976172"
    },
    {
      "SegmentID": "77424",
      "RoadwayName": "East 163 Street",
      "From": "Rogers Place",
      "To": "Intervale Avenue",
      "Direction": "WB",
      "Date": "2019-11-02",
      "flow": 0.05102675793403858,
      "Latitude": "40.8237575",
      "Longitude": "-73.8976172"
    },
    {
      "SegmentID": "174289",
      "RoadwayName": "East 167 Street",
      "From": "Dead End",
      "To": "Dead End",
      "Direction": "EB",
      "Date": "2019-11-02",
      "flow": 0.028002489110143122,
      "Latitude": "40.8401745",
      "Longitude": "-73.82344175"
    },
    {
      "SegmentID": "174289",
      "RoadwayName": "East 167 Street",
      "From": "Dead End",
      "To": "Dead End",
      "Direction": "WB",
      "Date": "2019-11-02",
      "flow": 0.03546981953951462,
      "Latitude": "40.8401745",
      "Longitude": "-73.82344175"
    },
    {
      "SegmentID": "116598",
      "RoadwayName": "East 222 Street",
      "From": "Wickham Avenue",
      "To": "Bruner Avenue",
      "Direction": "EB",
      "Date": "2019-11-02",
      "flow": 0.06222775357809583,
      "Latitude": "40.8607479",
      "Longitude": "-73.8352367"
    },
    {
      "SegmentID": "116598",
      "RoadwayName": "East 222 Street",
      "From": "Wickham Avenue",
      "To": "Bruner Avenue",
      "Direction": "WB",
      "Date": "2019-11-02",
      "flow": 0.04791537025513379,
      "Latitude": "40.8607479",
      "Longitude": "-73.8352367"
    },
    {
      "SegmentID": "89274",
      "RoadwayName": "East 241 Street",
      "From": "Bronx Boulevard",
      "To": "Carpenter Avenue",
      "Direction": "EB",
      "Date": "2019-11-02",
      "flow": 0.05040448039825762,
      "Latitude": "40.8870077",
      "Longitude": "-73.8653065"
    },
    {
      "SegmentID": "89274",
      "RoadwayName": "East 241 Street",
      "From": "Bronx Boulevard",
      "To": "Carpenter Avenue",
      "Direction": "WB",
      "Date": "2019-11-02",
      "flow": 0.08462974486621033,
      "Latitude": "40.8870077",
      "Longitude": "-73.8653065"
    },
    {
      "SegmentID": "116587",
      "RoadwayName": "East Gun Hill Road",
      "From": "Givan Avenue",
      "To": "Pearsall Avenue",
      "Direction": "EB",
      "Date": "2019-11-02",
      "flow": 0.03982576228998133,
      "Latitude": "40.8640107",
      "Longitude": "-73.8339775"
    },
    {
      "SegmentID": "116587",
      "RoadwayName": "East Gun Hill Road",
      "From": "Givan Avenue",
      "To": "Pearsall Avenue",
      "Direction": "WB",
      "Date": "2019-11-02",
      "flow": 0.05538270068450529,
      "Latitude": "40.8640107",
      "Longitude": "-73.8339775"
    },
    {
      "SegmentID": "178395",
      "RoadwayName": "East Gun Hill Road",
      "From": "Bronx River Parkway",
      "To": "Dead End",
      "Direction": "EB",
      "Date": "2019-11-02",
      "flow": 0.1879278158058494,
      "Latitude": "40.8640107",
      "Longitude": "-73.8339775"
    },
    {
      "SegmentID": "178395",
      "RoadwayName": "East Gun Hill Road",
      "From": "Bronx River Parkway",
      "To": "Dead End",
      "Direction": "WB",
      "Date": "2019-11-02",
      "flow": 0.22153080273802117,
      "Latitude": "40.8640107",
      "Longitude": "-73.8339775"
    },
    {
      "SegmentID": "78404",
      "RoadwayName": "East Tremont Avenue",
      "From": "Anthony Avenue",
      "To": "Dead end",
      "Direction": "EB",
      "Date": "2019-11-02",
      "flow": 0.08027380211574363,
      "Latitude": "40.8418573",
      "Longitude": "-73.8583296"
    },
    {
      "SegmentID": "78404",
      "RoadwayName": "East Tremont Avenue",
      "From": "Anthony Avenue",
      "To": "Dead End",
      "Direction": "WB",
      "Date": "2019-11-02",
      "flow": 0.14561294337274425,
      "Latitude": "40.8418573",
      "Longitude": "-73.8583296"
    },
    {
      "SegmentID": "93653",
      "RoadwayName": "East Tremont Avenue",
      "From": "Harding Avenue",
      "To": "Silver Beach Place",
      "Direction": "NB",
      "Date": "2019-11-02",
      "flow": 0,
      "Latitude": "40.8418573",
      "Longitude": "-73.8583296"
    },
    {
      "SegmentID": "93653",
      "RoadwayName": "East Tremont Avenue",
      "From": "Harding Avenue",
      "To": "Silver Beach Place",
      "Direction": "SB",
      "Date": "2019-11-02",
      "flow": 0.0012445550715619166,
      "Latitude": "40.8418573",
      "Longitude": "-73.8583296"
    },
    {
      "SegmentID": "251949",
      "RoadwayName": "Exterior Street",
      "From": "Dead End",
      "To": "Dead End",
      "Direction": "NB",
      "Date": "2019-11-02",
      "flow": 1,
      "Latitude": "40.8401745",
      "Longitude": "-73.82344175"
    },
    {
      "SegmentID": "251949",
      "RoadwayName": "Exterior Street",
      "From": "Dead End",
      "To": "Dead End",
      "Direction": "SB",
      "Date": "2019-11-02",
      "flow": 0.5208462974486621,
      "Latitude": "40.8401745",
      "Longitude": "-73.82344175"
    },
    {
      "SegmentID": "29461",
      "RoadwayName": "Fulton Street",
      "From": "Classon Avenue",
      "To": "Claver Place",
      "Direction": "EB",
      "Date": "2019-11-02",
      "flow": 0.11387678904791537,
      "Latitude": "40.7101857",
      "Longitude": "-74.0076638"
    },
    {
      "SegmentID": "29461",
      "RoadwayName": "FULTON STREET",
      "From": "Classon Avenue",
      "To": "Claver Place",
      "Direction": "WB",
      "Date": "2019-11-02",
      "flow": 0.08089607965152458,
      "Latitude": "40.7101857",
      "Longitude": "-74.0076638"
    },
    {
      "SegmentID": "176284",
      "RoadwayName": "Grand Concourse",
      "From": "Concourse Line",
      "To": "Concourse Line",
      "Direction": "NB",
      "Date": "2019-11-02",
      "flow": 0.06969508400746734,
      "Latitude": "40.8510934",
      "Longitude": "-73.9046308"
    },
    {
      "SegmentID": "176284",
      "RoadwayName": "Grand Concourse",
      "From": "Concourse Line",
      "To": "Concourse Line",
      "Direction": "SB",
      "Date": "2019-11-02",
      "flow": 0.04169259489732421,
      "Latitude": "40.8510934",
      "Longitude": "-73.9046308"
    },
    {
      "SegmentID": "148196",
      "RoadwayName": "Grand Concourse",
      "From": "East 187 Street",
      "To": "Connector",
      "Direction": "SB",
      "Date": "2019-11-02",
      "flow": 0.05724953329184816,
      "Latitude": "40.8510934",
      "Longitude": "-73.9046308"
    },
    {
      "SegmentID": "148195",
      "RoadwayName": "Grand Concourse",
      "From": "East 187 Street",
      "To": "Connector",
      "Direction": "NB",
      "Date": "2019-11-02",
      "flow": 0.06907280647168637,
      "Latitude": "40.8510934",
      "Longitude": "-73.9046308"
    },
    {
      "SegmentID": "9008598",
      "RoadwayName": "Harrod Avenue",
      "From": "Dead End",
      "To": "Dead End",
      "Direction": "NB",
      "Date": "2019-11-02",
      "flow": 0.019290603609209707,
      "Latitude": "40.8401745",
      "Longitude": "-73.82344175"
    },
    {
      "SegmentID": "9008598",
      "RoadwayName": "Harrod Avenue",
      "From": "Dead End",
      "To": "Dead End",
      "Direction": "SB",
      "Date": "2019-11-02",
      "flow": 0.015556938394523958,
      "Latitude": "40.8401745",
      "Longitude": "-73.82344175"
    },
    {
      "SegmentID": "9009984",
      "RoadwayName": "Jerome Avenue",
      "From": "East 213 Street",
      "To": "Jerome Avenue Line",
      "Direction": "NB",
      "Date": "2019-11-02",
      "flow": 0.03671437461107654,
      "Latitude": "40.8665331",
      "Longitude": "-73.8981713"
    },
    {
      "SegmentID": "9009984",
      "RoadwayName": "Jerome Avenue",
      "From": "East 213 Street",
      "To": "Jerome Avenue Line",
      "Direction": "SB",
      "Date": "2019-11-02",
      "flow": 0.03484754200373367,
      "Latitude": "40.8665331",
      "Longitude": "-73.8981713"
    },
    {
      "SegmentID": "77328",
      "RoadwayName": "Longwood Avenue",
      "From": "Prospect Avenue",
      "To": "Hewitt Place",
      "Direction": "EB",
      "Date": "2019-11-02",
      "flow": 0.013067828251400125,
      "Latitude": "40.665414",
      "Longitude": "-73.992872"
    },
    {
      "SegmentID": "77328",
      "RoadwayName": "Longwood Avenue",
      "From": "Prospect Avenue",
      "To": "Hewitt Place",
      "Direction": "WB",
      "Date": "2019-11-02",
      "flow": 0.020535158680771624,
      "Latitude": "40.665414",
      "Longitude": "-73.992872"
    },
    {
      "SegmentID": "141740",
      "RoadwayName": "Mosholu Parkway",
      "From": "Dead End",
      "To": "Major Deegan Expwy Et 12 Nb",
      "Direction": "SB",
      "Date": "2019-11-02",
      "flow": 0.0640945861854387,
      "Latitude": "40.8792799",
      "Longitude": "-73.8852693"
    },
    {
      "SegmentID": "176737",
      "RoadwayName": "Mosholu Parkway",
      "From": "Dead End",
      "To": "Dead End",
      "Direction": "NB",
      "Date": "2019-11-02",
      "flow": 0.089607965152458,
      "Latitude": "40.8792799",
      "Longitude": "-73.8852693"
    },
    {
      "SegmentID": "89614",
      "RoadwayName": "Nereid Avenue",
      "From": "Hill Avenue",
      "To": "Monticello Avenue",
      "Direction": "EB",
      "Date": "2019-11-02",
      "flow": 0.009956440572495333,
      "Latitude": "40.8935705",
      "Longitude": "-73.84011"
    },
    {
      "SegmentID": "89614",
      "RoadwayName": "Nereid Avenue",
      "From": "Hill Avenue",
      "To": "Monticello Avenue",
      "Direction": "WB",
      "Date": "2019-11-02",
      "flow": 0.013067828251400125,
      "Latitude": "40.8935705",
      "Longitude": "-73.84011"
    },
    {
      "SegmentID": "9008830",
      "RoadwayName": "Pelham Parkway",
      "From": "Dead End",
      "To": "Dead End",
      "Direction": "EB",
      "Date": "2019-11-02",
      "flow": 0.10578718108276292,
      "Latitude": "40.857229",
      "Longitude": "-73.8676281"
    },
    {
      "SegmentID": "9008826",
      "RoadwayName": "Pelham Parkway",
      "From": "Dead End",
      "To": "Dead End",
      "Direction": "WB",
      "Date": "2019-11-02",
      "flow": 0.07716241443683883,
      "Latitude": "40.857229",
      "Longitude": "-73.8676281"
    },
    {
      "SegmentID": "9003698",
      "RoadwayName": "Pelham Parkway North",
      "From": "Dead End",
      "To": "Dead End",
      "Direction": "WB",
      "Date": "2019-11-02",
      "flow": 0.018668326073428748,
      "Latitude": "40.8401745",
      "Longitude": "-73.82344175"
    },
    {
      "SegmentID": "87638",
      "RoadwayName": "Pelham Parkway South",
      "From": "Wallace Avenue",
      "To": "Barnes Avenue",
      "Direction": "EB",
      "Date": "2019-11-02",
      "flow": 0.07342874922215308,
      "Latitude": "40.8563458",
      "Longitude": "-73.8385504"
    },
    {
      "SegmentID": "194263",
      "RoadwayName": "Pelham Parkway",
      "From": "Boston Road",
      "To": "White Plains Road",
      "Direction": "EB",
      "Date": "2019-11-02",
      "flow": 0.12881144990665838,
      "Latitude": "40.857229",
      "Longitude": "-73.8676281"
    },
    {
      "SegmentID": "193983",
      "RoadwayName": "Pelham Parkway",
      "From": "Boston Road",
      "To": "White Plains Road",
      "Direction": "WB",
      "Date": "2019-11-02",
      "flow": 0.08462974486621033,
      "Latitude": "40.857229",
      "Longitude": "-73.8676281"
    },
    {
      "SegmentID": "178366",
      "RoadwayName": "Pelham Parkway North",
      "From": "Dead End",
      "To": "White Plains Road",
      "Direction": "WB",
      "Date": "2019-11-02",
      "flow": 0,
      "Latitude": "40.8401745",
      "Longitude": "-73.82344175"
    },
    {
      "SegmentID": "194327",
      "RoadwayName": "Pelham Parkway South",
      "From": "Bolton Street",
      "To": "White Plains Road",
      "Direction": "EB",
      "Date": "2019-11-02",
      "flow": 0.07467330429371499,
      "Latitude": "40.8563458",
      "Longitude": "-73.8385504"
    },
    {
      "SegmentID": "93887",
      "RoadwayName": "Pennyfield Avenue",
      "From": "Mullen Place",
      "To": "Harding Avenue",
      "Direction": "NB",
      "Date": "2019-11-02",
      "flow": 0.008711885500933417,
      "Latitude": "43.1560584",
      "Longitude": "-77.6332169"
    },
    {
      "SegmentID": "93887",
      "RoadwayName": "Pennyfield Avenue",
      "From": "Mullen Place",
      "To": "Harding Avenue",
      "Direction": "SB",
      "Date": "2019-11-02",
      "flow": 0.006222775357809583,
      "Latitude": "43.1560584",
      "Longitude": "-77.6332169"
    },
    {
      "SegmentID": "89600",
      "RoadwayName": "Pitman Avenue",
      "From": "Wilder Avenue",
      "To": "Murdock Avenue",
      "Direction": "EB",
      "Date": "2019-11-02",
      "flow": 0.02613565650280025,
      "Latitude": "40.89581",
      "Longitude": "-73.8428862"
    },
    {
      "SegmentID": "89600",
      "RoadwayName": "Pitman Avenue",
      "From": "Wilder Avenue",
      "To": "Murdock Avenue",
      "Direction": "WB",
      "Date": "2019-11-02",
      "flow": 0.04791537025513379,
      "Latitude": "40.89581",
      "Longitude": "-73.8428862"
    },
    {
      "SegmentID": "179513",
      "RoadwayName": "Randall Avenue",
      "From": "Dead End",
      "To": "Cross Bronx Expressway",
      "Direction": "NB",
      "Date": "2019-11-02",
      "flow": 0.14063472308649658,
      "Latitude": "40.8401745",
      "Longitude": "-73.82344175"
    },
    {
      "SegmentID": "179513",
      "RoadwayName": "Randall Avenue",
      "From": "Dead End",
      "To": "Cross Bronx Expressway",
      "Direction": "SB",
      "Date": "2019-11-02",
      "flow": 0.194150591163659,
      "Latitude": "40.8401745",
      "Longitude": "-73.82344175"
    },
    {
      "SegmentID": "109429",
      "RoadwayName": "Roosevelt Avenue",
      "From": "57 Street",
      "To": "58 Street",
      "Direction": "EB",
      "Date": "2019-11-02",
      "flow": 0.15432482887367766,
      "Latitude": "40.7582939",
      "Longitude": "-73.8342154"
    },
    {
      "SegmentID": "109429",
      "RoadwayName": "Roosevelt Avenue",
      "From": "57 Street",
      "To": "58 Street",
      "Direction": "WB",
      "Date": "2019-11-02",
      "flow": 0.09831985065339141,
      "Latitude": "40.7582939",
      "Longitude": "-73.8342154"
    },
    {
      "SegmentID": "146666",
      "RoadwayName": "Southern Boulevard",
      "From": "Dead End",
      "To": "East Fordham Road",
      "Direction": "NB",
      "Date": "2019-11-02",
      "flow": 0.04604853764779091,
      "Latitude": "40.8101526",
      "Longitude": "-73.9070982"
    },
    {
      "SegmentID": "154724",
      "RoadwayName": "Southern Boulevard",
      "From": "East Fordham Road",
      "To": "Dead End",
      "Direction": "SB",
      "Date": "2019-11-02",
      "flow": 0.06160547604231487,
      "Latitude": "40.8101526",
      "Longitude": "-73.9070982"
    },
    {
      "SegmentID": "9001821",
      "RoadwayName": "St Anns Avenue",
      "From": "Dead End",
      "To": "East 156 Street",
      "Direction": "NB",
      "Date": "2019-11-02",
      "flow": 0.049782202862476664,
      "Latitude": "40.59127905",
      "Longitude": "-74.09666133"
    },
    {
      "SegmentID": "9001821",
      "RoadwayName": "St Anns Avenue",
      "From": "Dead End",
      "To": "East 156 Street",
      "Direction": "SB",
      "Date": "2019-11-02",
      "flow": 0.024268823895457373,
      "Latitude": "40.59127905",
      "Longitude": "-74.09666133"
    },
    {
      "SegmentID": "178549",
      "RoadwayName": "Stillwell Avenue",
      "From": "Rhinelander Avenue",
      "To": "Pelham Parkway South",
      "Direction": "NB",
      "Date": "2019-11-02",
      "flow": 0.017423771001866834,
      "Latitude": "40.5870044",
      "Longitude": "-73.983419"
    },
    {
      "SegmentID": "178549",
      "RoadwayName": "Stillwell Avenue",
      "From": "Rhinelander Avenue",
      "To": "Pelham Parkway South",
      "Direction": "SB",
      "Date": "2019-11-02",
      "flow": 0.019290603609209707,
      "Latitude": "40.5870044",
      "Longitude": "-73.983419"
    },
    {
      "SegmentID": "113476",
      "RoadwayName": "Webster Avenue",
      "From": "Clay Avenue",
      "To": "East Mt Eden Avenue",
      "Direction": "NB",
      "Date": "2019-11-02",
      "flow": 0.12632233976353455,
      "Latitude": "40.8301832",
      "Longitude": "-73.9108058"
    },
    {
      "SegmentID": "113476",
      "RoadwayName": "Webster Avenue",
      "From": "Clay Avenue",
      "To": "East Mt Eden Avenue",
      "Direction": "SB",
      "Date": "2019-11-02",
      "flow": 0.16988176726820162,
      "Latitude": "40.8301832",
      "Longitude": "-73.9108058"
    },
    {
      "SegmentID": "176295",
      "RoadwayName": "Webster Avenue",
      "From": "East 189 Street",
      "To": "East Fordham Road",
      "Direction": "NB",
      "Date": "2019-11-02",
      "flow": 0.1462352209085252,
      "Latitude": "40.8301832",
      "Longitude": "-73.9108058"
    },
    {
      "SegmentID": "176295",
      "RoadwayName": "Webster Avenue",
      "From": "East 189 Street",
      "To": "East Fordham Road",
      "Direction": "SB",
      "Date": "2019-11-02",
      "flow": 0.104542626011201,
      "Latitude": "40.8301832",
      "Longitude": "-73.9108058"
    },
    {
      "SegmentID": "107183",
      "RoadwayName": "Mosholu Parkway",
      "From": "Grand Concourse",
      "To": "Bike Path",
      "Direction": "NB",
      "Date": "2019-11-02",
      "flow": 0.04791537025513379,
      "Latitude": "40.8792799",
      "Longitude": "-73.8852693"
    },
    {
      "SegmentID": "107183",
      "RoadwayName": "Mosholu Parkway",
      "From": "Grand Concourse",
      "To": "Bike Path",
      "Direction": "SB",
      "Date": "2019-11-02",
      "flow": 0.053515868077162417,
      "Latitude": "40.8792799",
      "Longitude": "-73.8852693"
    },
    {
      "SegmentID": "89398",
      "RoadwayName": "White Plains Road",
      "From": "St Ouen Street",
      "To": "Penfield Street",
      "Direction": "NB",
      "Date": "2019-11-02",
      "flow": 0.03671437461107654,
      "Latitude": "40.8573681",
      "Longitude": "-73.8676146"
    },
    {
      "SegmentID": "89398",
      "RoadwayName": "White Plains Road",
      "From": "St Ouen Street",
      "To": "Penfield Street",
      "Direction": "SB",
      "Date": "2019-11-02",
      "flow": 0.06596141879278158,
      "Latitude": "40.8573681",
      "Longitude": "-73.8676146"
    }
  ],
  "3:00-4:00AM": [
    {
      "SegmentID": "152665",
      "RoadwayName": "ATLANTIC AVENUE",
      "From": "Classon Avenue",
      "To": "Franklin Avenue Shuttle Line",
      "Direction": "WB",
      "Date": "2019-11-02",
      "flow": 0.14112615823235922,
      "Latitude": "40.688873",
      "Longitude": "-73.96007"
    },
    {
      "SegmentID": "108866",
      "RoadwayName": "Bainbridge Avenue",
      "From": "East 213 Street",
      "To": "Jerome Avenue",
      "Direction": "NB",
      "Date": "2019-11-02",
      "flow": 0.0042765502494654314,
      "Latitude": "40.8665331",
      "Longitude": "-73.8981713"
    },
    {
      "SegmentID": "108866",
      "RoadwayName": "Bainbrige Avenue",
      "From": "East 213 Street",
      "To": "Jerome Avenue",
      "Direction": "SB",
      "Date": "2019-11-02",
      "flow": 0.021382751247327157,
      "Latitude": "40.8665331",
      "Longitude": "-73.8981713"
    },
    {
      "SegmentID": "88826",
      "RoadwayName": "Baychester Avenue",
      "From": "Tilotson Avenue",
      "To": "Dyre Avenue Line",
      "Direction": "NB",
      "Date": "2019-11-02",
      "flow": 0.11546685673556664,
      "Latitude": "40.8699949",
      "Longitude": "-73.8458916"
    },
    {
      "SegmentID": "88826",
      "RoadwayName": "Baychester Avenue",
      "From": "Tilotson Avenue",
      "To": "Dyre Avenue Line",
      "Direction": "SB",
      "Date": "2019-11-02",
      "flow": 0.0548823948681397,
      "Latitude": "40.8699949",
      "Longitude": "-73.8458916"
    },
    {
      "SegmentID": "88298",
      "RoadwayName": "Boston Road",
      "From": "Fish Avenue",
      "To": "Seymour Avenue",
      "Direction": "EB",
      "Date": "2019-11-02",
      "flow": 0.13898788310762653,
      "Latitude": "40.8673321",
      "Longitude": "-73.8600312"
    },
    {
      "SegmentID": "88298",
      "RoadwayName": "Boston Road",
      "From": "Fish Avenue",
      "To": "Seymour Avenue",
      "Direction": "WB",
      "Date": "2019-11-02",
      "flow": 0.06200997861724875,
      "Latitude": "40.8673321",
      "Longitude": "-73.8600312"
    },
    {
      "SegmentID": "146329",
      "RoadwayName": "Boston Road",
      "From": "Connector",
      "To": "Connector",
      "Direction": "WB",
      "Date": "2019-11-02",
      "flow": 0.040627227369921595,
      "Latitude": "40.8673321",
      "Longitude": "-73.8600312"
    },
    {
      "SegmentID": "146328",
      "RoadwayName": "Boston Road",
      "From": "Connector",
      "To": "Connector",
      "Direction": "EB",
      "Date": "2019-11-02",
      "flow": 0.024233784746970778,
      "Latitude": "40.8673321",
      "Longitude": "-73.8600312"
    },
    {
      "SegmentID": "81165",
      "RoadwayName": "Broadway",
      "From": "West 259 Street",
      "To": "West 260 Street",
      "Direction": "NB",
      "Date": "2019-11-02",
      "flow": 0.0955096222380613,
      "Latitude": "40.8028269",
      "Longitude": "-73.9675054"
    },
    {
      "SegmentID": "81165",
      "RoadwayName": "Broadway",
      "From": "West 259 Street",
      "To": "West 260 Street",
      "Direction": "SB",
      "Date": "2019-11-02",
      "flow": 0.08624376336421953,
      "Latitude": "40.8028269",
      "Longitude": "-73.9675054"
    },
    {
      "SegmentID": "134084",
      "RoadwayName": "Broadway",
      "From": "Dead End",
      "To": "Dead End",
      "Direction": "SB",
      "Date": "2019-11-02",
      "flow": 0.05274411974340699,
      "Latitude": "40.8028269",
      "Longitude": "-73.9675054"
    },
    {
      "SegmentID": "134083",
      "RoadwayName": "Broadway",
      "From": "Van Cortlandt Park South",
      "To": "Dead End",
      "Direction": "NB",
      "Date": "2019-11-02",
      "flow": 0.07911617961511047,
      "Latitude": "40.8028269",
      "Longitude": "-73.9675054"
    },
    {
      "SegmentID": "255657",
      "RoadwayName": "Broadway",
      "From": "Broadway/ 7 Avenue Line",
      "To": "Broadway/ 7 Avenue Line",
      "Direction": "SB",
      "Date": "2019-11-02",
      "flow": 0.03421240199572345,
      "Latitude": "40.8028269",
      "Longitude": "-73.9675054"
    },
    {
      "SegmentID": "88880",
      "RoadwayName": "Bronx Boulevard",
      "From": "Bronx River Greenway",
      "To": "Dead End",
      "Direction": "NB",
      "Date": "2019-11-02",
      "flow": 0.03136136849607983,
      "Latitude": "40.8870077",
      "Longitude": "-73.8653065"
    },
    {
      "SegmentID": "87447",
      "RoadwayName": "Bronx Park East",
      "From": "Maran Place",
      "To": "Lydig Avenue",
      "Direction": "NB",
      "Date": "2019-11-02",
      "flow": 0.06129722024233785,
      "Latitude": "40.8489744",
      "Longitude": "-73.8683841"
    },
    {
      "SegmentID": "87447",
      "RoadwayName": "Bronx Park East",
      "From": "Maran Place",
      "To": "Lydig Avenue",
      "Direction": "SB",
      "Date": "2019-11-02",
      "flow": 0.10477548111190306,
      "Latitude": "40.8489744",
      "Longitude": "-73.8683841"
    },
    {
      "SegmentID": "29843",
      "RoadwayName": "BROOKLYN AVENUE",
      "From": "St Johns Place",
      "To": "Lincoln Place",
      "Direction": "SB",
      "Date": "2019-11-02",
      "flow": 0.05915894511760513,
      "Latitude": "40.6313796",
      "Longitude": "-73.9416905"
    },
    {
      "SegmentID": "9003959",
      "RoadwayName": "Burke Avenue",
      "From": "Yates Avenue",
      "To": "Dead End",
      "Direction": "EB",
      "Date": "2019-11-02",
      "flow": 0.015680684248039915,
      "Latitude": "40.8714348",
      "Longitude": "-73.8671748"
    },
    {
      "SegmentID": "9003959",
      "RoadwayName": "Burke Avenue",
      "From": "Yates Avenue",
      "To": "Dead End",
      "Direction": "WB",
      "Date": "2019-11-02",
      "flow": 0.024233784746970778,
      "Latitude": "40.8714348",
      "Longitude": "-73.8671748"
    },
    {
      "SegmentID": "9002975",
      "RoadwayName": "Calhoun Avenue",
      "From": "Dead End",
      "To": "Dead End",
      "Direction": "NB",
      "Date": "2019-11-02",
      "flow": 0.003563791874554526,
      "Latitude": "40.8401745",
      "Longitude": "-73.82344175"
    },
    {
      "SegmentID": "9002975",
      "RoadwayName": "Calhoun Avenue",
      "From": "Dead End",
      "To": "Dead End",
      "Direction": "SB",
      "Date": "2019-11-02",
      "flow": 0.009978617248752673,
      "Latitude": "40.8401745",
      "Longitude": "-73.82344175"
    },
    {
      "SegmentID": "95712",
      "RoadwayName": "Conner Street",
      "From": "Hollers Avenue",
      "To": "Boston Road",
      "Direction": "NB",
      "Date": "2019-11-02",
      "flow": 0.10548823948681398,
      "Latitude": "40.8887386",
      "Longitude": "-73.8168994"
    },
    {
      "SegmentID": "95712",
      "RoadwayName": "Conner Street",
      "From": "Hollers Avenue",
      "To": "Boston Road",
      "Direction": "SB",
      "Date": "2019-11-02",
      "flow": 0.04989308624376337,
      "Latitude": "40.8887386",
      "Longitude": "-73.8168994"
    },
    {
      "SegmentID": "188574",
      "RoadwayName": "East 133 Street",
      "From": "Bruckner Boulevard",
      "To": "Bruckner Boulevard",
      "Direction": "EB",
      "Date": "2019-11-02",
      "flow": 0.07056307911617961,
      "Latitude": "40.8301747",
      "Longitude": "-73.8375135"
    },
    {
      "SegmentID": "174149",
      "RoadwayName": "East 161 Street",
      "From": "Connector",
      "To": "Dead end",
      "Direction": "EB",
      "Date": "2019-11-02",
      "flow": 0.029223093371347115,
      "Latitude": "40.7516976",
      "Longitude": "-73.9997739"
    },
    {
      "SegmentID": "174149",
      "RoadwayName": "East 161 Street",
      "From": "Connector",
      "To": "Dead end",
      "Direction": "WB",
      "Date": "2019-11-02",
      "flow": 0.07697790449037777,
      "Latitude": "40.7516976",
      "Longitude": "-73.9997739"
    },
    {
      "SegmentID": "147472",
      "RoadwayName": "East 161 Street",
      "From": "Grand Concourse",
      "To": "Dead End",
      "Direction": "WB",
      "Date": "2019-11-02",
      "flow": 0.05844618674269423,
      "Latitude": "40.8510934",
      "Longitude": "-73.9046308"
    },
    {
      "SegmentID": "147471",
      "RoadwayName": "East 161 Street",
      "From": "Grand Concourse",
      "To": "Dead End",
      "Direction": "EB",
      "Date": "2019-11-02",
      "flow": 0.05773342836778332,
      "Latitude": "40.8510934",
      "Longitude": "-73.9046308"
    },
    {
      "SegmentID": "77424",
      "RoadwayName": "East 163 Street",
      "From": "Rogers Place",
      "To": "Intervale Avenue",
      "Direction": "EB",
      "Date": "2019-11-02",
      "flow": 0.06699928724162509,
      "Latitude": "40.8237575",
      "Longitude": "-73.8976172"
    },
    {
      "SegmentID": "77424",
      "RoadwayName": "East 163 Street",
      "From": "Rogers Place",
      "To": "Intervale Avenue",
      "Direction": "WB",
      "Date": "2019-11-02",
      "flow": 0.0548823948681397,
      "Latitude": "40.8237575",
      "Longitude": "-73.8976172"
    },
    {
      "SegmentID": "174289",
      "RoadwayName": "East 167 Street",
      "From": "Dead End",
      "To": "Dead End",
      "Direction": "EB",
      "Date": "2019-11-02",
      "flow": 0.03421240199572345,
      "Latitude": "40.8401745",
      "Longitude": "-73.82344175"
    },
    {
      "SegmentID": "174289",
      "RoadwayName": "East 167 Street",
      "From": "Dead End",
      "To": "Dead End",
      "Direction": "WB",
      "Date": "2019-11-02",
      "flow": 0.043478260869565216,
      "Latitude": "40.8401745",
      "Longitude": "-73.82344175"
    },
    {
      "SegmentID": "116598",
      "RoadwayName": "East 222 Street",
      "From": "Wickham Avenue",
      "To": "Bruner Avenue",
      "Direction": "EB",
      "Date": "2019-11-02",
      "flow": 0.048467569493941556,
      "Latitude": "40.8607479",
      "Longitude": "-73.8352367"
    },
    {
      "SegmentID": "116598",
      "RoadwayName": "East 222 Street",
      "From": "Wickham Avenue",
      "To": "Bruner Avenue",
      "Direction": "WB",
      "Date": "2019-11-02",
      "flow": 0.029223093371347115,
      "Latitude": "40.8607479",
      "Longitude": "-73.8352367"
    },
    {
      "SegmentID": "89274",
      "RoadwayName": "East 241 Street",
      "From": "Bronx Boulevard",
      "To": "Carpenter Avenue",
      "Direction": "EB",
      "Date": "2019-11-02",
      "flow": 0.04775481111903065,
      "Latitude": "40.8870077",
      "Longitude": "-73.8653065"
    },
    {
      "SegmentID": "89274",
      "RoadwayName": "East 241 Street",
      "From": "Bronx Boulevard",
      "To": "Carpenter Avenue",
      "Direction": "WB",
      "Date": "2019-11-02",
      "flow": 0.07127583749109052,
      "Latitude": "40.8870077",
      "Longitude": "-73.8653065"
    },
    {
      "SegmentID": "116587",
      "RoadwayName": "East Gun Hill Road",
      "From": "Givan Avenue",
      "To": "Pearsall Avenue",
      "Direction": "EB",
      "Date": "2019-11-02",
      "flow": 0.05559515324305061,
      "Latitude": "40.8640107",
      "Longitude": "-73.8339775"
    },
    {
      "SegmentID": "116587",
      "RoadwayName": "East Gun Hill Road",
      "From": "Givan Avenue",
      "To": "Pearsall Avenue",
      "Direction": "WB",
      "Date": "2019-11-02",
      "flow": 0.044191019244476125,
      "Latitude": "40.8640107",
      "Longitude": "-73.8339775"
    },
    {
      "SegmentID": "178395",
      "RoadwayName": "East Gun Hill Road",
      "From": "Bronx River Parkway",
      "To": "Dead End",
      "Direction": "EB",
      "Date": "2019-11-02",
      "flow": 0.13043478260869565,
      "Latitude": "40.8640107",
      "Longitude": "-73.8339775"
    },
    {
      "SegmentID": "178395",
      "RoadwayName": "East Gun Hill Road",
      "From": "Bronx River Parkway",
      "To": "Dead End",
      "Direction": "WB",
      "Date": "2019-11-02",
      "flow": 0.20955096222380612,
      "Latitude": "40.8640107",
      "Longitude": "-73.8339775"
    },
    {
      "SegmentID": "78404",
      "RoadwayName": "East Tremont Avenue",
      "From": "Anthony Avenue",
      "To": "Dead end",
      "Direction": "EB",
      "Date": "2019-11-02",
      "flow": 0.0691375623663578,
      "Latitude": "40.8418573",
      "Longitude": "-73.8583296"
    },
    {
      "SegmentID": "78404",
      "RoadwayName": "East Tremont Avenue",
      "From": "Anthony Avenue",
      "To": "Dead End",
      "Direction": "WB",
      "Date": "2019-11-02",
      "flow": 0.1225944404846757,
      "Latitude": "40.8418573",
      "Longitude": "-73.8583296"
    },
    {
      "SegmentID": "93653",
      "RoadwayName": "East Tremont Avenue",
      "From": "Harding Avenue",
      "To": "Silver Beach Place",
      "Direction": "NB",
      "Date": "2019-11-02",
      "flow": 0.0014255167498218105,
      "Latitude": "40.8418573",
      "Longitude": "-73.8583296"
    },
    {
      "SegmentID": "93653",
      "RoadwayName": "East Tremont Avenue",
      "From": "Harding Avenue",
      "To": "Silver Beach Place",
      "Direction": "SB",
      "Date": "2019-11-02",
      "flow": 0.005702066999287242,
      "Latitude": "40.8418573",
      "Longitude": "-73.8583296"
    },
    {
      "SegmentID": "251949",
      "RoadwayName": "Exterior Street",
      "From": "Dead End",
      "To": "Dead End",
      "Direction": "NB",
      "Date": "2019-11-02",
      "flow": 1,
      "Latitude": "40.8401745",
      "Longitude": "-73.82344175"
    },
    {
      "SegmentID": "251949",
      "RoadwayName": "Exterior Street",
      "From": "Dead End",
      "To": "Dead End",
      "Direction": "SB",
      "Date": "2019-11-02",
      "flow": 0.6044191019244476,
      "Latitude": "40.8401745",
      "Longitude": "-73.82344175"
    },
    {
      "SegmentID": "29461",
      "RoadwayName": "Fulton Street",
      "From": "Classon Avenue",
      "To": "Claver Place",
      "Direction": "EB",
      "Date": "2019-11-02",
      "flow": 0.11689237348538846,
      "Latitude": "40.7101857",
      "Longitude": "-74.0076638"
    },
    {
      "SegmentID": "29461",
      "RoadwayName": "FULTON STREET",
      "From": "Classon Avenue",
      "To": "Claver Place",
      "Direction": "WB",
      "Date": "2019-11-02",
      "flow": 0.0691375623663578,
      "Latitude": "40.7101857",
      "Longitude": "-74.0076638"
    },
    {
      "SegmentID": "176284",
      "RoadwayName": "Grand Concourse",
      "From": "Concourse Line",
      "To": "Concourse Line",
      "Direction": "NB",
      "Date": "2019-11-02",
      "flow": 0.0691375623663578,
      "Latitude": "40.8510934",
      "Longitude": "-73.9046308"
    },
    {
      "SegmentID": "176284",
      "RoadwayName": "Grand Concourse",
      "From": "Concourse Line",
      "To": "Concourse Line",
      "Direction": "SB",
      "Date": "2019-11-02",
      "flow": 0.047042052744119746,
      "Latitude": "40.8510934",
      "Longitude": "-73.9046308"
    },
    {
      "SegmentID": "148196",
      "RoadwayName": "Grand Concourse",
      "From": "East 187 Street",
      "To": "Connector",
      "Direction": "SB",
      "Date": "2019-11-02",
      "flow": 0.048467569493941556,
      "Latitude": "40.8510934",
      "Longitude": "-73.9046308"
    },
    {
      "SegmentID": "148195",
      "RoadwayName": "Grand Concourse",
      "From": "East 187 Street",
      "To": "Connector",
      "Direction": "NB",
      "Date": "2019-11-02",
      "flow": 0.07198859586600143,
      "Latitude": "40.8510934",
      "Longitude": "-73.9046308"
    },
    {
      "SegmentID": "9008598",
      "RoadwayName": "Harrod Avenue",
      "From": "Dead End",
      "To": "Dead End",
      "Direction": "NB",
      "Date": "2019-11-02",
      "flow": 0.015680684248039915,
      "Latitude": "40.8401745",
      "Longitude": "-73.82344175"
    },
    {
      "SegmentID": "9008598",
      "RoadwayName": "Harrod Avenue",
      "From": "Dead End",
      "To": "Dead End",
      "Direction": "SB",
      "Date": "2019-11-02",
      "flow": 0.015680684248039915,
      "Latitude": "40.8401745",
      "Longitude": "-73.82344175"
    },
    {
      "SegmentID": "9009984",
      "RoadwayName": "Jerome Avenue",
      "From": "East 213 Street",
      "To": "Jerome Avenue Line",
      "Direction": "NB",
      "Date": "2019-11-02",
      "flow": 0.043478260869565216,
      "Latitude": "40.8665331",
      "Longitude": "-73.8981713"
    },
    {
      "SegmentID": "9009984",
      "RoadwayName": "Jerome Avenue",
      "From": "East 213 Street",
      "To": "Jerome Avenue Line",
      "Direction": "SB",
      "Date": "2019-11-02",
      "flow": 0.042765502494654314,
      "Latitude": "40.8665331",
      "Longitude": "-73.8981713"
    },
    {
      "SegmentID": "77328",
      "RoadwayName": "Longwood Avenue",
      "From": "Prospect Avenue",
      "To": "Hewitt Place",
      "Direction": "EB",
      "Date": "2019-11-02",
      "flow": 0.014255167498218105,
      "Latitude": "40.665414",
      "Longitude": "-73.992872"
    },
    {
      "SegmentID": "77328",
      "RoadwayName": "Longwood Avenue",
      "From": "Prospect Avenue",
      "To": "Hewitt Place",
      "Direction": "WB",
      "Date": "2019-11-02",
      "flow": 0.018531717747683536,
      "Latitude": "40.665414",
      "Longitude": "-73.992872"
    },
    {
      "SegmentID": "141740",
      "RoadwayName": "Mosholu Parkway",
      "From": "Dead End",
      "To": "Major Deegan Expwy Et 12 Nb",
      "Direction": "SB",
      "Date": "2019-11-02",
      "flow": 0.05915894511760513,
      "Latitude": "40.8792799",
      "Longitude": "-73.8852693"
    },
    {
      "SegmentID": "176737",
      "RoadwayName": "Mosholu Parkway",
      "From": "Dead End",
      "To": "Dead End",
      "Direction": "NB",
      "Date": "2019-11-02",
      "flow": 0.0698503207412687,
      "Latitude": "40.8792799",
      "Longitude": "-73.8852693"
    },
    {
      "SegmentID": "89614",
      "RoadwayName": "Nereid Avenue",
      "From": "Hill Avenue",
      "To": "Monticello Avenue",
      "Direction": "EB",
      "Date": "2019-11-02",
      "flow": 0.01639344262295082,
      "Latitude": "40.8935705",
      "Longitude": "-73.84011"
    },
    {
      "SegmentID": "89614",
      "RoadwayName": "Nereid Avenue",
      "From": "Hill Avenue",
      "To": "Monticello Avenue",
      "Direction": "WB",
      "Date": "2019-11-02",
      "flow": 0.012829650748396294,
      "Latitude": "40.8935705",
      "Longitude": "-73.84011"
    },
    {
      "SegmentID": "9008830",
      "RoadwayName": "Pelham Parkway",
      "From": "Dead End",
      "To": "Dead End",
      "Direction": "EB",
      "Date": "2019-11-02",
      "flow": 0.09123307198859587,
      "Latitude": "40.857229",
      "Longitude": "-73.8676281"
    },
    {
      "SegmentID": "9008826",
      "RoadwayName": "Pelham Parkway",
      "From": "Dead End",
      "To": "Dead End",
      "Direction": "WB",
      "Date": "2019-11-02",
      "flow": 0.06699928724162509,
      "Latitude": "40.857229",
      "Longitude": "-73.8676281"
    },
    {
      "SegmentID": "9003698",
      "RoadwayName": "Pelham Parkway North",
      "From": "Dead End",
      "To": "Dead End",
      "Direction": "WB",
      "Date": "2019-11-02",
      "flow": 0.019957234497505347,
      "Latitude": "40.8401745",
      "Longitude": "-73.82344175"
    },
    {
      "SegmentID": "87638",
      "RoadwayName": "Pelham Parkway South",
      "From": "Wallace Avenue",
      "To": "Barnes Avenue",
      "Direction": "EB",
      "Date": "2019-11-02",
      "flow": 0.07198859586600143,
      "Latitude": "40.8563458",
      "Longitude": "-73.8385504"
    },
    {
      "SegmentID": "194263",
      "RoadwayName": "Pelham Parkway",
      "From": "Boston Road",
      "To": "White Plains Road",
      "Direction": "EB",
      "Date": "2019-11-02",
      "flow": 0.10192444761225944,
      "Latitude": "40.857229",
      "Longitude": "-73.8676281"
    },
    {
      "SegmentID": "193983",
      "RoadwayName": "Pelham Parkway",
      "From": "Boston Road",
      "To": "White Plains Road",
      "Direction": "WB",
      "Date": "2019-11-02",
      "flow": 0.10121168923734854,
      "Latitude": "40.857229",
      "Longitude": "-73.8676281"
    },
    {
      "SegmentID": "178366",
      "RoadwayName": "Pelham Parkway North",
      "From": "Dead End",
      "To": "White Plains Road",
      "Direction": "WB",
      "Date": "2019-11-02",
      "flow": 0,
      "Latitude": "40.8401745",
      "Longitude": "-73.82344175"
    },
    {
      "SegmentID": "194327",
      "RoadwayName": "Pelham Parkway South",
      "From": "Bolton Street",
      "To": "White Plains Road",
      "Direction": "EB",
      "Date": "2019-11-02",
      "flow": 0.06414825374198146,
      "Latitude": "40.8563458",
      "Longitude": "-73.8385504"
    },
    {
      "SegmentID": "93887",
      "RoadwayName": "Pennyfield Avenue",
      "From": "Mullen Place",
      "To": "Harding Avenue",
      "Direction": "NB",
      "Date": "2019-11-02",
      "flow": 0.018531717747683536,
      "Latitude": "43.1560584",
      "Longitude": "-77.6332169"
    },
    {
      "SegmentID": "93887",
      "RoadwayName": "Pennyfield Avenue",
      "From": "Mullen Place",
      "To": "Harding Avenue",
      "Direction": "SB",
      "Date": "2019-11-02",
      "flow": 0.020669992872416252,
      "Latitude": "43.1560584",
      "Longitude": "-77.6332169"
    },
    {
      "SegmentID": "89600",
      "RoadwayName": "Pitman Avenue",
      "From": "Wilder Avenue",
      "To": "Murdock Avenue",
      "Direction": "EB",
      "Date": "2019-11-02",
      "flow": 0.0135424091233072,
      "Latitude": "40.89581",
      "Longitude": "-73.8428862"
    },
    {
      "SegmentID": "89600",
      "RoadwayName": "Pitman Avenue",
      "From": "Wilder Avenue",
      "To": "Murdock Avenue",
      "Direction": "WB",
      "Date": "2019-11-02",
      "flow": 0.03991446899501069,
      "Latitude": "40.89581",
      "Longitude": "-73.8428862"
    },
    {
      "SegmentID": "179513",
      "RoadwayName": "Randall Avenue",
      "From": "Dead End",
      "To": "Cross Bronx Expressway",
      "Direction": "NB",
      "Date": "2019-11-02",
      "flow": 0.1895937277263008,
      "Latitude": "40.8401745",
      "Longitude": "-73.82344175"
    },
    {
      "SegmentID": "179513",
      "RoadwayName": "Randall Avenue",
      "From": "Dead End",
      "To": "Cross Bronx Expressway",
      "Direction": "SB",
      "Date": "2019-11-02",
      "flow": 0.20955096222380612,
      "Latitude": "40.8401745",
      "Longitude": "-73.82344175"
    },
    {
      "SegmentID": "109429",
      "RoadwayName": "Roosevelt Avenue",
      "From": "57 Street",
      "To": "58 Street",
      "Direction": "EB",
      "Date": "2019-11-02",
      "flow": 0.15894511760513186,
      "Latitude": "40.7582939",
      "Longitude": "-73.8342154"
    },
    {
      "SegmentID": "109429",
      "RoadwayName": "Roosevelt Avenue",
      "From": "57 Street",
      "To": "58 Street",
      "Direction": "WB",
      "Date": "2019-11-02",
      "flow": 0.09052031361368496,
      "Latitude": "40.7582939",
      "Longitude": "-73.8342154"
    },
    {
      "SegmentID": "146666",
      "RoadwayName": "Southern Boulevard",
      "From": "Dead End",
      "To": "East Fordham Road",
      "Direction": "NB",
      "Date": "2019-11-02",
      "flow": 0.04490377761938703,
      "Latitude": "40.8101526",
      "Longitude": "-73.9070982"
    },
    {
      "SegmentID": "154724",
      "RoadwayName": "Southern Boulevard",
      "From": "East Fordham Road",
      "To": "Dead End",
      "Direction": "SB",
      "Date": "2019-11-02",
      "flow": 0.07270135424091233,
      "Latitude": "40.8101526",
      "Longitude": "-73.9070982"
    },
    {
      "SegmentID": "9001821",
      "RoadwayName": "St Anns Avenue",
      "From": "Dead End",
      "To": "East 156 Street",
      "Direction": "NB",
      "Date": "2019-11-02",
      "flow": 0.027797576621525304,
      "Latitude": "40.59127905",
      "Longitude": "-74.09666133"
    },
    {
      "SegmentID": "9001821",
      "RoadwayName": "St Anns Avenue",
      "From": "Dead End",
      "To": "East 156 Street",
      "Direction": "SB",
      "Date": "2019-11-02",
      "flow": 0.022095509622238062,
      "Latitude": "40.59127905",
      "Longitude": "-74.09666133"
    },
    {
      "SegmentID": "178549",
      "RoadwayName": "Stillwell Avenue",
      "From": "Rhinelander Avenue",
      "To": "Pelham Parkway South",
      "Direction": "NB",
      "Date": "2019-11-02",
      "flow": 0.0135424091233072,
      "Latitude": "40.5870044",
      "Longitude": "-73.983419"
    },
    {
      "SegmentID": "178549",
      "RoadwayName": "Stillwell Avenue",
      "From": "Rhinelander Avenue",
      "To": "Pelham Parkway South",
      "Direction": "SB",
      "Date": "2019-11-02",
      "flow": 0.01496792587312901,
      "Latitude": "40.5870044",
      "Longitude": "-73.983419"
    },
    {
      "SegmentID": "113476",
      "RoadwayName": "Webster Avenue",
      "From": "Clay Avenue",
      "To": "East Mt Eden Avenue",
      "Direction": "NB",
      "Date": "2019-11-02",
      "flow": 0.12900926585887385,
      "Latitude": "40.8301832",
      "Longitude": "-73.9108058"
    },
    {
      "SegmentID": "113476",
      "RoadwayName": "Webster Avenue",
      "From": "Clay Avenue",
      "To": "East Mt Eden Avenue",
      "Direction": "SB",
      "Date": "2019-11-02",
      "flow": 0.1511047754811119,
      "Latitude": "40.8301832",
      "Longitude": "-73.9108058"
    },
    {
      "SegmentID": "176295",
      "RoadwayName": "Webster Avenue",
      "From": "East 189 Street",
      "To": "East Fordham Road",
      "Direction": "NB",
      "Date": "2019-11-02",
      "flow": 0.1375623663578047,
      "Latitude": "40.8301832",
      "Longitude": "-73.9108058"
    },
    {
      "SegmentID": "176295",
      "RoadwayName": "Webster Avenue",
      "From": "East 189 Street",
      "To": "East Fordham Road",
      "Direction": "SB",
      "Date": "2019-11-02",
      "flow": 0.08624376336421953,
      "Latitude": "40.8301832",
      "Longitude": "-73.9108058"
    },
    {
      "SegmentID": "107183",
      "RoadwayName": "Mosholu Parkway",
      "From": "Grand Concourse",
      "To": "Bike Path",
      "Direction": "NB",
      "Date": "2019-11-02",
      "flow": 0.03991446899501069,
      "Latitude": "40.8792799",
      "Longitude": "-73.8852693"
    },
    {
      "SegmentID": "107183",
      "RoadwayName": "Mosholu Parkway",
      "From": "Grand Concourse",
      "To": "Bike Path",
      "Direction": "SB",
      "Date": "2019-11-02",
      "flow": 0.05060584461867427,
      "Latitude": "40.8792799",
      "Longitude": "-73.8852693"
    },
    {
      "SegmentID": "89398",
      "RoadwayName": "White Plains Road",
      "From": "St Ouen Street",
      "To": "Penfield Street",
      "Direction": "NB",
      "Date": "2019-11-02",
      "flow": 0.05131860299358518,
      "Latitude": "40.8573681",
      "Longitude": "-73.8676146"
    },
    {
      "SegmentID": "89398",
      "RoadwayName": "White Plains Road",
      "From": "St Ouen Street",
      "To": "Penfield Street",
      "Direction": "SB",
      "Date": "2019-11-02",
      "flow": 0.09052031361368496,
      "Latitude": "40.8573681",
      "Longitude": "-73.8676146"
    }
  ],
  "4:00-5:00AM": [
    {
      "SegmentID": "152665",
      "RoadwayName": "ATLANTIC AVENUE",
      "From": "Classon Avenue",
      "To": "Franklin Avenue Shuttle Line",
      "Direction": "WB",
      "Date": "2019-11-02",
      "flow": 0.23875968992248062,
      "Latitude": "40.688873",
      "Longitude": "-73.96007"
    },
    {
      "SegmentID": "108866",
      "RoadwayName": "Bainbridge Avenue",
      "From": "East 213 Street",
      "To": "Jerome Avenue",
      "Direction": "NB",
      "Date": "2019-11-02",
      "flow": 0.0069767441860465115,
      "Latitude": "40.8665331",
      "Longitude": "-73.8981713"
    },
    {
      "SegmentID": "108866",
      "RoadwayName": "Bainbrige Avenue",
      "From": "East 213 Street",
      "To": "Jerome Avenue",
      "Direction": "SB",
      "Date": "2019-11-02",
      "flow": 0.018604651162790697,
      "Latitude": "40.8665331",
      "Longitude": "-73.8981713"
    },
    {
      "SegmentID": "88826",
      "RoadwayName": "Baychester Avenue",
      "From": "Tilotson Avenue",
      "To": "Dyre Avenue Line",
      "Direction": "NB",
      "Date": "2019-11-02",
      "flow": 0.08527131782945736,
      "Latitude": "40.8699949",
      "Longitude": "-73.8458916"
    },
    {
      "SegmentID": "88826",
      "RoadwayName": "Baychester Avenue",
      "From": "Tilotson Avenue",
      "To": "Dyre Avenue Line",
      "Direction": "SB",
      "Date": "2019-11-02",
      "flow": 0.1,
      "Latitude": "40.8699949",
      "Longitude": "-73.8458916"
    },
    {
      "SegmentID": "88298",
      "RoadwayName": "Boston Road",
      "From": "Fish Avenue",
      "To": "Seymour Avenue",
      "Direction": "EB",
      "Date": "2019-11-02",
      "flow": 0.08914728682170543,
      "Latitude": "40.8673321",
      "Longitude": "-73.8600312"
    },
    {
      "SegmentID": "88298",
      "RoadwayName": "Boston Road",
      "From": "Fish Avenue",
      "To": "Seymour Avenue",
      "Direction": "WB",
      "Date": "2019-11-02",
      "flow": 0.08139534883720931,
      "Latitude": "40.8673321",
      "Longitude": "-73.8600312"
    },
    {
      "SegmentID": "146329",
      "RoadwayName": "Boston Road",
      "From": "Connector",
      "To": "Connector",
      "Direction": "WB",
      "Date": "2019-11-02",
      "flow": 0.03333333333333333,
      "Latitude": "40.8673321",
      "Longitude": "-73.8600312"
    },
    {
      "SegmentID": "146328",
      "RoadwayName": "Boston Road",
      "From": "Connector",
      "To": "Connector",
      "Direction": "EB",
      "Date": "2019-11-02",
      "flow": 0.02558139534883721,
      "Latitude": "40.8673321",
      "Longitude": "-73.8600312"
    },
    {
      "SegmentID": "81165",
      "RoadwayName": "Broadway",
      "From": "West 259 Street",
      "To": "West 260 Street",
      "Direction": "NB",
      "Date": "2019-11-02",
      "flow": 0.08837209302325581,
      "Latitude": "40.8028269",
      "Longitude": "-73.9675054"
    },
    {
      "SegmentID": "81165",
      "RoadwayName": "Broadway",
      "From": "West 259 Street",
      "To": "West 260 Street",
      "Direction": "SB",
      "Date": "2019-11-02",
      "flow": 0.09922480620155039,
      "Latitude": "40.8028269",
      "Longitude": "-73.9675054"
    },
    {
      "SegmentID": "134084",
      "RoadwayName": "Broadway",
      "From": "Dead End",
      "To": "Dead End",
      "Direction": "SB",
      "Date": "2019-11-02",
      "flow": 0.05813953488372093,
      "Latitude": "40.8028269",
      "Longitude": "-73.9675054"
    },
    {
      "SegmentID": "134083",
      "RoadwayName": "Broadway",
      "From": "Van Cortlandt Park South",
      "To": "Dead End",
      "Direction": "NB",
      "Date": "2019-11-02",
      "flow": 0.06821705426356589,
      "Latitude": "40.8028269",
      "Longitude": "-73.9675054"
    },
    {
      "SegmentID": "255657",
      "RoadwayName": "Broadway",
      "From": "Broadway/ 7 Avenue Line",
      "To": "Broadway/ 7 Avenue Line",
      "Direction": "SB",
      "Date": "2019-11-02",
      "flow": 0.017054263565891473,
      "Latitude": "40.8028269",
      "Longitude": "-73.9675054"
    },
    {
      "SegmentID": "88880",
      "RoadwayName": "Bronx Boulevard",
      "From": "Bronx River Greenway",
      "To": "Dead End",
      "Direction": "NB",
      "Date": "2019-11-02",
      "flow": 0.04263565891472868,
      "Latitude": "40.8870077",
      "Longitude": "-73.8653065"
    },
    {
      "SegmentID": "87447",
      "RoadwayName": "Bronx Park East",
      "From": "Maran Place",
      "To": "Lydig Avenue",
      "Direction": "NB",
      "Date": "2019-11-02",
      "flow": 0.06666666666666667,
      "Latitude": "40.8489744",
      "Longitude": "-73.8683841"
    },
    {
      "SegmentID": "87447",
      "RoadwayName": "Bronx Park East",
      "From": "Maran Place",
      "To": "Lydig Avenue",
      "Direction": "SB",
      "Date": "2019-11-02",
      "flow": 0.11395348837209303,
      "Latitude": "40.8489744",
      "Longitude": "-73.8683841"
    },
    {
      "SegmentID": "29843",
      "RoadwayName": "BROOKLYN AVENUE",
      "From": "St Johns Place",
      "To": "Lincoln Place",
      "Direction": "SB",
      "Date": "2019-11-02",
      "flow": 0.04496124031007752,
      "Latitude": "40.6313796",
      "Longitude": "-73.9416905"
    },
    {
      "SegmentID": "9003959",
      "RoadwayName": "Burke Avenue",
      "From": "Yates Avenue",
      "To": "Dead End",
      "Direction": "EB",
      "Date": "2019-11-02",
      "flow": 0.009302325581395349,
      "Latitude": "40.8714348",
      "Longitude": "-73.8671748"
    },
    {
      "SegmentID": "9003959",
      "RoadwayName": "Burke Avenue",
      "From": "Yates Avenue",
      "To": "Dead End",
      "Direction": "WB",
      "Date": "2019-11-02",
      "flow": 0.01627906976744186,
      "Latitude": "40.8714348",
      "Longitude": "-73.8671748"
    },
    {
      "SegmentID": "9002975",
      "RoadwayName": "Calhoun Avenue",
      "From": "Dead End",
      "To": "Dead End",
      "Direction": "NB",
      "Date": "2019-11-02",
      "flow": 0.002325581395348837,
      "Latitude": "40.8401745",
      "Longitude": "-73.82344175"
    },
    {
      "SegmentID": "9002975",
      "RoadwayName": "Calhoun Avenue",
      "From": "Dead End",
      "To": "Dead End",
      "Direction": "SB",
      "Date": "2019-11-02",
      "flow": 0.010852713178294573,
      "Latitude": "40.8401745",
      "Longitude": "-73.82344175"
    },
    {
      "SegmentID": "95712",
      "RoadwayName": "Conner Street",
      "From": "Hollers Avenue",
      "To": "Boston Road",
      "Direction": "NB",
      "Date": "2019-11-02",
      "flow": 0.07829457364341086,
      "Latitude": "40.8887386",
      "Longitude": "-73.8168994"
    },
    {
      "SegmentID": "95712",
      "RoadwayName": "Conner Street",
      "From": "Hollers Avenue",
      "To": "Boston Road",
      "Direction": "SB",
      "Date": "2019-11-02",
      "flow": 0.05116279069767442,
      "Latitude": "40.8887386",
      "Longitude": "-73.8168994"
    },
    {
      "SegmentID": "188574",
      "RoadwayName": "East 133 Street",
      "From": "Bruckner Boulevard",
      "To": "Bruckner Boulevard",
      "Direction": "EB",
      "Date": "2019-11-02",
      "flow": 0.09302325581395349,
      "Latitude": "40.8301747",
      "Longitude": "-73.8375135"
    },
    {
      "SegmentID": "174149",
      "RoadwayName": "East 161 Street",
      "From": "Connector",
      "To": "Dead end",
      "Direction": "EB",
      "Date": "2019-11-02",
      "flow": 0.04186046511627907,
      "Latitude": "40.7516976",
      "Longitude": "-73.9997739"
    },
    {
      "SegmentID": "174149",
      "RoadwayName": "East 161 Street",
      "From": "Connector",
      "To": "Dead end",
      "Direction": "WB",
      "Date": "2019-11-02",
      "flow": 0.07596899224806201,
      "Latitude": "40.7516976",
      "Longitude": "-73.9997739"
    },
    {
      "SegmentID": "147472",
      "RoadwayName": "East 161 Street",
      "From": "Grand Concourse",
      "To": "Dead End",
      "Direction": "WB",
      "Date": "2019-11-02",
      "flow": 0.06589147286821706,
      "Latitude": "40.8510934",
      "Longitude": "-73.9046308"
    },
    {
      "SegmentID": "147471",
      "RoadwayName": "East 161 Street",
      "From": "Grand Concourse",
      "To": "Dead End",
      "Direction": "EB",
      "Date": "2019-11-02",
      "flow": 0.05736434108527132,
      "Latitude": "40.8510934",
      "Longitude": "-73.9046308"
    },
    {
      "SegmentID": "77424",
      "RoadwayName": "East 163 Street",
      "From": "Rogers Place",
      "To": "Intervale Avenue",
      "Direction": "EB",
      "Date": "2019-11-02",
      "flow": 0.07829457364341086,
      "Latitude": "40.8237575",
      "Longitude": "-73.8976172"
    },
    {
      "SegmentID": "77424",
      "RoadwayName": "East 163 Street",
      "From": "Rogers Place",
      "To": "Intervale Avenue",
      "Direction": "WB",
      "Date": "2019-11-02",
      "flow": 0.07364341085271318,
      "Latitude": "40.8237575",
      "Longitude": "-73.8976172"
    },
    {
      "SegmentID": "174289",
      "RoadwayName": "East 167 Street",
      "From": "Dead End",
      "To": "Dead End",
      "Direction": "EB",
      "Date": "2019-11-02",
      "flow": 0.02558139534883721,
      "Latitude": "40.8401745",
      "Longitude": "-73.82344175"
    },
    {
      "SegmentID": "174289",
      "RoadwayName": "East 167 Street",
      "From": "Dead End",
      "To": "Dead End",
      "Direction": "WB",
      "Date": "2019-11-02",
      "flow": 0.043410852713178294,
      "Latitude": "40.8401745",
      "Longitude": "-73.82344175"
    },
    {
      "SegmentID": "116598",
      "RoadwayName": "East 222 Street",
      "From": "Wickham Avenue",
      "To": "Bruner Avenue",
      "Direction": "EB",
      "Date": "2019-11-02",
      "flow": 0.04263565891472868,
      "Latitude": "40.8607479",
      "Longitude": "-73.8352367"
    },
    {
      "SegmentID": "116598",
      "RoadwayName": "East 222 Street",
      "From": "Wickham Avenue",
      "To": "Bruner Avenue",
      "Direction": "WB",
      "Date": "2019-11-02",
      "flow": 0.04108527131782946,
      "Latitude": "40.8607479",
      "Longitude": "-73.8352367"
    },
    {
      "SegmentID": "89274",
      "RoadwayName": "East 241 Street",
      "From": "Bronx Boulevard",
      "To": "Carpenter Avenue",
      "Direction": "EB",
      "Date": "2019-11-02",
      "flow": 0.02635658914728682,
      "Latitude": "40.8870077",
      "Longitude": "-73.8653065"
    },
    {
      "SegmentID": "89274",
      "RoadwayName": "East 241 Street",
      "From": "Bronx Boulevard",
      "To": "Carpenter Avenue",
      "Direction": "WB",
      "Date": "2019-11-02",
      "flow": 0.08527131782945736,
      "Latitude": "40.8870077",
      "Longitude": "-73.8653065"
    },
    {
      "SegmentID": "116587",
      "RoadwayName": "East Gun Hill Road",
      "From": "Givan Avenue",
      "To": "Pearsall Avenue",
      "Direction": "EB",
      "Date": "2019-11-02",
      "flow": 0.027906976744186046,
      "Latitude": "40.8640107",
      "Longitude": "-73.8339775"
    },
    {
      "SegmentID": "116587",
      "RoadwayName": "East Gun Hill Road",
      "From": "Givan Avenue",
      "To": "Pearsall Avenue",
      "Direction": "WB",
      "Date": "2019-11-02",
      "flow": 0.04806201550387597,
      "Latitude": "40.8640107",
      "Longitude": "-73.8339775"
    },
    {
      "SegmentID": "178395",
      "RoadwayName": "East Gun Hill Road",
      "From": "Bronx River Parkway",
      "To": "Dead End",
      "Direction": "EB",
      "Date": "2019-11-02",
      "flow": 0.13023255813953488,
      "Latitude": "40.8640107",
      "Longitude": "-73.8339775"
    },
    {
      "SegmentID": "178395",
      "RoadwayName": "East Gun Hill Road",
      "From": "Bronx River Parkway",
      "To": "Dead End",
      "Direction": "WB",
      "Date": "2019-11-02",
      "flow": 0.27596899224806204,
      "Latitude": "40.8640107",
      "Longitude": "-73.8339775"
    },
    {
      "SegmentID": "78404",
      "RoadwayName": "East Tremont Avenue",
      "From": "Anthony Avenue",
      "To": "Dead end",
      "Direction": "EB",
      "Date": "2019-11-02",
      "flow": 0.10697674418604651,
      "Latitude": "40.8418573",
      "Longitude": "-73.8583296"
    },
    {
      "SegmentID": "78404",
      "RoadwayName": "East Tremont Avenue",
      "From": "Anthony Avenue",
      "To": "Dead End",
      "Direction": "WB",
      "Date": "2019-11-02",
      "flow": 0.12713178294573643,
      "Latitude": "40.8418573",
      "Longitude": "-73.8583296"
    },
    {
      "SegmentID": "93653",
      "RoadwayName": "East Tremont Avenue",
      "From": "Harding Avenue",
      "To": "Silver Beach Place",
      "Direction": "NB",
      "Date": "2019-11-02",
      "flow": 0.0007751937984496124,
      "Latitude": "40.8418573",
      "Longitude": "-73.8583296"
    },
    {
      "SegmentID": "93653",
      "RoadwayName": "East Tremont Avenue",
      "From": "Harding Avenue",
      "To": "Silver Beach Place",
      "Direction": "SB",
      "Date": "2019-11-02",
      "flow": 0,
      "Latitude": "40.8418573",
      "Longitude": "-73.8583296"
    },
    {
      "SegmentID": "251949",
      "RoadwayName": "Exterior Street",
      "From": "Dead End",
      "To": "Dead End",
      "Direction": "NB",
      "Date": "2019-11-02",
      "flow": 1,
      "Latitude": "40.8401745",
      "Longitude": "-73.82344175"
    },
    {
      "SegmentID": "251949",
      "RoadwayName": "Exterior Street",
      "From": "Dead End",
      "To": "Dead End",
      "Direction": "SB",
      "Date": "2019-11-02",
      "flow": 0.8697674418604651,
      "Latitude": "40.8401745",
      "Longitude": "-73.82344175"
    },
    {
      "SegmentID": "29461",
      "RoadwayName": "Fulton Street",
      "From": "Classon Avenue",
      "To": "Claver Place",
      "Direction": "EB",
      "Date": "2019-11-02",
      "flow": 0.06046511627906977,
      "Latitude": "40.7101857",
      "Longitude": "-74.0076638"
    },
    {
      "SegmentID": "29461",
      "RoadwayName": "FULTON STREET",
      "From": "Classon Avenue",
      "To": "Claver Place",
      "Direction": "WB",
      "Date": "2019-11-02",
      "flow": 0.07519379844961241,
      "Latitude": "40.7101857",
      "Longitude": "-74.0076638"
    },
    {
      "SegmentID": "176284",
      "RoadwayName": "Grand Concourse",
      "From": "Concourse Line",
      "To": "Concourse Line",
      "Direction": "NB",
      "Date": "2019-11-02",
      "flow": 0.08139534883720931,
      "Latitude": "40.8510934",
      "Longitude": "-73.9046308"
    },
    {
      "SegmentID": "176284",
      "RoadwayName": "Grand Concourse",
      "From": "Concourse Line",
      "To": "Concourse Line",
      "Direction": "SB",
      "Date": "2019-11-02",
      "flow": 0.05271317829457364,
      "Latitude": "40.8510934",
      "Longitude": "-73.9046308"
    },
    {
      "SegmentID": "148196",
      "RoadwayName": "Grand Concourse",
      "From": "East 187 Street",
      "To": "Connector",
      "Direction": "SB",
      "Date": "2019-11-02",
      "flow": 0.05116279069767442,
      "Latitude": "40.8510934",
      "Longitude": "-73.9046308"
    },
    {
      "SegmentID": "148195",
      "RoadwayName": "Grand Concourse",
      "From": "East 187 Street",
      "To": "Connector",
      "Direction": "NB",
      "Date": "2019-11-02",
      "flow": 0.07519379844961241,
      "Latitude": "40.8510934",
      "Longitude": "-73.9046308"
    },
    {
      "SegmentID": "9008598",
      "RoadwayName": "Harrod Avenue",
      "From": "Dead End",
      "To": "Dead End",
      "Direction": "NB",
      "Date": "2019-11-02",
      "flow": 0.023255813953488372,
      "Latitude": "40.8401745",
      "Longitude": "-73.82344175"
    },
    {
      "SegmentID": "9008598",
      "RoadwayName": "Harrod Avenue",
      "From": "Dead End",
      "To": "Dead End",
      "Direction": "SB",
      "Date": "2019-11-02",
      "flow": 0.024031007751937984,
      "Latitude": "40.8401745",
      "Longitude": "-73.82344175"
    },
    {
      "SegmentID": "9009984",
      "RoadwayName": "Jerome Avenue",
      "From": "East 213 Street",
      "To": "Jerome Avenue Line",
      "Direction": "NB",
      "Date": "2019-11-02",
      "flow": 0.03643410852713178,
      "Latitude": "40.8665331",
      "Longitude": "-73.8981713"
    },
    {
      "SegmentID": "9009984",
      "RoadwayName": "Jerome Avenue",
      "From": "East 213 Street",
      "To": "Jerome Avenue Line",
      "Direction": "SB",
      "Date": "2019-11-02",
      "flow": 0.03953488372093023,
      "Latitude": "40.8665331",
      "Longitude": "-73.8981713"
    },
    {
      "SegmentID": "77328",
      "RoadwayName": "Longwood Avenue",
      "From": "Prospect Avenue",
      "To": "Hewitt Place",
      "Direction": "EB",
      "Date": "2019-11-02",
      "flow": 0.02635658914728682,
      "Latitude": "40.665414",
      "Longitude": "-73.992872"
    },
    {
      "SegmentID": "77328",
      "RoadwayName": "Longwood Avenue",
      "From": "Prospect Avenue",
      "To": "Hewitt Place",
      "Direction": "WB",
      "Date": "2019-11-02",
      "flow": 0.02558139534883721,
      "Latitude": "40.665414",
      "Longitude": "-73.992872"
    },
    {
      "SegmentID": "141740",
      "RoadwayName": "Mosholu Parkway",
      "From": "Dead End",
      "To": "Major Deegan Expwy Et 12 Nb",
      "Direction": "SB",
      "Date": "2019-11-02",
      "flow": 0.08604651162790698,
      "Latitude": "40.8792799",
      "Longitude": "-73.8852693"
    },
    {
      "SegmentID": "176737",
      "RoadwayName": "Mosholu Parkway",
      "From": "Dead End",
      "To": "Dead End",
      "Direction": "NB",
      "Date": "2019-11-02",
      "flow": 0.05271317829457364,
      "Latitude": "40.8792799",
      "Longitude": "-73.8852693"
    },