{
  "1:00-2:00AM": [
    {
      "SegmentID": "33758",
      "RoadwayName": "10TH AVENUE",
      "From": "West 45th Street",
      "To": "West 46th Street",
      "Direction": "NB",
      "Date": "2020-10-15",
      "flow": 0.8175675675675675,
      "Latitude": "40.761801",
      "Longitude": "-73.994646"
    },
    {
      "SegmentID": "57189",
      "RoadwayName": "101 AVENUE",
      "From": "Waltham Street",
      "To": "146th Street",
      "Direction": "WB",
      "Date": "2020-10-15",
      "flow": 0.04504504504504504,
      "Latitude": "40.7127281",
      "Longitude": "-74.0060152"
    },
    {
      "SegmentID": "82326",
      "RoadwayName": "108 STREET",
      "From": "62nd Avenue",
      "To": "Apex Place",
      "Direction": "NB",
      "Date": "2020-10-15",
      "flow": 0.033783783783783786,
      "Latitude": "40.7941983",
      "Longitude": "-73.9468558"
    },
    {
      "SegmentID": "82326",
      "RoadwayName": "108 STREET",
      "From": "62nd Avenue",
      "To": "Apex Place",
      "Direction": "SB",
      "Date": "2020-10-15",
      "flow": 0.12837837837837837,
      "Latitude": "40.7941983",
      "Longitude": "-73.9468558"
    },
    {
      "SegmentID": "63023",
      "RoadwayName": "120 AVENUE",
      "From": "191th Street",
      "To": "192th Street",
      "Direction": "EB",
      "Date": "2020-10-15",
      "flow": 0.08783783783783784,
      "Latitude": "40.7340069",
      "Longitude": "-73.7801978"
    },
    {
      "SegmentID": "63023",
      "RoadwayName": "120 AVENUE",
      "From": "191th Street",
      "To": "192th Street",
      "Direction": "WB",
      "Date": "2020-10-15",
      "flow": 0.038288288288288286,
      "Latitude": "40.7340069",
      "Longitude": "-73.7801978"
    },
    {
      "SegmentID": "19653",
      "RoadwayName": "13th AVENUE",
      "From": "71st Street",
      "To": "72nd Street",
      "Direction": "EB",
      "Date": "2020-10-15",
      "flow": 0.03153153153153153,
      "Latitude": "40.6193283",
      "Longitude": "-73.9989445"
    },
    {
      "SegmentID": "19653",
      "RoadwayName": "13th AVENUE",
      "From": "71st Street",
      "To": "72nd Street",
      "Direction": "WB",
      "Date": "2020-10-15",
      "flow": 0.04279279279279279,
      "Latitude": "40.6193283",
      "Longitude": "-73.9989445"
    },
    {
      "SegmentID": "19762",
      "RoadwayName": "14th AVENUE",
      "From": "71st Street",
      "To": "72nd Street",
      "Direction": "NB",
      "Date": "2020-10-15",
      "flow": 0.06306306306306306,
      "Latitude": "40.6193283",
      "Longitude": "-73.9989445"
    },
    {
      "SegmentID": "19762",
      "RoadwayName": "14th AVENUE",
      "From": "71st Street",
      "To": "72nd Street",
      "Direction": "SB",
      "Date": "2020-10-15",
      "flow": 0.05405405405405406,
      "Latitude": "40.6193283",
      "Longitude": "-73.9989445"
    },
    {
      "SegmentID": "21018",
      "RoadwayName": "3rd AVENUE",
      "From": "30th Street",
      "To": "31st Street",
      "Direction": "SB",
      "Date": "2020-10-15",
      "flow": 0.14864864864864866,
      "Latitude": "40.7599886",
      "Longitude": "-73.9281136"
    },
    {
      "SegmentID": "21022",
      "RoadwayName": "3rd AVENUE",
      "From": "30th Street",
      "To": "31st Street",
      "Direction": "NB",
      "Date": "2020-10-15",
      "flow": 0.26576576576576577,
      "Latitude": "40.7599886",
      "Longitude": "-73.9281136"
    },
    {
      "SegmentID": "22806",
      "RoadwayName": "3rd AVENUE",
      "From": "Baltic Street",
      "To": "Butler Street",
      "Direction": "NB",
      "Date": "2020-10-15",
      "flow": 0.07432432432432433,
      "Latitude": "40.6884386",
      "Longitude": "-74.0011557"
    },
    {
      "SegmentID": "22806",
      "RoadwayName": "3rd AVENUE",
      "From": "Baltic Street",
      "To": "Butler Street",
      "Direction": "SB",
      "Date": "2020-10-15",
      "flow": 0.06306306306306306,
      "Latitude": "40.6884386",
      "Longitude": "-74.0011557"
    },
    {
      "SegmentID": "133942",
      "RoadwayName": "65th Street",
      "From": "5th Avenue",
      "To": "6th Avenue",
      "Direction": "EB",
      "Date": "2020-10-15",
      "flow": 0.07657657657657657,
      "Latitude": "40.7647467",
      "Longitude": "-73.9726829"
    },
    {
      "SegmentID": "133942",
      "RoadwayName": "65th Street",
      "From": "5th Avenue",
      "To": "6th Avenue",
      "Direction": "WB",
      "Date": "2020-10-15",
      "flow": 0.11486486486486487,
      "Latitude": "40.7647467",
      "Longitude": "-73.9726829"
    },
    {
      "SegmentID": "33850",
      "RoadwayName": "9TH AVENUE",
      "From": "West 46th Street",
      "To": "West 47th Street",
      "Direction": "SB",
      "Date": "2020-10-15",
      "flow": 0.7635135135135135,
      "Latitude": "40.7582569",
      "Longitude": "-73.9842778"
    },
    {
      "SegmentID": "9003670",
      "RoadwayName": "ASTOR AVENUE",
      "From": "Wallace Avenue",
      "To": "Barnes Avenue",
      "Direction": "EB",
      "Date": "2020-10-15",
      "flow": 0.06531531531531531,
      "Latitude": "40.8543854",
      "Longitude": "-73.8648158"
    },
    {
      "SegmentID": "9003670",
      "RoadwayName": "ASTOR AVENUE",
      "From": "Wallace Avenue",
      "To": "Barnes Avenue",
      "Direction": "WB",
      "Date": "2020-10-15",
      "flow": 0.033783783783783786,
      "Latitude": "40.8543854",
      "Longitude": "-73.8648158"
    },
    {
      "SegmentID": "157870",
      "RoadwayName": "ATLANTIC AVENUE",
      "From": "Crescent Street",
      "To": "Autumn Avenue",
      "Direction": "EB",
      "Date": "2020-10-15",
      "flow": 0.25225225225225223,
      "Latitude": "40.6833496",
      "Longitude": "-73.873286"
    },
    {
      "SegmentID": "158264",
      "RoadwayName": "ATLANTIC AVENUE",
      "From": "Hemlock Street",
      "To": "Autumn Avenue",
      "Direction": "WB",
      "Date": "2020-10-15",
      "flow": 0.24774774774774774,
      "Latitude": "40.684704",
      "Longitude": "-73.8713701"
    },
    {
      "SegmentID": "41720",
      "RoadwayName": "AVENUE D",
      "From": "Brooklyn Avenue",
      "To": "East 37th Street",
      "Direction": "EB",
      "Date": "2020-10-15",
      "flow": 0.11711711711711711,
      "Latitude": "40.6313796",
      "Longitude": "-73.9416905"
    },
    {
      "SegmentID": "41720",
      "RoadwayName": "AVENUE D",
      "From": "Brooklyn Avenue",
      "To": "East 37th Street",
      "Direction": "WB",
      "Date": "2020-10-15",
      "flow": 0.0945945945945946,
      "Latitude": "40.6313796",
      "Longitude": "-73.9416905"
    },
    {
      "SegmentID": "41040",
      "RoadwayName": "AVENUE J",
      "From": "Schenectady Avenue",
      "To": "East 48th Street",
      "Direction": "EB",
      "Date": "2020-10-15",
      "flow": 0.04504504504504504,
      "Latitude": "40.625039",
      "Longitude": "-73.960803"
    },
    {
      "SegmentID": "41040",
      "RoadwayName": "AVENUE J",
      "From": "Schenectady Avenue",
      "To": "East 48th Street",
      "Direction": "WB",
      "Date": "2020-10-15",
      "flow": 0.036036036036036036,
      "Latitude": "40.625039",
      "Longitude": "-73.960803"
    },
    {
      "SegmentID": "27139",
      "RoadwayName": "AVENUE M",
      "From": "East 15th Street",
      "To": "Buckingham Road",
      "Direction": "EB",
      "Date": "2020-10-15",
      "flow": 0.10810810810810811,
      "Latitude": "40.6178971",
      "Longitude": "-73.959474"
    },
    {
      "SegmentID": "27139",
      "RoadwayName": "AVENUE M",
      "From": "East 15th Street",
      "To": "Buckingham Road",
      "Direction": "WB",
      "Date": "2020-10-15",
      "flow": 0.07207207207207207,
      "Latitude": "40.6178971",
      "Longitude": "-73.959474"
    },
    {
      "SegmentID": "41000",
      "RoadwayName": "AVENUE M",
      "From": "East 45th Street",
      "To": "East 46th Street",
      "Direction": "WB",
      "Date": "2020-10-15",
      "flow": 0.06306306306306306,
      "Latitude": "40.6178971",
      "Longitude": "-73.959474"
    },
    {
      "SegmentID": "27121",
      "RoadwayName": "AVENUE N",
      "From": "Brington Line",
      "To": "East 16th Street",
      "Direction": "EB",
      "Date": "2020-10-15",
      "flow": 0.19144144144144143,
      "Latitude": "40.5873782",
      "Longitude": "-73.9532845"
    },
    {
      "SegmentID": "34188",
      "RoadwayName": "6TH AVENUE",
      "From": "West 45th Street",
      "To": "West 46th Street",
      "Direction": "NB",
      "Date": "2020-10-15",
      "flow": 0.8896396396396397,
      "Latitude": "40.761801",
      "Longitude": "-73.994646"
    },
    {
      "SegmentID": "20337",
      "RoadwayName": "AVENUE P",
      "From": "West 10th Street",
      "To": "West 9th Street",
      "Direction": "EB",
      "Date": "2020-10-15",
      "flow": 0.06531531531531531,
      "Latitude": "40.608944",
      "Longitude": "-73.973022"
    },
    {
      "SegmentID": "20337",
      "RoadwayName": "AVENUE P",
      "From": "West 10th Street",
      "To": "West 9th Street",
      "Direction": "WB",
      "Date": "2020-10-15",
      "flow": 0.07207207207207207,
      "Latitude": "40.608944",
      "Longitude": "-73.973022"
    },
    {
      "SegmentID": "41312",
      "RoadwayName": "AVENUE U",
      "From": "East 56th Street",
      "To": "Pearson Street",
      "Direction": "EB",
      "Date": "2020-10-15",
      "flow": 0.12387387387387387,
      "Latitude": "40.6478985",
      "Longitude": "-73.9241338"
    },
    {
      "SegmentID": "41312",
      "RoadwayName": "AVENUE U",
      "From": "East 56th Street",
      "To": "Pearson Street",
      "Direction": "WB",
      "Date": "2020-10-15",
      "flow": 0.09009009009009009,
      "Latitude": "40.6478985",
      "Longitude": "-73.9241338"
    },
    {
      "SegmentID": "41667",
      "RoadwayName": "AVENUE U",
      "From": "East 71st Street",
      "To": "Veterans Avenue",
      "Direction": "EB",
      "Date": "2020-10-15",
      "flow": 0.02702702702702703,
      "Latitude": "40.6166869",
      "Longitude": "-73.9039399"
    },
    {
      "SegmentID": "41667",
      "RoadwayName": "AVENUE U",
      "From": "East 71st Street",
      "To": "Veterans Avenue",
      "Direction": "WB",
      "Date": "2020-10-15",
      "flow": 0.018018018018018018,
      "Latitude": "40.6166869",
      "Longitude": "-73.9039399"
    },
    {
      "SegmentID": "19550",
      "RoadwayName": "BAY RIDGE AVENUE",
      "From": "11th Avenue",
      "To": "12th Avenue",
      "Direction": "EB",
      "Date": "2020-10-15",
      "flow": 0.038288288288288286,
      "Latitude": "40.7444306",
      "Longitude": "-74.0084954"
    },
    {
      "SegmentID": "19550",
      "RoadwayName": "BAY RIDGE AVENUE",
      "From": "11th Avenue",
      "To": "12th Avenue",
      "Direction": "WB",
      "Date": "2020-10-15",
      "flow": 0.006756756756756757,
      "Latitude": "40.7444306",
      "Longitude": "-74.0084954"
    },
    {
      "SegmentID": "20149",
      "RoadwayName": "BAY RIDGE AVENUE",
      "From": "18th Avenue",
      "To": "19th Avenue",
      "Direction": "EB",
      "Date": "2020-10-15",
      "flow": 0.03153153153153153,
      "Latitude": "40.620671",
      "Longitude": "-73.990414"
    },
    {
      "SegmentID": "132816",
      "RoadwayName": "BAYCHESTER AVENUE",
      "From": "Bay Plaza Boulevard",
      "To": "Hutchinson River Parkway",
      "Direction": "NB",
      "Date": "2020-10-15",
      "flow": 0.02027027027027027,
      "Latitude": "40.8670077",
      "Longitude": "-73.8306367"
    },
    {
      "SegmentID": "254353",
      "RoadwayName": "BEDFORD AVENUE",
      "From": "Lorimer Street",
      "To": "Union Avenue",
      "Direction": "EB",
      "Date": "2020-10-15",
      "flow": 0.08108108108108109,
      "Latitude": "40.7174046",
      "Longitude": "-73.9570004"
    },
    {
      "SegmentID": "27462",
      "RoadwayName": "BEDFORD AVENUE",
      "From": "Quentin Road",
      "To": "Avenue R",
      "Direction": "NB",
      "Date": "2020-10-15",
      "flow": 0.02927927927927928,
      "Latitude": "40.7174046",
      "Longitude": "-73.9570004"
    },
    {
      "SegmentID": "27462",
      "RoadwayName": "BEDFORD AVENUE",
      "From": "Quentin Road",
      "To": "Avenue R",
      "Direction": "SB",
      "Date": "2020-10-15",
      "flow": 0.0518018018018018,
      "Latitude": "40.7174046",
      "Longitude": "-73.9570004"
    },
    {
      "SegmentID": "176365",
      "RoadwayName": "BEDFORD PARK BOULEVARD",
      "From": "Grand Concourse",
      "To": "Briggs Avenue",
      "Direction": "NB",
      "Date": "2020-10-15",
      "flow": 0.1036036036036036,
      "Latitude": "40.8510934",
      "Longitude": "-73.9046308"
    },
    {
      "SegmentID": "176365",
      "RoadwayName": "BEDFORD PARK BOULEVARD",
      "From": "Grand Concourse",
      "To": "Briggs Avenue",
      "Direction": "SB",
      "Date": "2020-10-15",
      "flow": 0.11036036036036036,
      "Latitude": "40.8510934",
      "Longitude": "-73.9046308"
    },
    {
      "SegmentID": "154787",
      "RoadwayName": "BEDFORD PARK BOULEVARD",
      "From": "Grand Concourse",
      "To": "Briggs Avenue",
      "Direction": "NB",
      "Date": "2020-10-15",
      "flow": 0.0945945945945946,
      "Latitude": "40.8510934",
      "Longitude": "-73.9046308"
    },
    {
      "SegmentID": "154501",
      "RoadwayName": "BEDFORD PARK BOULEVARD",
      "From": "Grand Concourse",
      "To": "Briggs Avenue",
      "Direction": "SB",
      "Date": "2020-10-15",
      "flow": 0.12387387387387387,
      "Latitude": "40.8510934",
      "Longitude": "-73.9046308"
    },
    {
      "SegmentID": "148978",
      "RoadwayName": "BELL BOULEVARD",
      "From": "67th Avenue",
      "To": "67th Avenue",
      "Direction": "NB",
      "Date": "2020-10-15",
      "flow": 0.02027027027027027,
      "Latitude": "40.7267968",
      "Longitude": "-73.8532472"
    },
    {
      "SegmentID": "148980",
      "RoadwayName": "BELL BOULEVARD",
      "From": "67th Avenue",
      "To": "67th Avenue",
      "Direction": "SB",
      "Date": "2020-10-15",
      "flow": 0.006756756756756757,
      "Latitude": "40.7267968",
      "Longitude": "-73.8532472"
    },
    {
      "SegmentID": "87808",
      "RoadwayName": "BRONXWOOD AVENUE",
      "From": "Mace Avenue",
      "To": "Allerton Avenue",
      "Direction": "NB",
      "Date": "2020-10-15",
      "flow": 0.02702702702702703,
      "Latitude": "40.8709169",
      "Longitude": "-73.8613921"
    },
    {
      "SegmentID": "87808",
      "RoadwayName": "BRONXWOOD AVENUE",
      "From": "Mace Avenue",
      "To": "Allerton Avenue",
      "Direction": "SB",
      "Date": "2020-10-15",
      "flow": 0.024774774774774775,
      "Latitude": "40.8709169",
      "Longitude": "-73.8613921"
    },
    {
      "SegmentID": "70364",
      "RoadwayName": "BROOK AVENUE",
      "From": "East 152nd Street",
      "To": "East 153rd Street",
      "Direction": "SB",
      "Date": "2020-10-15",
      "flow": 0.06531531531531531,
      "Latitude": "40.807555",
      "Longitude": "-73.9192429"
    },
    {
      "SegmentID": "47359",
      "RoadwayName": "BUSHWICK AVENUE",
      "From": "Cemetery Of Evergrns Boundary",
      "To": "Highland Boulevard",
      "Direction": "EB",
      "Date": "2020-10-15",
      "flow": 0.5518018018018018,
      "Latitude": "40.6815336",
      "Longitude": "-73.8943809"
    },
    {
      "SegmentID": "47359",
      "RoadwayName": "BUSHWICK AVENUE",
      "From": "Cemetery Of Evergrns Boundary",
      "To": "Highland Boulevard",
      "Direction": "WB",
      "Date": "2020-10-15",
      "flow": 0.545045045045045,
      "Latitude": "40.6815336",
      "Longitude": "-73.8943809"
    },
    {
      "SegmentID": "28234",
      "RoadwayName": "CATON AVENUE",
      "From": "East 18th Street",
      "To": "St Pauls Place",
      "Direction": "EB",
      "Date": "2020-10-15",
      "flow": 0.17792792792792791,
      "Latitude": "40.6475964",
      "Longitude": "-73.9733121"
    },
    {
      "SegmentID": "28234",
      "RoadwayName": "CATON AVENUE",
      "From": "East 18th Street",
      "To": "St Pauls Place",
      "Direction": "WB",
      "Date": "2020-10-15",
      "flow": 0.14864864864864866,
      "Latitude": "40.6475964",
      "Longitude": "-73.9733121"
    },
    {
      "SegmentID": "28015",
      "RoadwayName": "CONEY ISLAND AVENUE",
      "From": "Friel Place",
      "To": "Church Avenue",
      "Direction": "NB",
      "Date": "2020-10-15",
      "flow": 0.09684684684684684,
      "Latitude": "40.6299377",
      "Longitude": "-73.9661411"
    },
    {
      "SegmentID": "28015",
      "RoadwayName": "CONEY ISLAND AVENUE",
      "From": "Friel Place",
      "To": "Church Avenue",
      "Direction": "SB",
      "Date": "2020-10-15",
      "flow": 0.18243243243243243,
      "Latitude": "40.6299377",
      "Longitude": "-73.9661411"
    },
    {
      "SegmentID": "26932",
      "RoadwayName": "CONEY ISLAND AVENUE",
      "From": "Parkville Avenue",
      "To": "Foster Avenue",
      "Direction": "NB",
      "Date": "2020-10-15",
      "flow": 0.15990990990990991,
      "Latitude": "40.6299377",
      "Longitude": "-73.9661411"
    },
    {
      "SegmentID": "26932",
      "RoadwayName": "CONEY ISLAND AVENUE",
      "From": "Parkville Avenue",
      "To": "Foster Avenue",
      "Direction": "SB",
      "Date": "2020-10-15",
      "flow": 0.25675675675675674,
      "Latitude": "40.6299377",
      "Longitude": "-73.9661411"
    },
    {
      "SegmentID": "217716",
      "RoadwayName": "COURTLANDT AVENUE",
      "From": "East 153rd Street",
      "To": "East 154th Street",
      "Direction": "NB",
      "Date": "2020-10-15",
      "flow": 0.12837837837837837,
      "Latitude": "40.8180575",
      "Longitude": "-73.9133408"
    },
    {
      "SegmentID": "150549",
      "RoadwayName": "CROSS BAY BOULEVARD",
      "From": "165th Avenue",
      "To": "East 6th Rd",
      "Direction": "NB",
      "Date": "2020-10-15",
      "flow": 0.15090090090090091,
      "Latitude": "40.6491463",
      "Longitude": "-73.8372764"
    },
    {
      "SegmentID": "121069",
      "RoadwayName": "CROTONA AVENUE",
      "From": "Claremont Parkway",
      "To": "Crotona Park North",
      "Direction": "NB",
      "Date": "2020-10-15",
      "flow": 0.0990990990990991,
      "Latitude": "40.8394904",
      "Longitude": "-73.9045399"
    },
    {
      "SegmentID": "121069",
      "RoadwayName": "CROTONA AVENUE",
      "From": "Claremont Parkway",
      "To": "Crotona Park North",
      "Direction": "SB",
      "Date": "2020-10-15",
      "flow": 0.11261261261261261,
      "Latitude": "40.8394904",
      "Longitude": "-73.9045399"
    },
    {
      "SegmentID": "35257",
      "RoadwayName": "DRIGGS AVENUE",
      "From": "Lorimer Street",
      "To": "Union Avenue",
      "Direction": "WB",
      "Date": "2020-10-15",
      "flow": 0.09234234234234234,
      "Latitude": "40.7200011",
      "Longitude": "-73.9532534"
    },
    {
      "SegmentID": "70360",
      "RoadwayName": "EAST 149th STREET",
      "From": "Eagle Avenue",
      "To": "Cauldwell Avenue",
      "Direction": "EB",
      "Date": "2020-10-15",
      "flow": 0.22522522522522523,
      "Latitude": "40.822181",
      "Longitude": "-73.908418"
    },
    {
      "SegmentID": "70360",
      "RoadwayName": "EAST 149TH STREET",
      "From": "Eagle Avenue",
      "To": "Cauldwell Avenue",
      "Direction": "WB",
      "Date": "2020-10-15",
      "flow": 0.1891891891891892,
      "Latitude": "40.822181",
      "Longitude": "-73.908418"
    },
    {
      "SegmentID": "70586",
      "RoadwayName": "EAST 161st STREET",
      "From": "Eagle Avenue",
      "To": "Cauldwell Avenue",
      "Direction": "EB",
      "Date": "2020-10-15",
      "flow": 0.060810810810810814,
      "Latitude": "40.822181",
      "Longitude": "-73.908418"
    },
    {
      "SegmentID": "70607",
      "RoadwayName": "EAST 163rd STREET",
      "From": "Eagle Avenue",
      "To": "Cauldwell Avenue",
      "Direction": "EB",
      "Date": "2020-10-15",
      "flow": 0.2927927927927928,
      "Latitude": "40.822181",
      "Longitude": "-73.908418"
    },
    {
      "SegmentID": "70607",
      "RoadwayName": "EAST 163rd STREET",
      "From": "Eagle Avenue",
      "To": "Cauldwell Avenue",
      "Direction": "WB",
      "Date": "2020-10-15",
      "flow": 0.28378378378378377,
      "Latitude": "40.822181",
      "Longitude": "-73.908418"
    },
    {
      "SegmentID": "77429",
      "RoadwayName": "EAST 163rd STREET",
      "From": "Intervale Avenue",
      "To": "Kelly Street",
      "Direction": "EB",
      "Date": "2020-10-15",
      "flow": 0.25225225225225223,
      "Latitude": "40.8221585",
      "Longitude": "-73.8967991"
    },
    {
      "SegmentID": "77429",
      "RoadwayName": "EAST 163rd STREET",
      "From": "Intervale Avenue",
      "To": "Kelly Street",
      "Direction": "WB",
      "Date": "2020-10-15",
      "flow": 0.32207207207207206,
      "Latitude": "40.8221585",
      "Longitude": "-73.8967991"
    },
    {
      "SegmentID": "9009765",
      "RoadwayName": "EAST 169th STREET",
      "From": "Tinton Avenue",
      "To": "Union Avenue",
      "Direction": "EB",
      "Date": "2020-10-15",
      "flow": 0.1036036036036036,
      "Latitude": "40.8178792",
      "Longitude": "-73.9050078"
    },
    {
      "SegmentID": "9009765",
      "RoadwayName": "EAST 169th STREET",
      "From": "Tinton Avenue",
      "To": "Union Avenue",
      "Direction": "WB",
      "Date": "2020-10-15",
      "flow": 0.12387387387387387,
      "Latitude": "40.8178792",
      "Longitude": "-73.9050078"
    },
    {
      "SegmentID": "174360",
      "RoadwayName": "EAST 170th STREET",
      "From": "Grant Avenue",
      "To": "Walton Avenue",
      "Direction": "EB",
      "Date": "2020-10-15",
      "flow": 0.06981981981981981,
      "Latitude": "40.6768466",
      "Longitude": "-73.8653952"
    },
    {
      "SegmentID": "174360",
      "RoadwayName": "EAST 170th STREET",
      "From": "Grant Avenue",
      "To": "Morris Avenue",
      "Direction": "WB",
      "Date": "2020-10-15",
      "flow": 0.08108108108108109,
      "Latitude": "40.6768466",
      "Longitude": "-73.8653952"
    },
    {
      "SegmentID": "146865",
      "RoadwayName": "EAST 170th STREET",
      "From": "Grant Avenue",
      "To": "Morris Avenue",
      "Direction": "EB",
      "Date": "2020-10-15",
      "flow": 0.0990990990990991,
      "Latitude": "40.6768466",
      "Longitude": "-73.8653952"
    },
    {
      "SegmentID": "146864",
      "RoadwayName": "EAST 170th STREET",
      "From": "Grant Avenue",
      "To": "Morris Avenue",
      "Direction": "WB",
      "Date": "2020-10-15",
      "flow": 0.13963963963963963,
      "Latitude": "40.6768466",
      "Longitude": "-73.8653952"
    },
    {
      "SegmentID": "78940",
      "RoadwayName": "EAST 174th STREET",
      "From": "Hoe Avenue",
      "To": "Vyse Avenue",
      "Direction": "EB",
      "Date": "2020-10-15",
      "flow": 0.06756756756756757,
      "Latitude": "40.833738",
      "Longitude": "-73.888802"
    },
    {
      "SegmentID": "78940",
      "RoadwayName": "EAST 174th STREET",
      "From": "Hoe Avenue",
      "To": "Vyse Avenue",
      "Direction": "WB",
      "Date": "2020-10-15",
      "flow": 0.11711711711711711,
      "Latitude": "40.833738",
      "Longitude": "-73.888802"
    },
    {
      "SegmentID": "79377",
      "RoadwayName": "EAST 177th STREET",
      "From": "East Tremont Avenue",
      "To": "Devoe Avenue",
      "Direction": "NB",
      "Date": "2020-10-15",
      "flow": 0.17567567567567569,
      "Latitude": "40.8418573",
      "Longitude": "-73.8583296"
    },
    {
      "SegmentID": "79377",
      "RoadwayName": "EAST 177th STREET",
      "From": "East Tremont Avenue",
      "To": "Devoe Avenue",
      "Direction": "SB",
      "Date": "2020-10-15",
      "flow": 0.27927927927927926,
      "Latitude": "40.8418573",
      "Longitude": "-73.8583296"
    },
    {
      "SegmentID": "146887",
      "RoadwayName": "EAST BURNSIDE AVENUE",
      "From": "Creston Avenue",
      "To": "Grand Concourse",
      "Direction": "EB",
      "Date": "2020-10-15",
      "flow": 0.10585585585585586,
      "Latitude": "40.8641451",
      "Longitude": "-73.8971816"
    },
    {
      "SegmentID": "146888",
      "RoadwayName": "EAST BURNSIDE AVENUE",
      "From": "Grand Concourse",
      "To": "Valentine Avenue",
      "Direction": "WB",
      "Date": "2020-10-15",
      "flow": 0.11486486486486487,
      "Latitude": "40.8510934",
      "Longitude": "-73.9046308"
    },
    {
      "SegmentID": "146886",
      "RoadwayName": "EAST BURNSIDE AVENUE",
      "From": "Grand Concourse",
      "To": "Valentine Avenue",
      "Direction": "EB",
      "Date": "2020-10-15",
      "flow": 0.13513513513513514,
      "Latitude": "40.8510934",
      "Longitude": "-73.9046308"
    },
    {
      "SegmentID": "146496",
      "RoadwayName": "EAST BURNSIDE AVENUE",
      "From": "Grand Concourse",
      "To": "Valentine Avenue",
      "Direction": "WB",
      "Date": "2020-10-15",
      "flow": 0.14864864864864866,
      "Latitude": "40.8510934",
      "Longitude": "-73.9046308"
    },
    {
      "SegmentID": "146547",
      "RoadwayName": "EAST FORDHAM ROAD",
      "From": "Bronx River Shoreline",
      "To": "Bronx River Parkway",
      "Direction": "WB",
      "Date": "2020-10-15",
      "flow": 0.6058558558558559,
      "Latitude": "40.8554124",
      "Longitude": "-73.8767367"
    },
    {
      "SegmentID": "178396",
      "RoadwayName": "EAST GUN HILL ROAD",
      "From": "Bronx Boulevard",
      "To": "Bronx River Parkway",
      "Direction": "EB",
      "Date": "2020-10-15",
      "flow": 0.49099099099099097,
      "Latitude": "40.8640107",
      "Longitude": "-73.8339775"
    },
    {
      "SegmentID": "178396",
      "RoadwayName": "EAST GUN HILL ROAD",
      "From": "Bronx Boulevard",
      "To": "Bronx River Parkway",
      "Direction": "WB",
      "Date": "2020-10-15",
      "flow": 0.7680180180180181,
      "Latitude": "40.8640107",
      "Longitude": "-73.8339775"
    },
    {
      "SegmentID": "9014434",
      "RoadwayName": "EAST TREMONT AVENUE",
      "From": "Bronx River Shoreline",
      "To": "East 177th Street",
      "Direction": "EB",
      "Date": "2020-10-15",
      "flow": 0.3490990990990991,
      "Latitude": "40.8363101",
      "Longitude": "-73.874253"
    },
    {
      "SegmentID": "9014434",
      "RoadwayName": "EAST TREMONT AVENUE",
      "From": "Bronx River Shoreline",
      "To": "East 177th Street",
      "Direction": "WB",
      "Date": "2020-10-15",
      "flow": 0.28153153153153154,
      "Latitude": "40.8363101",
      "Longitude": "-73.874253"
    },
    {
      "SegmentID": "145229",
      "RoadwayName": "EASTERN PARKWAY",
      "From": "Broadway",
      "To": "Cooke Ct",
      "Direction": "SB",
      "Date": "2020-10-15",
      "flow": 0.26576576576576577,
      "Latitude": "40.8028269",
      "Longitude": "-73.9675054"
    },
    {
      "SegmentID": "157872",
      "RoadwayName": "EASTERN PARKWAY",
      "From": "Broadway",
      "To": "Cooke Ct",
      "Direction": "NB",
      "Date": "2020-10-15",
      "flow": 0.18693693693693694,
      "Latitude": "40.8028269",
      "Longitude": "-73.9675054"
    },
    {
      "SegmentID": "28637",
      "RoadwayName": "FLATBUSH AVENUE",
      "From": "Glenwood Road",
      "To": "East 29th Street",
      "Direction": "NB",
      "Date": "2020-10-15",
      "flow": 0.3918918918918919,
      "Latitude": "40.6031817",
      "Longitude": "-73.9152853"
    },
    {
      "SegmentID": "28637",
      "RoadwayName": "FLATBUSH AVENUE",
      "From": "Glenwood Road",
      "To": "East 29th Street",
      "Direction": "SB",
      "Date": "2020-10-15",
      "flow": 0.3738738738738739,
      "Latitude": "40.6031817",
      "Longitude": "-73.9152853"
    },
    {
      "SegmentID": "9005719",
      "RoadwayName": "FLATLANDS AVENUE",
      "From": "East 108th Street",
      "To": "Williams Avenue",
      "Direction": "NB",
      "Date": "2020-10-15",
      "flow": 0.2927927927927928,
      "Latitude": "40.651881",
      "Longitude": "-73.895861"
    },
    {
      "SegmentID": "9005717",
      "RoadwayName": "FLATLANDS AVENUE",
      "From": "East 108th Street",
      "To": "Williams Avenue",
      "Direction": "SB",
      "Date": "2020-10-15",
      "flow": 0.28153153153153154,
      "Latitude": "40.651881",
      "Longitude": "-73.895861"
    },
    {
      "SegmentID": "42542",
      "RoadwayName": "FLATLANDS AVENUE",
      "From": "East 78th Street",
      "To": "East 79th Street",
      "Direction": "EB",
      "Date": "2020-10-15",
      "flow": 0.20945945945945946,
      "Latitude": "40.637847",
      "Longitude": "-73.918436"
    },
    {
      "SegmentID": "42542",
      "RoadwayName": "FLATLANDS AVENUE",
      "From": "East 78th Street",
      "To": "East 79th Street",
      "Direction": "WB",
      "Date": "2020-10-15",
      "flow": 0.32657657657657657,
      "Latitude": "40.637847",
      "Longitude": "-73.918436"
    },
    {
      "SegmentID": "150110",
      "RoadwayName": "FRANCIS LEWIS BOULEVARD",
      "From": "Horace Harding Expy",
      "To": "73rd Avenue",
      "Direction": "SB",
      "Date": "2020-10-15",
      "flow": 0.02702702702702703,
      "Latitude": "40.77318",
      "Longitude": "-73.7958221"
    },
    {
      "SegmentID": "156785",
      "RoadwayName": "FRANCIS LEWIS BOULEVARD",
      "From": "Horace Harding Expy",
      "To": "73rd Avenue",
      "Direction": "NB",
      "Date": "2020-10-15",
      "flow": 0.018018018018018018,
      "Latitude": "40.77318",
      "Longitude": "-73.7958221"
    },
    {
      "SegmentID": "19559",
      "RoadwayName": "FT HAMILTON PARKWAY",
      "From": "66th Street",
      "To": "67th Street",
      "Direction": "EB",
      "Date": "2020-10-15",
      "flow": 0.11036036036036036,
      "Latitude": "40.7249332",
      "Longitude": "-73.8985833"
    },
    {
      "SegmentID": "19559",
      "RoadwayName": "FT HAMILTON PARKWAY",
      "From": "66th Street",
      "To": "67th Street",
      "Direction": "WB",
      "Date": "2020-10-15",
      "flow": 0.12162162162162163,
      "Latitude": "40.7249332",
      "Longitude": "-73.8985833"
    },
    {
      "SegmentID": "110263",
      "RoadwayName": "GLEN STREET",
      "From": "Lois Lane",
      "To": "Fahy Avenue",
      "Direction": "NB",
      "Date": "2020-10-15",
      "flow": 0.02927927927927928,
      "Latitude": "40.612213",
      "Longitude": "-74.175561"
    },
    {
      "SegmentID": "176279",
      "RoadwayName": "GRAND CONCOURSE",
      "From": "East 188th Street",
      "To": "East 184th Street",
      "Direction": "NB",
      "Date": "2020-10-15",
      "flow": 0.15090090090090091,
      "Latitude": "40.8510934",
      "Longitude": "-73.9046308"
    },
    {
      "SegmentID": "176279",
      "RoadwayName": "GRAND CONCOURSE",
      "From": "East 188th Street",
      "To": "East 184th Street",
      "Direction": "SB",
      "Date": "2020-10-15",
      "flow": 0.14189189189189189,
      "Latitude": "40.8510934",
      "Longitude": "-73.9046308"
    },
    {
      "SegmentID": "148198",
      "RoadwayName": "GRAND CONCOURSE",
      "From": "East 184th Street",
      "To": "East 187th Street",
      "Direction": "SB",
      "Date": "2020-10-15",
      "flow": 0.15990990990990991,
      "Latitude": "40.8510934",
      "Longitude": "-73.9046308"
    },
    {
      "SegmentID": "148197",
      "RoadwayName": "GRAND CONCOURSE",
      "From": "East 184th Street",
      "To": "East 187th Street",
      "Direction": "NB",
      "Date": "2020-10-15",
      "flow": 0.20945945945945946,
      "Latitude": "40.8510934",
      "Longitude": "-73.9046308"
    },
    {
      "SegmentID": "184562",
      "RoadwayName": "GRAND CONCOURSE",
      "From": "East Mt Eve Avenue",
      "To": "Hawkstone Street",
      "Direction": "NB",
      "Date": "2020-10-15",
      "flow": 0.16891891891891891,
      "Latitude": "40.8510934",
      "Longitude": "-73.9046308"
    },
    {
      "SegmentID": "184562",
      "RoadwayName": "GRAND CONCOURSE",
      "From": "East Mt Eve Avenue",
      "To": "Hawkstone Street",
      "Direction": "SB",
      "Date": "2020-10-15",
      "flow": 0.2072072072072072,
      "Latitude": "40.8510934",
      "Longitude": "-73.9046308"
    },
    {
      "SegmentID": "144881",
      "RoadwayName": "GRAND CONCOURSE",
      "From": "Hawkstone Street",
      "To": "East Mt Eden Avenue",
      "Direction": "SB",
      "Date": "2020-10-15",
      "flow": 0.1891891891891892,
      "Latitude": "40.8510934",
      "Longitude": "-73.9046308"
    },
    {
      "SegmentID": "149759",
      "RoadwayName": "GRAND CONCOURSE",
      "From": "Hawkstone Street",
      "To": "Mt Eden Parkway",
      "Direction": "NB",
      "Date": "2020-10-15",
      "flow": 0.16216216216216217,
      "Latitude": "40.8510934",
      "Longitude": "-73.9046308"
    },
    {
      "SegmentID": "31123",
      "RoadwayName": "GRAND STREET",
      "From": "Union Avenue",
      "To": "Lorimer Street",
      "Direction": "EB",
      "Date": "2020-10-15",
      "flow": 0.10585585585585586,
      "Latitude": "40.7132751",
      "Longitude": "-73.9776678"
    },
    {
      "SegmentID": "31123",
      "RoadwayName": "GRAND STREET",
      "From": "Union Avenue",
      "To": "Lorimer Street",
      "Direction": "WB",
      "Date": "2020-10-15",
      "flow": 0.19144144144144143,
      "Latitude": "40.7132751",
      "Longitude": "-73.9776678"
    },
    {
      "SegmentID": "9004434",
      "RoadwayName": "HARROD AVENUE",
      "From": "Cross Bronx River Expressway",
      "To": "East 174th Street",
      "Direction": "NB",
      "Date": "2020-10-15",
      "flow": 0.05630630630630631,
      "Latitude": "40.8447476",
      "Longitude": "-73.9117036"
    },
    {
      "SegmentID": "9004434",
      "RoadwayName": "HARROD AVENUE",
      "From": "Cross Bronx River Expressway",
      "To": "East 174th Street",
      "Direction": "SB",
      "Date": "2020-10-15",
      "flow": 0.05405405405405406,
      "Latitude": "40.8447476",
      "Longitude": "-73.9117036"
    },
    {
      "SegmentID": "157603",
      "RoadwayName": "JAMAICA AVENUE",
      "From": "Georgia Avenue",
      "To": "Sheffied Avenue",
      "Direction": "EB",
      "Date": "2020-10-15",
      "flow": 0.26576576576576577,
      "Latitude": "40.6521022",
      "Longitude": "-73.887989"
    },
    {
      "SegmentID": "157676",
      "RoadwayName": "JAMAICA AVENUE",
      "From": "Georgia Avenue",
      "To": "Fanchon Place",
      "Direction": "WB",
      "Date": "2020-10-15",
      "flow": 0.24549549549549549,
      "Latitude": "40.6521022",
      "Longitude": "-73.887989"
    },
    {
      "SegmentID": "49572",
      "RoadwayName": "JAMAICA AVENUE",
      "From": "Hemlock Street",
      "To": "Autumn Avenue",
      "Direction": "EB",
      "Date": "2020-10-15",
      "flow": 0.11711711711711711,
      "Latitude": "40.684704",
      "Longitude": "-73.8713701"
    },
    {
      "SegmentID": "49572",
      "RoadwayName": "JAMAICA AVENUE",
      "From": "Hemlock Street",
      "To": "Autumn Avenue",
      "Direction": "WB",
      "Date": "2020-10-15",
      "flow": 0.1554054054054054,
      "Latitude": "40.684704",
      "Longitude": "-73.8713701"
    },
    {
      "SegmentID": "236204",
      "RoadwayName": "JEROME AVENUE",
      "From": "Jerome Avenue Line",
      "To": "Jerome Avenue Line",
      "Direction": "EB",
      "Date": "2020-10-15",
      "flow": 0.19594594594594594,
      "Latitude": "40.8665331",
      "Longitude": "-73.8981713"
    },
    {
      "SegmentID": "236204",
      "RoadwayName": "JEROME AVENUE",
      "From": "Jerome Avenue Line",
      "To": "Jerome Avenue Line",
      "Direction": "WB",
      "Date": "2020-10-15",
      "flow": 0.20945945945945946,
      "Latitude": "40.8665331",
      "Longitude": "-73.8981713"
    },
    {
      "SegmentID": "167027",
      "RoadwayName": "KINGS HIGHWAY",
      "From": "Avenue J",
      "To": "Avenue I",
      "Direction": "NB",
      "Date": "2020-10-15",
      "flow": 0.09684684684684684,
      "Latitude": "40.625039",
      "Longitude": "-73.960803"
    },
    {
      "SegmentID": "167027",
      "RoadwayName": "KINGS HIGHWAY",
      "From": "Avenue J",
      "To": "Avenue I",
      "Direction": "SB",
      "Date": "2020-10-15",
      "flow": 0.12612612612612611,
      "Latitude": "40.625039",
      "Longitude": "-73.960803"
    },
    {
      "SegmentID": "228792",
      "RoadwayName": "KINGS HIGHWAY",
      "From": "Avenue J",
      "To": "Avenue I",
      "Direction": "SB",
      "Date": "2020-10-15",
      "flow": 0.03153153153153153,
      "Latitude": "40.625039",
      "Longitude": "-73.960803"
    },
    {
      "SegmentID": "228794",
      "RoadwayName": "KINGS HIGHWAY",
      "From": "Avenue J",
      "To": "Avenue I",
      "Direction": "NB",
      "Date": "2020-10-15",
      "flow": 0.024774774774774775,
      "Latitude": "40.625039",
      "Longitude": "-73.960803"
    },
    {
      "SegmentID": "167264",
      "RoadwayName": "KINGS HIGHWAY",
      "From": "Remsen Avenue",
      "To": "East 91st Street",
      "Direction": "NB",
      "Date": "2020-10-15",
      "flow": 0.24774774774774774,
      "Latitude": "40.6449389",
      "Longitude": "-73.9112164"
    },
    {
      "SegmentID": "167264",
      "RoadwayName": "KINGS HIGHWAY",
      "From": "Remsen Avenue",
      "To": "East 91st Street",
      "Direction": "SB",
      "Date": "2020-10-15",
      "flow": 0.23423423423423423,
      "Latitude": "40.6449389",
      "Longitude": "-73.9112164"
    },
    {
      "SegmentID": "148033",
      "RoadwayName": "KINGS HIGHWAY",
      "From": "Linden Boulevard",
      "To": "East 91st Street",
      "Direction": "NB",
      "Date": "2020-10-15",
      "flow": 0.1036036036036036,
      "Latitude": "40.6747473",
      "Longitude": "-73.8368685"
    },
    {
      "SegmentID": "148124",
      "RoadwayName": "KINGS HIGHWAY",
      "From": "Linden Boulevard",
      "To": "East 91st Street",
      "Direction": "SB",
      "Date": "2020-10-15",
      "flow": 0.10810810810810811,
      "Latitude": "40.6747473",
      "Longitude": "-73.8368685"
    },
    {
      "SegmentID": "88106",
      "RoadwayName": "LACONIA AVENUE",
      "From": "Adee Avenue",
      "To": "Burke Avenue",
      "Direction": "NB",
      "Date": "2020-10-15",
      "flow": 0.02027027027027027,
      "Latitude": "40.8697",
      "Longitude": "-73.8665611"
    },
    {
      "SegmentID": "88106",
      "RoadwayName": "LACONIA AVENUE",
      "From": "Adee Avenue",
      "To": "Burke Avenue",
      "Direction": "SB",
      "Date": "2020-10-15",
      "flow": 0.013513513513513514,
      "Latitude": "40.8697",
      "Longitude": "-73.8665611"
    },
    {
      "SegmentID": "9005484",
      "RoadwayName": "LAFAYETTE AVENUE",
      "From": "Classon Avenue",
      "To": "Franklin Avenue",
      "Direction": "EB",
      "Date": "2020-10-15",
      "flow": 0.17117117117117117,
      "Latitude": "40.6863074",
      "Longitude": "-73.9744304"
    },
    {
      "SegmentID": "57192",
      "RoadwayName": "LIBERTY AVENUE",
      "From": "Waltham Street",
      "To": "146th Street",
      "Direction": "EB",
      "Date": "2020-10-15",
      "flow": 0.1981981981981982,
      "Latitude": "40.6744049",
      "Longitude": "-73.8965126"
    },
    {
      "SegmentID": "57192",
      "RoadwayName": "LIBERTY AVENUE",
      "From": "Waltham Street",
      "To": "146th Street",
      "Direction": "WB",
      "Date": "2020-10-15",
      "flow": 0.20270270270270271,
      "Latitude": "40.6744049",
      "Longitude": "-73.8965126"
    },
    {
      "SegmentID": "51124",
      "RoadwayName": "LINDEN BOULEVARD",
      "From": "Amber Street",
      "To": "79th Street",
      "Direction": "EB",
      "Date": "2020-10-15",
      "flow": 0.38288288288288286,
      "Latitude": "40.6747473",
      "Longitude": "-73.8368685"
    },
    {
      "SegmentID": "156596",
      "RoadwayName": "LINDEN BOULEVARD",
      "From": "Sapphire Street",
      "To": "79th Street",
      "Direction": "WB",
      "Date": "2020-10-15",
      "flow": 0.40765765765765766,
      "Latitude": "40.6747473",
      "Longitude": "-73.8368685"
    },
    {
      "SegmentID": "184850",
      "RoadwayName": "LINDEN BOULEVARD",
      "From": "Sapphire Street",
      "To": "79th Street",
      "Direction": "WB",
      "Date": "2020-10-15",
      "flow": 0.12837837837837837,
      "Latitude": "40.6747473",
      "Longitude": "-73.8368685"
    },
    {
      "SegmentID": "145550",
      "RoadwayName": "LINDEN BOULEVARD",
      "From": "Sapphire Street",
      "To": "79th Street",
      "Direction": "EB",
      "Date": "2020-10-15",
      "flow": 0.06756756756756757,
      "Latitude": "40.6747473",
      "Longitude": "-73.8368685"
    },
    {
      "SegmentID": "21490",
      "RoadwayName": "MC DONALD AVENUE",
      "From": "Albemarle Road",
      "To": "Church Avenue",
      "Direction": "NB",
      "Date": "2020-10-15",
      "flow": 0.07432432432432433,
      "Latitude": "40.6478739",
      "Longitude": "-73.9556227"
    },
    {
      "SegmentID": "21490",
      "RoadwayName": "MC DONALD AVENUE",
      "From": "Albemarle Road",
      "To": "Church Avenue",
      "Direction": "SB",
      "Date": "2020-10-15",
      "flow": 0.06981981981981981,
      "Latitude": "40.6478739",
      "Longitude": "-73.9556227"
    },
    {
      "SegmentID": "31248",
      "RoadwayName": "MESEROLE STREET",
      "From": "Lorimer Street",
      "To": "Leonard Street",
      "Direction": "WB",
      "Date": "2020-10-15",
      "flow": 0.06531531531531531,
      "Latitude": "40.7038293",
      "Longitude": "-73.9473618"
    },
    {
      "SegmentID": "251085",
      "RoadwayName": "MONTROSE AVENUE",
      "From": "Union Avenue",
      "To": "Lorimer Street",
      "Direction": "EB",
      "Date": "2020-10-15",
      "flow": 0.1373873873873874,
      "Latitude": "40.7187096",
      "Longitude": "-73.9523721"
    },
    {
      "SegmentID": "72317",
      "RoadwayName": "MORRIS AVENUE",
      "From": "Mt Eden Parkway",
      "To": "East 173rd Street",
      "Direction": "NB",
      "Date": "2020-10-15",
      "flow": 0.11261261261261261,
      "Latitude": "40.840197",
      "Longitude": "-73.910094"
    },
    {
      "SegmentID": "72317",
      "RoadwayName": "MORRIS AVENUE",
      "From": "Mt Eden Parkway",
      "To": "East 173rd Street",
      "Direction": "SB",
      "Date": "2020-10-15",
      "flow": 0.17567567567567569,
      "Latitude": "40.840197",
      "Longitude": "-73.910094"
    },
    {
      "SegmentID": "9003578",
      "RoadwayName": "MORRIS AVENUE",
      "From": "East 156th Street",
      "To": "Concourse Village",
      "Direction": "NB",
      "Date": "2020-10-15",
      "flow": 0.40315315315315314,
      "Latitude": "40.840197",
      "Longitude": "-73.910094"
    },
    {
      "SegmentID": "9003578",
      "RoadwayName": "MORRIS AVENUE",
      "From": "East 156th Street",
      "To": "Concourse Village",
      "Direction": "SB",
      "Date": "2020-10-15",
      "flow": 0.20045045045045046,
      "Latitude": "40.840197",
      "Longitude": "-73.910094"
    },
    {
      "SegmentID": "9009379",
      "RoadwayName": "MYRTLE AVENUE",
      "From": "Throop Avenue",
      "To": "Tompkins Avenue",
      "Direction": "EB",
      "Date": "2020-10-15",
      "flow": 0.14864864864864866,
      "Latitude": "40.7004288",
      "Longitude": "-73.9443862"
    },
    {
      "SegmentID": "9009379",
      "RoadwayName": "MYRTLE AVENUE",
      "From": "Throop Avenue",
      "To": "Tompkins Avenue",
      "Direction": "WB",
      "Date": "2020-10-15",
      "flow": 0.35135135135135137,
      "Latitude": "40.7004288",
      "Longitude": "-73.9443862"
    },
    {
      "SegmentID": "21139",
      "RoadwayName": "NEW UTRECHT AVENUE",
      "From": "52nd Street",
      "To": "53rd Street",
      "Direction": "NB",
      "Date": "2020-10-15",
      "flow": 0.17342342342342343,
      "Latitude": "40.624842",
      "Longitude": "-73.996353"
    },
    {
      "SegmentID": "21139",
      "RoadwayName": "NEW UTRECHT AVENUE",
      "From": "52nd Street",
      "To": "53rd Street",
      "Direction": "SB",
      "Date": "2020-10-15",
      "flow": 0.15090090090090091,
      "Latitude": "40.624842",
      "Longitude": "-73.996353"
    },
    {
      "SegmentID": "19874",
      "RoadwayName": "NEW UTRECHT AVENUE",
      "From": "71st Street",
      "To": "72nd Street",
      "Direction": "NB",
      "Date": "2020-10-15",
      "flow": 0.06531531531531531,
      "Latitude": "40.624842",
      "Longitude": "-73.996353"
    },
    {
      "SegmentID": "19874",
      "RoadwayName": "NEW UTRECHT AVENUE",
      "From": "71st Street",
      "To": "72nd Street",
      "Direction": "SB",
      "Date": "2020-10-15",
      "flow": 0.08333333333333333,
      "Latitude": "40.624842",
      "Longitude": "-73.996353"
    },
    {
      "SegmentID": "50683",
      "RoadwayName": "NORTH CONDUIT AVENUE",
      "From": "Glenmore Avenue",
      "To": "Lincoln Avenue",
      "Direction": "WB",
      "Date": "2020-10-15",
      "flow": 0.5247747747747747,
      "Latitude": "40.6711683",
      "Longitude": "-73.9096274"
    },
    {
      "SegmentID": "97306",
      "RoadwayName": "NORTHERN BOULEVARD",
      "From": "190th Street",
      "To": "191th Street",
      "Direction": "EB",
      "Date": "2020-10-15",
      "flow": 0.16216216216216217,
      "Latitude": "40.7530794",
      "Longitude": "-73.9062074"
    },
    {
      "SegmentID": "97306",
      "RoadwayName": "NORTHERN BOULEVARD",
      "From": "190th Street",
      "To": "191th Street",
      "Direction": "WB",
      "Date": "2020-10-15",
      "flow": 0.17117117117117117,
      "Latitude": "40.7530794",
      "Longitude": "-73.9062074"
    },
    {
      "SegmentID": "157298",
      "RoadwayName": "NORTHERN BOULEVARD",
      "From": "College Point Boulevard",
      "To": "Prince Street",
      "Direction": "WB",
      "Date": "2020-10-15",
      "flow": 0.5540540540540541,
      "Latitude": "40.7530794",
      "Longitude": "-73.9062074"
    },
    {
      "SegmentID": "133152",
      "RoadwayName": "NORTHERN BOULEVARD",
      "From": "College Point Boulevard",
      "To": "Prince Street",
      "Direction": "EB",
      "Date": "2020-10-15",
      "flow": 0.36936936936936937,
      "Latitude": "40.7530794",
      "Longitude": "-73.9062074"
    },
    {
      "SegmentID": "111646",
      "RoadwayName": "NOSTRAND AVENUE",
      "From": "Foster Avenue",
      "To": "Farragut Road",
      "Direction": "SB",
      "Date": "2020-10-15",
      "flow": 0.28153153153153154,
      "Latitude": "40.6311231",
      "Longitude": "-73.9692209"
    },
    {
      "SegmentID": "25484",
      "RoadwayName": "OCEAN PARKWAY",
      "From": "Avenue S",
      "To": "AvenueT",
      "Direction": "NB",
      "Date": "2020-10-15",
      "flow": 0.24324324324324326,
      "Latitude": "40.610228",
      "Longitude": "-73.9306"
    },
    {
      "SegmentID": "25484",
      "RoadwayName": "OCEAN PARKWAY",
      "From": "Avenue S",
      "To": "AvenueT",
      "Direction": "SB",
      "Date": "2020-10-15",
      "flow": 0.39414414414414417,
      "Latitude": "40.610228",
      "Longitude": "-73.9306"
    },
    {
      "SegmentID": "136481",
      "RoadwayName": "OCEAN PARKWAY",
      "From": "Avenue S",
      "To": "AvenueT",
      "Direction": "NB",
      "Date": "2020-10-15",
      "flow": 0.038288288288288286,
      "Latitude": "40.610228",
      "Longitude": "-73.9306"
    },
    {
      "SegmentID": "136482",
      "RoadwayName": "OCEAN PARKWAY",
      "From": "Avenue S",
      "To": "AvenueT",
      "Direction": "SB",
      "Date": "2020-10-15",
      "flow": 0.033783783783783786,
      "Latitude": "40.610228",
      "Longitude": "-73.9306"
    },
    {
      "SegmentID": "9003584",
      "RoadwayName": "PARK AVENUE",
      "From": "Delmonico Pl",
      "To": "Tompkins Avenue",
      "Direction": "EB",
      "Date": "2020-10-15",
      "flow": 0.06981981981981981,
      "Latitude": "40.7514645",
      "Longitude": "-73.9779934"
    },
    {
      "SegmentID": "9003584",
      "RoadwayName": "PARK AVENUE",
      "From": "Delmonico Pl",
      "To": "Tompkins Avenue",
      "Direction": "WB",
      "Date": "2020-10-15",
      "flow": 0.12387387387387387,
      "Latitude": "40.7514645",
      "Longitude": "-73.9779934"
    },
    {
      "SegmentID": "30321",
      "RoadwayName": "PARK AVENUE",
      "From": "Ryerson Street",
      "To": "Grand Avenue",
      "Direction": "EB",
      "Date": "2020-10-15",
      "flow": 0.11936936936936937,
      "Latitude": "40.7514645",
      "Longitude": "-73.9779934"
    },
    {
      "SegmentID": "246365",
      "RoadwayName": "PARK ROW",
      "From": "Beekman Street",
      "To": "Broadway",
      "Direction": "WB",
      "Date": "2020-10-15",
      "flow": 0.18243243243243243,
      "Latitude": "40.628881",
      "Longitude": "-74.139772"
    },
    {
      "SegmentID": "162351",
      "RoadwayName": "PARK ROW",
      "From": "Beekman Street",
      "To": "Broadway",
      "Direction": "EB",
      "Date": "2020-10-15",
      "flow": 0.15090090090090091,
      "Latitude": "40.628881",
      "Longitude": "-74.139772"
    },
    {
      "SegmentID": "190316",
      "RoadwayName": "QUEENS BOULEVARD",
      "From": "57th Ave",
      "To": "Woodhaven Boulevard",
      "Direction": "EB",
      "Date": "2020-10-15",
      "flow": 0.11261261261261261,
      "Latitude": "40.727634",
      "Longitude": "-73.854941"
    },
    {
      "SegmentID": "151751",
      "RoadwayName": "QUEENS BOULEVARD",
      "From": "Union Turnpike",
      "To": "78th Avenue",
      "Direction": "EB",
      "Date": "2020-10-15",
      "flow": 0.08333333333333333,
      "Latitude": "40.727634",
      "Longitude": "-73.854941"
    },
    {
      "SegmentID": "134372",
      "RoadwayName": "QUEENS BOULEVARD",
      "From": "Union Turnpike",
      "To": "80th Rd",
      "Direction": "EB",
      "Date": "2020-10-15",
      "flow": 0.15090090090090091,
      "Latitude": "40.727634",
      "Longitude": "-73.854941"
    },
    {
      "SegmentID": "157226",
      "RoadwayName": "QUEENS BOULEVARD",
      "From": "Union Turnpike",
      "To": "80th Rd",
      "Direction": "WB",
      "Date": "2020-10-15",
      "flow": 0.16216216216216217,
      "Latitude": "40.727634",
      "Longitude": "-73.854941"
    },
    {
      "SegmentID": "42389",
      "RoadwayName": "RALPH AVENUE",
      "From": "Glenwood Road",
      "To": "Flatlands Avenue",
      "Direction": "NB",
      "Date": "2020-10-15",
      "flow": 0.0945945945945946,
      "Latitude": "40.6788802",
      "Longitude": "-73.9216651"
    },
    {
      "SegmentID": "42389",
      "RoadwayName": "RALPH AVENUE",
      "From": "Glenwood Road",
      "To": "Flatlands Avenue",
      "Direction": "SB",
      "Date": "2020-10-15",
      "flow": 0.16441441441441443,
      "Latitude": "40.6788802",
      "Longitude": "-73.9216651"
    },
    {
      "SegmentID": "128674",
      "RoadwayName": "REMSEN AVENUE",
      "From": "Stillwell Pl",
      "To": "Avenue L",
      "Direction": "NB",
      "Date": "2020-10-15",
      "flow": 0.0990990990990991,
      "Latitude": "40.6449389",
      "Longitude": "-73.9112164"
    },
    {
      "SegmentID": "128674",
      "RoadwayName": "REMSEN AVENUE",
      "From": "Stillwell Pl",
      "To": "Avenue L",
      "Direction": "SB",
      "Date": "2020-10-15",
      "flow": 0.0990990990990991,
      "Latitude": "40.6449389",
      "Longitude": "-73.9112164"
    },
    {
      "SegmentID": "128667",
      "RoadwayName": "REMSEN AVENUE",
      "From": "Flatlands Avenue",
      "To": "Avenue J",
      "Direction": "NB",
      "Date": "2020-10-15",
      "flow": 0.1554054054054054,
      "Latitude": "40.6449389",
      "Longitude": "-73.9112164"
    },
    {
      "SegmentID": "128667",
      "RoadwayName": "REMSEN AVENUE",
      "From": "Flatlands Avenue",
      "To": "Avenue J",
      "Direction": "SB",
      "Date": "2020-10-15",
      "flow": 0.21846846846846846,
      "Latitude": "40.6449389",
      "Longitude": "-73.9112164"
    },
    {
      "SegmentID": "46514",
      "RoadwayName": "ROCKAWAY PARKWAY",
      "From": "Avenue J",
      "To": "Avenue K",
      "Direction": "SB",
      "Date": "2020-10-15",
      "flow": 0.2927927927927928,
      "Latitude": "40.625039",
      "Longitude": "-73.960803"
    },
    {
      "SegmentID": "155745",
      "RoadwayName": "SEAGIRT BOULEVARD",
      "From": "Beach 6th Street",
      "To": "Beach 9th Street",
      "Direction": "WB",
      "Date": "2020-10-15",
      "flow": 0.15315315315315314,
      "Latitude": "40.5955565",
      "Longitude": "-73.7410999"
    },
    {
      "SegmentID": "148407",
      "RoadwayName": "SEAGIRT BOULEVARD",
      "From": "Beach 6th Street",
      "To": "Beach 9th Street",
      "Direction": "EB",
      "Date": "2020-10-15",
      "flow": 0.20495495495495494,
      "Latitude": "40.5955565",
      "Longitude": "-73.7410999"
    },
    {
      "SegmentID": "113134",
      "RoadwayName": "SEDGWICK AVENUE",
      "From": "West 183rd Street",
      "To": "West Fordham Road",
      "Direction": "NB",
      "Date": "2020-10-15",
      "flow": 0.11936936936936937,
      "Latitude": "40.8825571",
      "Longitude": "-73.887063"
    },
    {
      "SegmentID": "113134",
      "RoadwayName": "SEDGWICK AVENUE",
      "From": "West 183rd Street",
      "To": "West Fordham Road",
      "Direction": "SB",
      "Date": "2020-10-15",
      "flow": 0.16216216216216217,
      "Latitude": "40.8825571",
      "Longitude": "-73.887063"
    },
    {
      "SegmentID": "119816",
      "RoadwayName": "SOUTHERN BOULEVARD",
      "From": "Crotona Park East",
      "To": "East 175th Street",
      "Direction": "NB",
      "Date": "2020-10-15",
      "flow": 0.11486486486486487,
      "Latitude": "40.8101526",
      "Longitude": "-73.9070982"
    },
    {
      "SegmentID": "119816",
      "RoadwayName": "SOUTHERN BOULEVARD",
      "From": "Crotona Park East",
      "To": "East 175th Street",
      "Direction": "SB",
      "Date": "2020-10-15",
      "flow": 0.16666666666666666,
      "Latitude": "40.8101526",
      "Longitude": "-73.9070982"
    },
    {
      "SegmentID": "107111",
      "RoadwayName": "SOUTHERN BOULEVARD",
      "From": "East 163rd Street",
      "To": "Aldus Street",
      "Direction": "NB",
      "Date": "2020-10-15",
      "flow": 0.20945945945945946,
      "Latitude": "40.8101526",
      "Longitude": "-73.9070982"
    },
    {
      "SegmentID": "107111",
      "RoadwayName": "SOUTHERN BOULEVARD",
      "From": "East 163rd Street",
      "To": "Aldus Street",
      "Direction": "SB",
      "Date": "2020-10-15",
      "flow": 0.14414414414414414,
      "Latitude": "40.8101526",
      "Longitude": "-73.9070982"
    },
    {
      "SegmentID": "134461",
      "RoadwayName": "SOUTHERN BOULEVARD",
      "From": "Bronx Park Road",
      "To": "East Fordham Road",
      "Direction": "SB",
      "Date": "2020-10-15",
      "flow": 0.22297297297297297,
      "Latitude": "40.8101526",
      "Longitude": "-73.9070982"
    },
    {
      "SegmentID": "146666",
      "RoadwayName": "SOUTHERN BOULEVARD",
      "From": "Bronx Park Road",
      "To": "East Fordham Road",
      "Direction": "NB",
      "Date": "2020-10-15",
      "flow": 0.14189189189189189,
      "Latitude": "40.8101526",
      "Longitude": "-73.9070982"
    },
    {
      "SegmentID": "19163",
      "RoadwayName": "STILLWELL AVENUE",
      "From": "Avenue W",
      "To": "28th Avenue",
      "Direction": "NB",
      "Date": "2020-10-15",
      "flow": 0.07882882882882883,
      "Latitude": "40.5923096",
      "Longitude": "-73.9738908"
    },
    {
      "SegmentID": "19163",
      "RoadwayName": "STILLWELL AVENUE",
      "From": "Avenue W",
      "To": "28th Avenue",
      "Direction": "SB",
      "Date": "2020-10-15",
      "flow": 0.10585585585585586,
      "Latitude": "40.5923096",
      "Longitude": "-73.9738908"
    },
    {
      "SegmentID": "77209",
      "RoadwayName": "TINTON AVENUE",
      "From": "East 150th Street",
      "To": "East 151st Street",
      "Direction": "SB",
      "Date": "2020-10-15",
      "flow": 0.06756756756756757,
      "Latitude": "40.824666",
      "Longitude": "-73.902331"
    },
    {
      "SegmentID": "107126",
      "RoadwayName": "TINTON AVENUE",
      "From": "Home Street",
      "To": "East 168th Street",
      "Direction": "NB",
      "Date": "2020-10-15",
      "flow": 0.05630630630630631,
      "Latitude": "40.824666",
      "Longitude": "-73.902331"
    },
    {
      "SegmentID": "107126",
      "RoadwayName": "TINTON AVENUE",
      "From": "Home Street",
      "To": "East 168th Street",
      "Direction": "SB",
      "Date": "2020-10-15",
      "flow": 0.060810810810810814,
      "Latitude": "40.824666",
      "Longitude": "-73.902331"
    },
    {
      "SegmentID": "146375",
      "RoadwayName": "UNION TURNPIKE",
      "From": "Langdale Street",
      "To": "Hewlett Street",
      "Direction": "EB",
      "Date": "2020-10-15",
      "flow": 0.0472972972972973,
      "Latitude": "40.7454151",
      "Longitude": "-73.715169"
    },
    {
      "SegmentID": "146374",
      "RoadwayName": "UNION TURNPIKE",
      "From": "Hewlett Street",
      "To": "Langdale Street",
      "Direction": "WB",
      "Date": "2020-10-15",
      "flow": 0.02027027027027027,
      "Latitude": "40.7454151",
      "Longitude": "-73.715169"
    },
    {
      "SegmentID": "41144",
      "RoadwayName": "UTICA AVENUE",
      "From": "Avenue K",
      "To": "Avenue L",
      "Direction": "NB",
      "Date": "2020-10-15",
      "flow": 0.10585585585585586,
      "Latitude": "40.637901",
      "Longitude": "-73.900838"
    },
    {
      "SegmentID": "41144",
      "RoadwayName": "UTICA AVENUE",
      "From": "Avenue K",
      "To": "Avenue L",
      "Direction": "SB",
      "Date": "2020-10-15",
      "flow": 0.18468468468468469,
      "Latitude": "40.637901",
      "Longitude": "-73.900838"
    },
    {
      "SegmentID": "42098",
      "RoadwayName": "UTICA AVENUE",
      "From": "Lenox Road",
      "To": "Linden Boulevard",
      "Direction": "NB",
      "Date": "2020-10-15",
      "flow": 0.2972972972972973,
      "Latitude": "40.6553529",
      "Longitude": "-73.9306307"
    },
    {
      "SegmentID": "42098",
      "RoadwayName": "UTICA AVENUE",
      "From": "Lenox Road",
      "To": "Linden Boulevard",
      "Direction": "SB",
      "Date": "2020-10-15",
      "flow": 0.3108108108108108,
      "Latitude": "40.6553529",
      "Longitude": "-73.9306307"
    },
    {
      "SegmentID": "31909",
      "RoadwayName": "VARICK STREET",
      "From": "Charlton Street",
      "To": "Vandam Street",
      "Direction": "SB",
      "Date": "2020-10-15",
      "flow": 1,
      "Latitude": "40.726941",
      "Longitude": "-74.003278"
    },
    {
      "SegmentID": "41663",
      "RoadwayName": "VETERANS AVENUE",
      "From": "East 71st Street",
      "To": "Avenue U",
      "Direction": "WB",
      "Date": "2020-10-15",
      "flow": 0.01126126126126126,
      "Latitude": "40.6166869",
      "Longitude": "-73.9039399"
    },
    {
      "SegmentID": "78177",
      "RoadwayName": "WEBSTER AVENUE",
      "From": "East Mt Eden Avenue",
      "To": "East 173rd Street",
      "Direction": "NB",
      "Date": "2020-10-15",
      "flow": 0.4144144144144144,
      "Latitude": "40.8435761",
      "Longitude": "-73.9130722"
    },
    {
      "SegmentID": "78177",
      "RoadwayName": "WEBSTER AVENUE",
      "From": "East Mt Eden Avenue",
      "To": "East 173rd Street",
      "Direction": "SB",
      "Date": "2020-10-15",
      "flow": 0.40540540540540543,
      "Latitude": "40.8435761",
      "Longitude": "-73.9130722"
    },
    {
      "SegmentID": "262242",
      "RoadwayName": "WEST BROADWAY",
      "From": "Worth Street",
      "To": "Leonard Street",
      "Direction": "SB",
      "Date": "2020-10-15",
      "flow": 0.27927927927927926,
      "Latitude": "40.7152194",
      "Longitude": "-74.0022433"
    },
    {
      "SegmentID": "121148",
      "RoadwayName": "WEST GUN HILL ROAD",
      "From": "West Mosholu Parkway North",
      "To": "Mosholu Parkway",
      "Direction": "EB",
      "Date": "2020-10-15",
      "flow": 0.16666666666666666,
      "Latitude": "40.881968",
      "Longitude": "-73.884692"
    },
    {
      "SegmentID": "121148",
      "RoadwayName": "WEST GUN HILL ROAD",
      "From": "West Mosholu Parkway North",
      "To": "Mosholu Parkway",
      "Direction": "WB",
      "Date": "2020-10-15",
      "flow": 0.1463963963963964,
      "Latitude": "40.881968",
      "Longitude": "-73.884692"
    },
    {
      "SegmentID": "78877",
      "RoadwayName": "WESTCHESTER AVENUE",
      "From": "East 167th Street",
      "To": "Home Street",
      "Direction": "EB",
      "Date": "2020-10-15",
      "flow": 0.31756756756756754,
      "Latitude": "40.8263976",
      "Longitude": "-73.8989844"
    },
    {
      "SegmentID": "78877",
      "RoadwayName": "WESTCHESTER AVENUE",
      "From": "East 167th Street",
      "To": "Home Street",
      "Direction": "WB",
      "Date": "2020-10-15",
      "flow": 0.31756756756756754,
      "Latitude": "40.8263976",
      "Longitude": "-73.8989844"
    },
    {
      "SegmentID": "151663",
      "RoadwayName": "WOODHAVEN BOULEVARD",
      "From": "97th Avenue",
      "To": "101st Avenue",
      "Direction": "NB",
      "Date": "2020-10-15",
      "flow": 0.2702702702702703,
      "Latitude": "40.7332625",
      "Longitude": "-73.8697005"
    },
    {
      "SegmentID": "156005",
      "RoadwayName": "WOODHAVEN BOULEVARD",
      "From": "97th Avenue",
      "To": "101st Avenue",
      "Direction": "SB",
      "Date": "2020-10-15",
      "flow": 0.4099099099099099,
      "Latitude": "40.7332625",
      "Longitude": "-73.8697005"
    },
    {
      "SegmentID": "151662",
      "RoadwayName": "WOODHAVEN BOULEVARD",
      "From": "97th Avenue",
      "To": "101st Avenue",
      "Direction": "NB",
      "Date": "2020-10-15",
      "flow": 0.05405405405405406,
      "Latitude": "40.7332625",
      "Longitude": "-73.8697005"
    },
    {
      "SegmentID": "151664",
      "RoadwayName": "WOODHAVEN BOULEVARD",
      "From": "97th Avenue",
      "To": "101st Avenue",
      "Direction": "SB",
      "Date": "2020-10-15",
      "flow": 0.06306306306306306,
      "Latitude": "40.7332625",
      "Longitude": "-73.8697005"
    },
    {
      "SegmentID": "134660",
      "RoadwayName": "WOODHAVEN BOULEVARD",
      "From": "Union Turnpike",
      "To": "79th Avenue",
      "Direction": "NB",
      "Date": "2020-10-15",
      "flow": 0.4752252252252252,
      "Latitude": "40.7332625",
      "Longitude": "-73.8697005"
    },
    {
      "SegmentID": "134660",
      "RoadwayName": "WOODHAVEN BOULEVARD",
      "From": "Union Turnpike",
      "To": "79th Avenue",
      "Direction": "NB",
      "Date": "2020-10-15",
      "flow": 0,
      "Latitude": "40.7332625",
      "Longitude": "-73.8697005"
    },
    {
      "SegmentID": "151704",
      "RoadwayName": "WOODHAVEN BOULEVARD",
      "From": "73rd Avenue",
      "To": "74th Avenue",
      "Direction": "SB",
      "Date": "2020-10-15",
      "flow": 0.13063063063063063,
      "Latitude": "40.7332625",
      "Longitude": "-73.8697005"
    },
    {
      "SegmentID": "151704",
      "RoadwayName": "WOODHAVEN BOULEVARD",
      "From": "73rd Avenue",
      "To": "74th Avenue",
      "Direction": "SB",
      "Date": "2020-10-15",
      "flow": 0.018018018018018018,
      "Latitude": "40.7332625",
      "Longitude": "-73.8697005"
    },
    {
      "SegmentID": "36517",
      "RoadwayName": "YORK AVENUE",
      "From": "East 60th Street",
      "To": "East 61st Street",
      "Direction": "NB",
      "Date": "2020-10-15",
      "flow": 0.17567567567567569,
      "Latitude": "40.7603138",
      "Longitude": "-73.9616495"
    },
    {
      "SegmentID": "36517",
      "RoadwayName": "YORK AVENUE",
      "From": "East 61st Street",
      "To": "East 60th Street",
      "Direction": "SB",
      "Date": "2020-10-15",
      "flow": 0.07657657657657657,
      "Latitude": "40.616553",
      "Longitude": "-73.916486"
    }
  ],
  "2:00-3:00AM": [
    {
      "SegmentID": "33758",
      "RoadwayName": "10TH AVENUE",
      "From": "West 45th Street",
      "To": "West 46th Street",
      "Direction": "NB",
      "Date": "2020-10-15",
      "flow": 0.8612903225806452,
      "Latitude": "40.761801",
      "Longitude": "-73.994646"
    },
    {
      "SegmentID": "57189",
      "RoadwayName": "101 AVENUE",
      "From": "Waltham Street",
      "To": "146th Street",
      "Direction": "WB",
      "Date": "2020-10-15",
      "flow": 0.04838709677419355,
      "Latitude": "40.7127281",
      "Longitude": "-74.0060152"
    },
    {
      "SegmentID": "82326",
      "RoadwayName": "108 STREET",
      "From": "62nd Avenue",
      "To": "Apex Place",
      "Direction": "NB",
      "Date": "2020-10-15",
      "flow": 0.012903225806451613,
      "Latitude": "40.7941983",
      "Longitude": "-73.9468558"
    },
    {
      "SegmentID": "82326",
      "RoadwayName": "108 STREET",
      "From": "62nd Avenue",
      "To": "Apex Place",
      "Direction": "SB",
      "Date": "2020-10-15",
      "flow": 0.08387096774193549,
      "Latitude": "40.7941983",
      "Longitude": "-73.9468558"
    },
    {
      "SegmentID": "63023",
      "RoadwayName": "120 AVENUE",
      "From": "191th Street",
      "To": "192th Street",
      "Direction": "EB",
      "Date": "2020-10-15",
      "flow": 0.09032258064516129,
      "Latitude": "40.7340069",
      "Longitude": "-73.7801978"
    },
    {
      "SegmentID": "63023",
      "RoadwayName": "120 AVENUE",
      "From": "191th Street",
      "To": "192th Street",
      "Direction": "WB",
      "Date": "2020-10-15",
      "flow": 0.06129032258064516,
      "Latitude": "40.7340069",
      "Longitude": "-73.7801978"
    },
    {
      "SegmentID": "19653",
      "RoadwayName": "13th AVENUE",
      "From": "71st Street",
      "To": "72nd Street",
      "Direction": "EB",
      "Date": "2020-10-15",
      "flow": 0.035483870967741936,
      "Latitude": "40.6193283",
      "Longitude": "-73.9989445"
    },
    {
      "SegmentID": "19653",
      "RoadwayName": "13th AVENUE",
      "From": "71st Street",
      "To": "72nd Street",
      "Direction": "WB",
      "Date": "2020-10-15",
      "flow": 0.04838709677419355,
      "Latitude": "40.6193283",
      "Longitude": "-73.9989445"
    },
    {
      "SegmentID": "19762",
      "RoadwayName": "14th AVENUE",
      "From": "71st Street",
      "To": "72nd Street",
      "Direction": "NB",
      "Date": "2020-10-15",
      "flow": 0.03225806451612903,
      "Latitude": "40.6193283",
      "Longitude": "-73.9989445"
    },
    {
      "SegmentID": "19762",
      "RoadwayName": "14th AVENUE",
      "From": "71st Street",
      "To": "72nd Street",
      "Direction": "SB",
      "Date": "2020-10-15",
      "flow": 0.03870967741935484,
      "Latitude": "40.6193283",
      "Longitude": "-73.9989445"
    },
    {
      "SegmentID": "21018",
      "RoadwayName": "3rd AVENUE",
      "From": "30th Street",
      "To": "31st Street",
      "Direction": "SB",
      "Date": "2020-10-15",
      "flow": 0.22258064516129034,
      "Latitude": "40.7599886",
      "Longitude": "-73.9281136"
    },
    {
      "SegmentID": "21022",
      "RoadwayName": "3rd AVENUE",
      "From": "30th Street",
      "To": "31st Street",
      "Direction": "NB",
      "Date": "2020-10-15",
      "flow": 0.3032258064516129,
      "Latitude": "40.7599886",
      "Longitude": "-73.9281136"
    },
    {
      "SegmentID": "22806",
      "RoadwayName": "3rd AVENUE",
      "From": "Baltic Street",
      "To": "Butler Street",
      "Direction": "NB",
      "Date": "2020-10-15",
      "flow": 0.06451612903225806,
      "Latitude": "40.6884386",
      "Longitude": "-74.0011557"
    },
    {
      "SegmentID": "22806",
      "RoadwayName": "3rd AVENUE",
      "From": "Baltic Street",
      "To": "Butler Street",
      "Direction": "SB",
      "Date": "2020-10-15",
      "flow": 0.035483870967741936,
      "Latitude": "40.6884386",
      "Longitude": "-74.0011557"
    },
    {
      "SegmentID": "133942",
      "RoadwayName": "65th Street",
      "From": "5th Avenue",
      "To": "6th Avenue",
      "Direction": "EB",
      "Date": "2020-10-15",
      "flow": 0.08387096774193549,
      "Latitude": "40.7647467",
      "Longitude": "-73.9726829"
    },
    {
      "SegmentID": "133942",
      "RoadwayName": "65th Street",
      "From": "5th Avenue",
      "To": "6th Avenue",
      "Direction": "WB",
      "Date": "2020-10-15",
      "flow": 0.13548387096774195,
      "Latitude": "40.7647467",
      "Longitude": "-73.9726829"
    },
    {
      "SegmentID": "33850",
      "RoadwayName": "9TH AVENUE",
      "From": "West 46th Street",
      "To": "West 47th Street",
      "Direction": "SB",
      "Date": "2020-10-15",
      "flow": 0.9967741935483871,
      "Latitude": "40.7582569",
      "Longitude": "-73.9842778"
    },
    {
      "SegmentID": "9003670",
      "RoadwayName": "ASTOR AVENUE",
      "From": "Wallace Avenue",
      "To": "Barnes Avenue",
      "Direction": "EB",
      "Date": "2020-10-15",
      "flow": 0.07741935483870968,
      "Latitude": "40.8543854",
      "Longitude": "-73.8648158"
    },
    {
      "SegmentID": "9003670",
      "RoadwayName": "ASTOR AVENUE",
      "From": "Wallace Avenue",
      "To": "Barnes Avenue",
      "Direction": "WB",
      "Date": "2020-10-15",
      "flow": 0.04516129032258064,
      "Latitude": "40.8543854",
      "Longitude": "-73.8648158"
    },
    {
      "SegmentID": "157870",
      "RoadwayName": "ATLANTIC AVENUE",
      "From": "Crescent Street",
      "To": "Autumn Avenue",
      "Direction": "EB",
      "Date": "2020-10-15",
      "flow": 0.3419354838709677,
      "Latitude": "40.6833496",
      "Longitude": "-73.873286"
    },
    {
      "SegmentID": "158264",
      "RoadwayName": "ATLANTIC AVENUE",
      "From": "Hemlock Street",
      "To": "Autumn Avenue",
      "Direction": "WB",
      "Date": "2020-10-15",
      "flow": 0.3387096774193548,
      "Latitude": "40.684704",
      "Longitude": "-73.8713701"
    },
    {
      "SegmentID": "41720",
      "RoadwayName": "AVENUE D",
      "From": "Brooklyn Avenue",
      "To": "East 37th Street",
      "Direction": "EB",
      "Date": "2020-10-15",
      "flow": 0.14193548387096774,
      "Latitude": "40.6313796",
      "Longitude": "-73.9416905"
    },
    {
      "SegmentID": "41720",
      "RoadwayName": "AVENUE D",
      "From": "Brooklyn Avenue",
      "To": "East 37th Street",
      "Direction": "WB",
      "Date": "2020-10-15",
      "flow": 0.08387096774193549,
      "Latitude": "40.6313796",
      "Longitude": "-73.9416905"
    },
    {
      "SegmentID": "41040",
      "RoadwayName": "AVENUE J",
      "From": "Schenectady Avenue",
      "To": "East 48th Street",
      "Direction": "EB",
      "Date": "2020-10-15",
      "flow": 0.01935483870967742,
      "Latitude": "40.625039",
      "Longitude": "-73.960803"
    },
    {
      "SegmentID": "41040",
      "RoadwayName": "AVENUE J",
      "From": "Schenectady Avenue",
      "To": "East 48th Street",
      "Direction": "WB",
      "Date": "2020-10-15",
      "flow": 0.03870967741935484,
      "Latitude": "40.625039",
      "Longitude": "-73.960803"
    },
    {
      "SegmentID": "27139",
      "RoadwayName": "AVENUE M",
      "From": "East 15th Street",
      "To": "Buckingham Road",
      "Direction": "EB",
      "Date": "2020-10-15",
      "flow": 0.07096774193548387,
      "Latitude": "40.6178971",
      "Longitude": "-73.959474"
    },
    {
      "SegmentID": "27139",
      "RoadwayName": "AVENUE M",
      "From": "East 15th Street",
      "To": "Buckingham Road",
      "Direction": "WB",
      "Date": "2020-10-15",
      "flow": 0.054838709677419356,
      "Latitude": "40.6178971",
      "Longitude": "-73.959474"
    },
    {
      "SegmentID": "41000",
      "RoadwayName": "AVENUE M",
      "From": "East 45th Street",
      "To": "East 46th Street",
      "Direction": "WB",
      "Date": "2020-10-15",
      "flow": 0.04516129032258064,
      "Latitude": "40.6178971",
      "Longitude": "-73.959474"
    },
    {
      "SegmentID": "27121",
      "RoadwayName": "AVENUE N",
      "From": "Brington Line",
      "To": "East 16th Street",
      "Direction": "EB",
      "Date": "2020-10-15",
      "flow": 0.13548387096774195,
      "Latitude": "40.5873782",
      "Longitude": "-73.9532845"
    },
    {
      "SegmentID": "34188",
      "RoadwayName": "6TH AVENUE",
      "From": "West 45th Street",
      "To": "West 46th Street",
      "Direction": "NB",
      "Date": "2020-10-15",
      "flow": 0.9580645161290322,
      "Latitude": "40.761801",
      "Longitude": "-73.994646"
    },
    {
      "SegmentID": "20337",
      "RoadwayName": "AVENUE P",
      "From": "West 10th Street",
      "To": "West 9th Street",
      "Direction": "EB",
      "Date": "2020-10-15",
      "flow": 0.041935483870967745,
      "Latitude": "40.608944",
      "Longitude": "-73.973022"
    },
    {
      "SegmentID": "20337",
      "RoadwayName": "AVENUE P",
      "From": "West 10th Street",
      "To": "West 9th Street",
      "Direction": "WB",
      "Date": "2020-10-15",
      "flow": 0.02903225806451613,
      "Latitude": "40.608944",
      "Longitude": "-73.973022"
    },
    {
      "SegmentID": "41312",
      "RoadwayName": "AVENUE U",
      "From": "East 56th Street",
      "To": "Pearson Street",
      "Direction": "EB",
      "Date": "2020-10-15",
      "flow": 0.10967741935483871,
      "Latitude": "40.6478985",
      "Longitude": "-73.9241338"
    },
    {
      "SegmentID": "41312",
      "RoadwayName": "AVENUE U",
      "From": "East 56th Street",
      "To": "Pearson Street",
      "Direction": "WB",
      "Date": "2020-10-15",
      "flow": 0.09032258064516129,
      "Latitude": "40.6478985",
      "Longitude": "-73.9241338"
    },
    {
      "SegmentID": "41667",
      "RoadwayName": "AVENUE U",
      "From": "East 71st Street",
      "To": "Veterans Avenue",
      "Direction": "EB",
      "Date": "2020-10-15",
      "flow": 0.016129032258064516,
      "Latitude": "40.6166869",
      "Longitude": "-73.9039399"
    },
    {
      "SegmentID": "41667",
      "RoadwayName": "AVENUE U",
      "From": "East 71st Street",
      "To": "Veterans Avenue",
      "Direction": "WB",
      "Date": "2020-10-15",
      "flow": 0.02903225806451613,
      "Latitude": "40.6166869",
      "Longitude": "-73.9039399"
    },
    {
      "SegmentID": "19550",
      "RoadwayName": "BAY RIDGE AVENUE",
      "From": "11th Avenue",
      "To": "12th Avenue",
      "Direction": "EB",
      "Date": "2020-10-15",
      "flow": 0.016129032258064516,
      "Latitude": "40.7444306",
      "Longitude": "-74.0084954"
    },
    {
      "SegmentID": "19550",
      "RoadwayName": "BAY RIDGE AVENUE",
      "From": "11th Avenue",
      "To": "12th Avenue",
      "Direction": "WB",
      "Date": "2020-10-15",
      "flow": 0,
      "Latitude": "40.7444306",
      "Longitude": "-74.0084954"
    },
    {
      "SegmentID": "20149",
      "RoadwayName": "BAY RIDGE AVENUE",
      "From": "18th Avenue",
      "To": "19th Avenue",
      "Direction": "EB",
      "Date": "2020-10-15",
      "flow": 0.025806451612903226,
      "Latitude": "40.620671",
      "Longitude": "-73.990414"
    },
    {
      "SegmentID": "132816",
      "RoadwayName": "BAYCHESTER AVENUE",
      "From": "Bay Plaza Boulevard",
      "To": "Hutchinson River Parkway",
      "Direction": "NB",
      "Date": "2020-10-15",
      "flow": 0.02258064516129032,
      "Latitude": "40.8670077",
      "Longitude": "-73.8306367"
    },
    {
      "SegmentID": "254353",
      "RoadwayName": "BEDFORD AVENUE",
      "From": "Lorimer Street",
      "To": "Union Avenue",
      "Direction": "EB",
      "Date": "2020-10-15",
      "flow": 0.07096774193548387,
      "Latitude": "40.7174046",
      "Longitude": "-73.9570004"
    },
    {
      "SegmentID": "27462",
      "RoadwayName": "BEDFORD AVENUE",
      "From": "Quentin Road",
      "To": "Avenue R",
      "Direction": "NB",
      "Date": "2020-10-15",
      "flow": 0.01935483870967742,
      "Latitude": "40.7174046",
      "Longitude": "-73.9570004"
    },
    {
      "SegmentID": "27462",
      "RoadwayName": "BEDFORD AVENUE",
      "From": "Quentin Road",
      "To": "Avenue R",
      "Direction": "SB",
      "Date": "2020-10-15",
      "flow": 0.05161290322580645,
      "Latitude": "40.7174046",
      "Longitude": "-73.9570004"
    },
    {
      "SegmentID": "176365",
      "RoadwayName": "BEDFORD PARK BOULEVARD",
      "From": "Grand Concourse",
      "To": "Briggs Avenue",
      "Direction": "NB",
      "Date": "2020-10-15",
      "flow": 0.05806451612903226,
      "Latitude": "40.8510934",
      "Longitude": "-73.9046308"
    },
    {
      "SegmentID": "176365",
      "RoadwayName": "BEDFORD PARK BOULEVARD",
      "From": "Grand Concourse",
      "To": "Briggs Avenue",
      "Direction": "SB",
      "Date": "2020-10-15",
      "flow": 0.08709677419354839,
      "Latitude": "40.8510934",
      "Longitude": "-73.9046308"
    },
    {
      "SegmentID": "154787",
      "RoadwayName": "BEDFORD PARK BOULEVARD",
      "From": "Grand Concourse",
      "To": "Briggs Avenue",
      "Direction": "NB",
      "Date": "2020-10-15",
      "flow": 0.1064516129032258,
      "Latitude": "40.8510934",
      "Longitude": "-73.9046308"
    },
    {
      "SegmentID": "154501",
      "RoadwayName": "BEDFORD PARK BOULEVARD",
      "From": "Grand Concourse",
      "To": "Briggs Avenue",
      "Direction": "SB",
      "Date": "2020-10-15",
      "flow": 0.12580645161290321,
      "Latitude": "40.8510934",
      "Longitude": "-73.9046308"
    },
    {
      "SegmentID": "148978",
      "RoadwayName": "BELL BOULEVARD",
      "From": "67th Avenue",
      "To": "67th Avenue",
      "Direction": "NB",
      "Date": "2020-10-15",
      "flow": 0.01935483870967742,
      "Latitude": "40.7267968",
      "Longitude": "-73.8532472"
    },
    {
      "SegmentID": "148980",
      "RoadwayName": "BELL BOULEVARD",
      "From": "67th Avenue",
      "To": "67th Avenue",
      "Direction": "SB",
      "Date": "2020-10-15",
      "flow": 0.012903225806451613,
      "Latitude": "40.7267968",
      "Longitude": "-73.8532472"
    },
    {
      "SegmentID": "87808",
      "RoadwayName": "BRONXWOOD AVENUE",
      "From": "Mace Avenue",
      "To": "Allerton Avenue",
      "Direction": "NB",
      "Date": "2020-10-15",
      "flow": 0.025806451612903226,
      "Latitude": "40.8709169",
      "Longitude": "-73.8613921"
    },
    {
      "SegmentID": "87808",
      "RoadwayName": "BRONXWOOD AVENUE",
      "From": "Mace Avenue",
      "To": "Allerton Avenue",
      "Direction": "SB",
      "Date": "2020-10-15",
      "flow": 0.035483870967741936,
      "Latitude": "40.8709169",
      "Longitude": "-73.8613921"
    },
    {
      "SegmentID": "70364",
      "RoadwayName": "BROOK AVENUE",
      "From": "East 152nd Street",
      "To": "East 153rd Street",
      "Direction": "SB",
      "Date": "2020-10-15",
      "flow": 0.07741935483870968,
      "Latitude": "40.807555",
      "Longitude": "-73.9192429"
    },
    {
      "SegmentID": "47359",
      "RoadwayName": "BUSHWICK AVENUE",
      "From": "Cemetery Of Evergrns Boundary",
      "To": "Highland Boulevard",
      "Direction": "EB",
      "Date": "2020-10-15",
      "flow": 0.5387096774193548,
      "Latitude": "40.6815336",
      "Longitude": "-73.8943809"
    },
    {
      "SegmentID": "47359",
      "RoadwayName": "BUSHWICK AVENUE",
      "From": "Cemetery Of Evergrns Boundary",
      "To": "Highland Boulevard",
      "Direction": "WB",
      "Date": "2020-10-15",
      "flow": 0.632258064516129,
      "Latitude": "40.6815336",
      "Longitude": "-73.8943809"
    },
    {
      "SegmentID": "28234",
      "RoadwayName": "CATON AVENUE",
      "From": "East 18th Street",
      "To": "St Pauls Place",
      "Direction": "EB",
      "Date": "2020-10-15",
      "flow": 0.2064516129032258,
      "Latitude": "40.6475964",
      "Longitude": "-73.9733121"
    },
    {
      "SegmentID": "28234",
      "RoadwayName": "CATON AVENUE",
      "From": "East 18th Street",
      "To": "St Pauls Place",
      "Direction": "WB",
      "Date": "2020-10-15",
      "flow": 0.12258064516129032,
      "Latitude": "40.6475964",
      "Longitude": "-73.9733121"
    },
    {
      "SegmentID": "28015",
      "RoadwayName": "CONEY ISLAND AVENUE",
      "From": "Friel Place",
      "To": "Church Avenue",
      "Direction": "NB",
      "Date": "2020-10-15",
      "flow": 0.1,
      "Latitude": "40.6299377",
      "Longitude": "-73.9661411"
    },
    {
      "SegmentID": "28015",
      "RoadwayName": "CONEY ISLAND AVENUE",
      "From": "Friel Place",
      "To": "Church Avenue",
      "Direction": "SB",
      "Date": "2020-10-15",
      "flow": 0.1967741935483871,
      "Latitude": "40.6299377",
      "Longitude": "-73.9661411"
    },
    {
      "SegmentID": "26932",
      "RoadwayName": "CONEY ISLAND AVENUE",
      "From": "Parkville Avenue",
      "To": "Foster Avenue",
      "Direction": "NB",
      "Date": "2020-10-15",
      "flow": 0.15806451612903225,
      "Latitude": "40.6299377",
      "Longitude": "-73.9661411"
    },
    {
      "SegmentID": "26932",
      "RoadwayName": "CONEY ISLAND AVENUE",
      "From": "Parkville Avenue",
      "To": "Foster Avenue",
      "Direction": "SB",
      "Date": "2020-10-15",
      "flow": 0.27419354838709675,
      "Latitude": "40.6299377",
      "Longitude": "-73.9661411"
    },
    {
      "SegmentID": "217716",
      "RoadwayName": "COURTLANDT AVENUE",
      "From": "East 153rd Street",
      "To": "East 154th Street",
      "Direction": "NB",
      "Date": "2020-10-15",
      "flow": 0.0967741935483871,
      "Latitude": "40.8180575",
      "Longitude": "-73.9133408"
    },
    {
      "SegmentID": "150549",
      "RoadwayName": "CROSS BAY BOULEVARD",
      "From": "165th Avenue",
      "To": "East 6th Rd",
      "Direction": "NB",
      "Date": "2020-10-15",
      "flow": 0.1967741935483871,
      "Latitude": "40.6491463",
      "Longitude": "-73.8372764"
    },
    {
      "SegmentID": "121069",
      "RoadwayName": "CROTONA AVENUE",
      "From": "Claremont Parkway",
      "To": "Crotona Park North",
      "Direction": "NB",
      "Date": "2020-10-15",
      "flow": 0.0935483870967742,
      "Latitude": "40.8394904",
      "Longitude": "-73.9045399"
    },
    {
      "SegmentID": "121069",
      "RoadwayName": "CROTONA AVENUE",
      "From": "Claremont Parkway",
      "To": "Crotona Park North",
      "Direction": "SB",
      "Date": "2020-10-15",
      "flow": 0.0935483870967742,
      "Latitude": "40.8394904",
      "Longitude": "-73.9045399"
    },
    {
      "SegmentID": "35257",
      "RoadwayName": "DRIGGS AVENUE",
      "From": "Lorimer Street",
      "To": "Union Avenue",
      "Direction": "WB",
      "Date": "2020-10-15",
      "flow": 0.07419354838709677,
      "Latitude": "40.7200011",
      "Longitude": "-73.9532534"
    },
    {
      "SegmentID": "70360",
      "RoadwayName": "EAST 149th STREET",
      "From": "Eagle Avenue",
      "To": "Cauldwell Avenue",
      "Direction": "EB",
      "Date": "2020-10-15",
      "flow": 0.3,
      "Latitude": "40.822181",
      "Longitude": "-73.908418"
    },
    {
      "SegmentID": "70360",
      "RoadwayName": "EAST 149TH STREET",
      "From": "Eagle Avenue",
      "To": "Cauldwell Avenue",
      "Direction": "WB",
      "Date": "2020-10-15",
      "flow": 0.22903225806451613,
      "Latitude": "40.822181",
      "Longitude": "-73.908418"
    },
    {
      "SegmentID": "70586",
      "RoadwayName": "EAST 161st STREET",
      "From": "Eagle Avenue",
      "To": "Cauldwell Avenue",
      "Direction": "EB",
      "Date": "2020-10-15",
      "flow": 0.025806451612903226,
      "Latitude": "40.822181",
      "Longitude": "-73.908418"
    },
    {
      "SegmentID": "70607",
      "RoadwayName": "EAST 163rd STREET",
      "From": "Eagle Avenue",
      "To": "Cauldwell Avenue",
      "Direction": "EB",
      "Date": "2020-10-15",
      "flow": 0.31290322580645163,
      "Latitude": "40.822181",
      "Longitude": "-73.908418"
    },
    {
      "SegmentID": "70607",
      "RoadwayName": "EAST 163rd STREET",
      "From": "Eagle Avenue",
      "To": "Cauldwell Avenue",
      "Direction": "WB",
      "Date": "2020-10-15",
      "flow": 0.2806451612903226,
      "Latitude": "40.822181",
      "Longitude": "-73.908418"
    },
    {
      "SegmentID": "77429",
      "RoadwayName": "EAST 163rd STREET",
      "From": "Intervale Avenue",
      "To": "Kelly Street",
      "Direction": "EB",
      "Date": "2020-10-15",
      "flow": 0.3903225806451613,
      "Latitude": "40.8221585",
      "Longitude": "-73.8967991"
    },
    {
      "SegmentID": "77429",
      "RoadwayName": "EAST 163rd STREET",
      "From": "Intervale Avenue",
      "To": "Kelly Street",
      "Direction": "WB",
      "Date": "2020-10-15",
      "flow": 0.2903225806451613,
      "Latitude": "40.8221585",
      "Longitude": "-73.8967991"
    },
    {
      "SegmentID": "9009765",
      "RoadwayName": "EAST 169th STREET",
      "From": "Tinton Avenue",
      "To": "Union Avenue",
      "Direction": "EB",
      "Date": "2020-10-15",
      "flow": 0.1,
      "Latitude": "40.8178792",
      "Longitude": "-73.9050078"
    },
    {
      "SegmentID": "9009765",
      "RoadwayName": "EAST 169th STREET",
      "From": "Tinton Avenue",
      "To": "Union Avenue",
      "Direction": "WB",
      "Date": "2020-10-15",
      "flow": 0.17096774193548386,
      "Latitude": "40.8178792",
      "Longitude": "-73.9050078"
    },
    {
      "SegmentID": "174360",
      "RoadwayName": "EAST 170th STREET",
      "From": "Grant Avenue",
      "To": "Walton Avenue",
      "Direction": "EB",
      "Date": "2020-10-15",
      "flow": 0.0967741935483871,
      "Latitude": "40.6768466",
      "Longitude": "-73.8653952"
    },
    {
      "SegmentID": "174360",
      "RoadwayName": "EAST 170th STREET",
      "From": "Grant Avenue",
      "To": "Morris Avenue",
      "Direction": "WB",
      "Date": "2020-10-15",
      "flow": 0.08064516129032258,
      "Latitude": "40.6768466",
      "Longitude": "-73.8653952"
    },
    {
      "SegmentID": "146865",
      "RoadwayName": "EAST 170th STREET",
      "From": "Grant Avenue",
      "To": "Morris Avenue",
      "Direction": "EB",
      "Date": "2020-10-15",
      "flow": 0.09032258064516129,
      "Latitude": "40.6768466",
      "Longitude": "-73.8653952"
    },
    {
      "SegmentID": "146864",
      "RoadwayName": "EAST 170th STREET",
      "From": "Grant Avenue",
      "To": "Morris Avenue",
      "Direction": "WB",
      "Date": "2020-10-15",
      "flow": 0.10967741935483871,
      "Latitude": "40.6768466",
      "Longitude": "-73.8653952"
    },
    {
      "SegmentID": "78940",
      "RoadwayName": "EAST 174th STREET",
      "From": "Hoe Avenue",
      "To": "Vyse Avenue",
      "Direction": "EB",
      "Date": "2020-10-15",
      "flow": 0.06451612903225806,
      "Latitude": "40.833738",
      "Longitude": "-73.888802"
    },
    {
      "SegmentID": "78940",
      "RoadwayName": "EAST 174th STREET",
      "From": "Hoe Avenue",
      "To": "Vyse Avenue",
      "Direction": "WB",
      "Date": "2020-10-15",
      "flow": 0.08709677419354839,
      "Latitude": "40.833738",
      "Longitude": "-73.888802"
    },
    {
      "SegmentID": "79377",
      "RoadwayName": "EAST 177th STREET",
      "From": "East Tremont Avenue",
      "To": "Devoe Avenue",
      "Direction": "NB",
      "Date": "2020-10-15",
      "flow": 0.13225806451612904,
      "Latitude": "40.8418573",
      "Longitude": "-73.8583296"
    },
    {
      "SegmentID": "79377",
      "RoadwayName": "EAST 177th STREET",
      "From": "East Tremont Avenue",
      "To": "Devoe Avenue",
      "Direction": "SB",
      "Date": "2020-10-15",
      "flow": 0.25161290322580643,
      "Latitude": "40.8418573",
      "Longitude": "-73.8583296"
    },
    {
      "SegmentID": "146887",
      "RoadwayName": "EAST BURNSIDE AVENUE",
      "From": "Creston Avenue",
      "To": "Grand Concourse",
      "Direction": "EB",
      "Date": "2020-10-15",
      "flow": 0.13225806451612904,
      "Latitude": "40.8641451",
      "Longitude": "-73.8971816"
    },
    {
      "SegmentID": "146888",
      "RoadwayName": "EAST BURNSIDE AVENUE",
      "From": "Grand Concourse",
      "To": "Valentine Avenue",
      "Direction": "WB",
      "Date": "2020-10-15",
      "flow": 0.11290322580645161,
      "Latitude": "40.8510934",
      "Longitude": "-73.9046308"
    },
    {
      "SegmentID": "146886",
      "RoadwayName": "EAST BURNSIDE AVENUE",
      "From": "Grand Concourse",
      "To": "Valentine Avenue",
      "Direction": "EB",
      "Date": "2020-10-15",
      "flow": 0.16774193548387098,
      "Latitude": "40.8510934",
      "Longitude": "-73.9046308"
    },
    {
      "SegmentID": "146496",
      "RoadwayName": "EAST BURNSIDE AVENUE",
      "From": "Grand Concourse",
      "To": "Valentine Avenue",
      "Direction": "WB",
      "Date": "2020-10-15",
      "flow": 0.12903225806451613,
      "Latitude": "40.8510934",
      "Longitude": "-73.9046308"
    },
    {
      "SegmentID": "146547",
      "RoadwayName": "EAST FORDHAM ROAD",
      "From": "Bronx River Shoreline",
      "To": "Bronx River Parkway",
      "Direction": "WB",
      "Date": "2020-10-15",
      "flow": 0.667741935483871,
      "Latitude": "40.8554124",
      "Longitude": "-73.8767367"
    },
    {
      "SegmentID": "178396",
      "RoadwayName": "EAST GUN HILL ROAD",
      "From": "Bronx Boulevard",
      "To": "Bronx River Parkway",
      "Direction": "EB",
      "Date": "2020-10-15",
      "flow": 0.41935483870967744,
      "Latitude": "40.8640107",
      "Longitude": "-73.8339775"
    },
    {
      "SegmentID": "178396",
      "RoadwayName": "EAST GUN HILL ROAD",
      "From": "Bronx Boulevard",
      "To": "Bronx River Parkway",
      "Direction": "WB",
      "Date": "2020-10-15",
      "flow": 0.7580645161290323,
      "Latitude": "40.8640107",
      "Longitude": "-73.8339775"
    },
    {
      "SegmentID": "9014434",
      "RoadwayName": "EAST TREMONT AVENUE",
      "From": "Bronx River Shoreline",
      "To": "East 177th Street",
      "Direction": "EB",
      "Date": "2020-10-15",
      "flow": 0.35161290322580646,
      "Latitude": "40.8363101",
      "Longitude": "-73.874253"
    },
    {
      "SegmentID": "9014434",
      "RoadwayName": "EAST TREMONT AVENUE",
      "From": "Bronx River Shoreline",
      "To": "East 177th Street",
      "Direction": "WB",
      "Date": "2020-10-15",
      "flow": 0.2709677419354839,
      "Latitude": "40.8363101",
      "Longitude": "-73.874253"
    },
    {
      "SegmentID": "145229",
      "RoadwayName": "EASTERN PARKWAY",
      "From": "Broadway",
      "To": "Cooke Ct",
      "Direction": "SB",
      "Date": "2020-10-15",
      "flow": 0.2645161290322581,
      "Latitude": "40.8028269",
      "Longitude": "-73.9675054"
    },
    {
      "SegmentID": "157872",
      "RoadwayName": "EASTERN PARKWAY",
      "From": "Broadway",
      "To": "Cooke Ct",
      "Direction": "NB",
      "Date": "2020-10-15",
      "flow": 0.15161290322580645,
      "Latitude": "40.8028269",
      "Longitude": "-73.9675054"
    },
    {
      "SegmentID": "28637",
      "RoadwayName": "FLATBUSH AVENUE",
      "From": "Glenwood Road",
      "To": "East 29th Street",
      "Direction": "NB",
      "Date": "2020-10-15",
      "flow": 0.3870967741935484,
      "Latitude": "40.6031817",
      "Longitude": "-73.9152853"
    },
    {
      "SegmentID": "28637",
      "RoadwayName": "FLATBUSH AVENUE",
      "From": "Glenwood Road",
      "To": "East 29th Street",
      "Direction": "SB",
      "Date": "2020-10-15",
      "flow": 0.3096774193548387,
      "Latitude": "40.6031817",
      "Longitude": "-73.9152853"
    },
    {
      "SegmentID": "9005719",
      "RoadwayName": "FLATLANDS AVENUE",
      "From": "East 108th Street",
      "To": "Williams Avenue",
      "Direction": "NB",
      "Date": "2020-10-15",
      "flow": 0.31290322580645163,
      "Latitude": "40.651881",
      "Longitude": "-73.895861"
    },
    {
      "SegmentID": "9005717",
      "RoadwayName": "FLATLANDS AVENUE",
      "From": "East 108th Street",
      "To": "Williams Avenue",
      "Direction": "SB",
      "Date": "2020-10-15",
      "flow": 0.2870967741935484,
      "Latitude": "40.651881",
      "Longitude": "-73.895861"
    },
    {
      "SegmentID": "42542",
      "RoadwayName": "FLATLANDS AVENUE",
      "From": "East 78th Street",
      "To": "East 79th Street",
      "Direction": "EB",
      "Date": "2020-10-15",
      "flow": 0.25161290322580643,
      "Latitude": "40.637847",
      "Longitude": "-73.918436"
    },
    {
      "SegmentID": "42542",
      "RoadwayName": "FLATLANDS AVENUE",
      "From": "East 78th Street",
      "To": "East 79th Street",
      "Direction": "WB",
      "Date": "2020-10-15",
      "flow": 0.3258064516129032,
      "Latitude": "40.637847",
      "Longitude": "-73.918436"
    },
    {
      "SegmentID": "150110",
      "RoadwayName": "FRANCIS LEWIS BOULEVARD",
      "From": "Horace Harding Expy",
      "To": "73rd Avenue",
      "Direction": "SB",
      "Date": "2020-10-15",
      "flow": 0.02903225806451613,
      "Latitude": "40.77318",
      "Longitude": "-73.7958221"
    },
    {
      "SegmentID": "156785",
      "RoadwayName": "FRANCIS LEWIS BOULEVARD",
      "From": "Horace Harding Expy",
      "To": "73rd Avenue",
      "Direction": "NB",
      "Date": "2020-10-15",
      "flow": 0.035483870967741936,
      "Latitude": "40.77318",
      "Longitude": "-73.7958221"
    },
    {
      "SegmentID": "19559",
      "RoadwayName": "FT HAMILTON PARKWAY",
      "From": "66th Street",
      "To": "67th Street",
      "Direction": "EB",
      "Date": "2020-10-15",
      "flow": 0.13548387096774195,
      "Latitude": "40.7249332",
      "Longitude": "-73.8985833"
    },
    {
      "SegmentID": "19559",
      "RoadwayName": "FT HAMILTON PARKWAY",
      "From": "66th Street",
      "To": "67th Street",
      "Direction": "WB",
      "Date": "2020-10-15",
      "flow": 0.08387096774193549,
      "Latitude": "40.7249332",
      "Longitude": "-73.8985833"
    },
    {
      "SegmentID": "110263",
      "RoadwayName": "GLEN STREET",
      "From": "Lois Lane",
      "To": "Fahy Avenue",
      "Direction": "NB",
      "Date": "2020-10-15",
      "flow": 0.02258064516129032,
      "Latitude": "40.612213",
      "Longitude": "-74.175561"
    },
    {
      "SegmentID": "176279",
      "RoadwayName": "GRAND CONCOURSE",
      "From": "East 188th Street",
      "To": "East 184th Street",
      "Direction": "NB",
      "Date": "2020-10-15",
      "flow": 0.14516129032258066,
      "Latitude": "40.8510934",
      "Longitude": "-73.9046308"
    },
    {
      "SegmentID": "176279",
      "RoadwayName": "GRAND CONCOURSE",
      "From": "East 188th Street",
      "To": "East 184th Street",
      "Direction": "SB",
      "Date": "2020-10-15",
      "flow": 0.15161290322580645,
      "Latitude": "40.8510934",
      "Longitude": "-73.9046308"
    },
    {
      "SegmentID": "148198",
      "RoadwayName": "GRAND CONCOURSE",
      "From": "East 184th Street",
      "To": "East 187th Street",
      "Direction": "SB",
      "Date": "2020-10-15",
      "flow": 0.23548387096774193,
      "Latitude": "40.8510934",
      "Longitude": "-73.9046308"
    },
    {
      "SegmentID": "148197",
      "RoadwayName": "GRAND CONCOURSE",
      "From": "East 184th Street",
      "To": "East 187th Street",
      "Direction": "NB",
      "Date": "2020-10-15",
      "flow": 0.1870967741935484,
      "Latitude": "40.8510934",
      "Longitude": "-73.9046308"
    },
    {
      "SegmentID": "184562",
      "RoadwayName": "GRAND CONCOURSE",
      "From": "East Mt Eve Avenue",
      "To": "Hawkstone Street",
      "Direction": "NB",
      "Date": "2020-10-15",
      "flow": 0.15161290322580645,
      "Latitude": "40.8510934",
      "Longitude": "-73.9046308"
    },
    {
      "SegmentID": "184562",
      "RoadwayName": "GRAND CONCOURSE",
      "From": "East Mt Eve Avenue",
      "To": "Hawkstone Street",
      "Direction": "SB",
      "Date": "2020-10-15",
      "flow": 0.2,
      "Latitude": "40.8510934",
      "Longitude": "-73.9046308"
    },
    {
      "SegmentID": "144881",
      "RoadwayName": "GRAND CONCOURSE",
      "From": "Hawkstone Street",
      "To": "East Mt Eden Avenue",
      "Direction": "SB",
      "Date": "2020-10-15",
      "flow": 0.1774193548387097,
      "Latitude": "40.8510934",
      "Longitude": "-73.9046308"
    },
    {
      "SegmentID": "149759",
      "RoadwayName": "GRAND CONCOURSE",
      "From": "Hawkstone Street",
      "To": "Mt Eden Parkway",
      "Direction": "NB",
      "Date": "2020-10-15",
      "flow": 0.2870967741935484,
      "Latitude": "40.8510934",
      "Longitude": "-73.9046308"
    },
    {
      "SegmentID": "31123",
      "RoadwayName": "GRAND STREET",
      "From": "Union Avenue",
      "To": "Lorimer Street",
      "Direction": "EB",
      "Date": "2020-10-15",
      "flow": 0.1032258064516129,
      "Latitude": "40.7132751",
      "Longitude": "-73.9776678"
    },
    {
      "SegmentID": "31123",
      "RoadwayName": "GRAND STREET",
      "From": "Union Avenue",
      "To": "Lorimer Street",
      "Direction": "WB",
      "Date": "2020-10-15",
      "flow": 0.25161290322580643,
      "Latitude": "40.7132751",
      "Longitude": "-73.9776678"
    },
    {
      "SegmentID": "9004434",
      "RoadwayName": "HARROD AVENUE",
      "From": "Cross Bronx River Expressway",
      "To": "East 174th Street",
      "Direction": "NB",
      "Date": "2020-10-15",
      "flow": 0.03870967741935484,
      "Latitude": "40.8447476",
      "Longitude": "-73.9117036"
    },
    {
      "SegmentID": "9004434",
      "RoadwayName": "HARROD AVENUE",
      "From": "Cross Bronx River Expressway",
      "To": "East 174th Street",
      "Direction": "SB",
      "Date": "2020-10-15",
      "flow": 0.02903225806451613,
      "Latitude": "40.8447476",
      "Longitude": "-73.9117036"
    },
    {
      "SegmentID": "157603",
      "RoadwayName": "JAMAICA AVENUE",
      "From": "Georgia Avenue",
      "To": "Sheffied Avenue",
      "Direction": "EB",
      "Date": "2020-10-15",
      "flow": 0.2967741935483871,
      "Latitude": "40.6521022",
      "Longitude": "-73.887989"
    },
    {
      "SegmentID": "157676",
      "RoadwayName": "JAMAICA AVENUE",
      "From": "Georgia Avenue",
      "To": "Fanchon Place",
      "Direction": "WB",
      "Date": "2020-10-15",
      "flow": 0.24193548387096775,
      "Latitude": "40.6521022",
      "Longitude": "-73.887989"
    },
    {
      "SegmentID": "49572",
      "RoadwayName": "JAMAICA AVENUE",
      "From": "Hemlock Street",
      "To": "Autumn Avenue",
      "Direction": "EB",
      "Date": "2020-10-15",
      "flow": 0.1064516129032258,
      "Latitude": "40.684704",
      "Longitude": "-73.8713701"
    },