{
  "1:00-2:00AM": [
    {
      "SegmentID": "96671",
      "RoadwayName": "188 Street",
      "From": "Rio Drive",
      "To": "Henley Road",
      "Direction": "NB",
      "Date": "2019-09-22",
      "flow": 0.4016393442622951,
      "Latitude": "40.7185067",
      "Longitude": "-73.7748952"
    },
    {
      "SegmentID": "96671",
      "RoadwayName": "188 Street",
      "From": "Rio Drive",
      "To": "Henley Road",
      "Direction": "SB",
      "Date": "2019-09-22",
      "flow": 0.5136612021857924,
      "Latitude": "40.7185067",
      "Longitude": "-73.7748952"
    },
    {
      "SegmentID": "117242",
      "RoadwayName": "200 Street",
      "From": "36 Avenue",
      "To": "Francis Lewis Boulevard",
      "Direction": "NB",
      "Date": "2019-09-22",
      "flow": 0.00819672131147541,
      "Latitude": "40.71364135",
      "Longitude": "-74.01482043"
    },
    {
      "SegmentID": "98876",
      "RoadwayName": "26 Avenue",
      "From": "201 Street",
      "To": "202 Street",
      "Direction": "EB",
      "Date": "2019-09-22",
      "flow": 0.060109289617486336,
      "Latitude": "42.4373576",
      "Longitude": "-76.4945086"
    },
    {
      "SegmentID": "98876",
      "RoadwayName": "26 Avenue",
      "From": "201 Street",
      "To": "202 Street",
      "Direction": "WB",
      "Date": "2019-09-22",
      "flow": 0.06830601092896176,
      "Latitude": "42.4373576",
      "Longitude": "-76.4945086"
    },
    {
      "SegmentID": "97492",
      "RoadwayName": "35 Avenue",
      "From": "Francis Lewis Boulevard",
      "To": "200 Street",
      "Direction": "EB",
      "Date": "2019-09-22",
      "flow": 0.12295081967213115,
      "Latitude": "40.7127281",
      "Longitude": "-74.0060152"
    },
    {
      "SegmentID": "97492",
      "RoadwayName": "35 Avenue",
      "From": "Francis Lewis Boulevard",
      "To": "200 Street",
      "Direction": "WB",
      "Date": "2019-09-22",
      "flow": 0.1557377049180328,
      "Latitude": "40.7127281",
      "Longitude": "-74.0060152"
    },
    {
      "SegmentID": "97525",
      "RoadwayName": "35 Avenue",
      "From": "203 Street",
      "To": "204 Street",
      "Direction": "EB",
      "Date": "2019-09-22",
      "flow": 0.1830601092896175,
      "Latitude": "40.7127281",
      "Longitude": "-74.0060152"
    },
    {
      "SegmentID": "97525",
      "RoadwayName": "35 Avenue",
      "From": "203 Street",
      "To": "204 Street",
      "Direction": "WB",
      "Date": "2019-09-22",
      "flow": 0.14207650273224043,
      "Latitude": "40.7127281",
      "Longitude": "-74.0060152"
    },
    {
      "SegmentID": "21331",
      "RoadwayName": "37 Street",
      "From": "12 Avenue",
      "To": "13 Avenue",
      "Direction": "EB",
      "Date": "2019-09-22",
      "flow": 0.08743169398907104,
      "Latitude": "40.8178841",
      "Longitude": "-73.9604648"
    },
    {
      "SegmentID": "21327",
      "RoadwayName": "39 Street",
      "From": "12 Avenue",
      "To": "13 Avenue",
      "Direction": "EB",
      "Date": "2019-09-22",
      "flow": 0.04644808743169399,
      "Latitude": "40.7583819",
      "Longitude": "-73.9984041"
    },
    {
      "SegmentID": "21327",
      "RoadwayName": "39 Street",
      "From": "12 Avenue",
      "To": "13 Avenue",
      "Direction": "WB",
      "Date": "2019-09-22",
      "flow": 0.04371584699453552,
      "Latitude": "40.7583819",
      "Longitude": "-73.9984041"
    },
    {
      "SegmentID": "97302",
      "RoadwayName": "45 Avenue",
      "From": "192 Street",
      "To": "193 Street",
      "Direction": "WB",
      "Date": "2019-09-22",
      "flow": 0.01366120218579235,
      "Latitude": "40.54747245",
      "Longitude": "-74.21054678"
    },
    {
      "SegmentID": "97302",
      "RoadwayName": "45 Avenue",
      "From": "192 Street",
      "To": "193 Street",
      "Direction": "EB",
      "Date": "2019-09-22",
      "flow": 0.03825136612021858,
      "Latitude": "40.54747245",
      "Longitude": "-74.21054678"
    },
    {
      "SegmentID": "21164",
      "RoadwayName": "49 Street",
      "From": "12 Avenue",
      "To": "13 Avenue",
      "Direction": "WB",
      "Date": "2019-09-22",
      "flow": 0.07923497267759563,
      "Latitude": "40.8178841",
      "Longitude": "-73.9604648"
    },
    {
      "SegmentID": "28923",
      "RoadwayName": "5 Avenue",
      "From": "Douglass Street",
      "To": "De Graw Street",
      "Direction": "NB",
      "Date": "2019-09-22",
      "flow": 0.3224043715846995,
      "Latitude": "40.5467724",
      "Longitude": "-74.21034999"
    },
    {
      "SegmentID": "21148",
      "RoadwayName": "50 Street",
      "From": "New Utecht Avenue",
      "To": "13 Avenue",
      "Direction": "EB",
      "Date": "2019-09-22",
      "flow": 0.10109289617486339,
      "Latitude": "40.7616618",
      "Longitude": "-73.9838968"
    },
    {
      "SegmentID": "19805",
      "RoadwayName": "60 Street",
      "From": "11 Avenue",
      "To": "12 Avenue",
      "Direction": "EB",
      "Date": "2019-09-22",
      "flow": 0.10109289617486339,
      "Latitude": "40.5923764",
      "Longitude": "-73.7887383"
    },
    {
      "SegmentID": "19805",
      "RoadwayName": "60 Street",
      "From": "11 Avenue",
      "To": "12 Avenue",
      "Direction": "WB",
      "Date": "2019-09-22",
      "flow": 0.36065573770491804,
      "Latitude": "40.5923764",
      "Longitude": "-73.7887383"
    },
    {
      "SegmentID": "81815",
      "RoadwayName": "63 Drive",
      "From": "Wetherole St.",
      "To": "Booth Street",
      "Direction": "NB",
      "Date": "2019-09-22",
      "flow": 0.3360655737704918,
      "Latitude": "40.7279569",
      "Longitude": "-73.8635025"
    },
    {
      "SegmentID": "81815",
      "RoadwayName": "63 Drive",
      "From": "Wetherole St.",
      "To": "Booth Street",
      "Direction": "SB",
      "Date": "2019-09-22",
      "flow": 0.09562841530054644,
      "Latitude": "40.7279569",
      "Longitude": "-73.8635025"
    },
    {
      "SegmentID": "19566",
      "RoadwayName": "65 Street",
      "From": "10 Avenue",
      "To": "11 Avenue",
      "Direction": "EB",
      "Date": "2019-09-22",
      "flow": 1,
      "Latitude": "40.6682755",
      "Longitude": "-73.9946405"
    },
    {
      "SegmentID": "19566",
      "RoadwayName": "65 Street",
      "From": "10 Avenue",
      "To": "11 Avenue",
      "Direction": "WB",
      "Date": "2019-09-22",
      "flow": 0.273224043715847,
      "Latitude": "40.6682755",
      "Longitude": "-73.9946405"
    },
    {
      "SegmentID": "20157",
      "RoadwayName": "65 Street",
      "From": "18 Avenue",
      "To": "19 Avenue",
      "Direction": "EB",
      "Date": "2019-09-22",
      "flow": 0.546448087431694,
      "Latitude": "40.6682755",
      "Longitude": "-73.9946405"
    },
    {
      "SegmentID": "20157",
      "RoadwayName": "65 Street",
      "From": "18 Avenue",
      "To": "19 Avenue",
      "Direction": "WB",
      "Date": "2019-09-22",
      "flow": 0.3907103825136612,
      "Latitude": "40.6682755",
      "Longitude": "-73.9946405"
    },
    {
      "SegmentID": "96615",
      "RoadwayName": "73 Avenue",
      "From": "194 Street",
      "To": "195 Street",
      "Direction": "WB",
      "Date": "2019-09-22",
      "flow": 0.07377049180327869,
      "Latitude": "40.72847335",
      "Longitude": "-73.89326198"
    },
    {
      "SegmentID": "96615",
      "RoadwayName": "73 Avenue",
      "From": "194 Street",
      "To": "195 Street",
      "Direction": "EB",
      "Date": "2019-09-22",
      "flow": 0.04644808743169399,
      "Latitude": "40.72847335",
      "Longitude": "-73.89326198"
    },
    {
      "SegmentID": "19461",
      "RoadwayName": "8 Avenue",
      "From": "67 Street",
      "To": "68 Street",
      "Direction": "NB",
      "Date": "2019-09-22",
      "flow": 0.11475409836065574,
      "Latitude": "40.7683107",
      "Longitude": "-73.96440596"
    },
    {
      "SegmentID": "19461",
      "RoadwayName": "8 Avenue",
      "From": "67 Street",
      "To": "68 Street",
      "Direction": "SB",
      "Date": "2019-09-22",
      "flow": 0.16666666666666666,
      "Latitude": "40.7683107",
      "Longitude": "-73.96440596"
    },
    {
      "SegmentID": "52297",
      "RoadwayName": "80 Street",
      "From": "68 Avenue",
      "To": "68 Road",
      "Direction": "NB",
      "Date": "2019-09-22",
      "flow": 0.1994535519125683,
      "Latitude": "40.7651325",
      "Longitude": "-73.9580265"
    },
    {
      "SegmentID": "52297",
      "RoadwayName": "80 Street",
      "From": "68 Avenue",
      "To": "68 Road",
      "Direction": "SB",
      "Date": "2019-09-22",
      "flow": 0.25956284153005466,
      "Latitude": "40.7651325",
      "Longitude": "-73.9580265"
    },
    {
      "SegmentID": "112136",
      "RoadwayName": "Amboy Road",
      "From": "3 Street",
      "To": "Dale Ave",
      "Direction": "NB",
      "Date": "2019-09-22",
      "flow": 0.24043715846994534,
      "Latitude": "40.57364435",
      "Longitude": "-74.00012135"
    },
    {
      "SegmentID": "112136",
      "RoadwayName": "Amboy Road",
      "From": "2 Street",
      "To": "Dale Ave.",
      "Direction": "SB",
      "Date": "2019-09-22",
      "flow": 0.20218579234972678,
      "Latitude": "40.5472181",
      "Longitude": "-74.21231751"
    },
    {
      "SegmentID": "22924",
      "RoadwayName": "Atlantic Avenue",
      "From": "3 Avenue",
      "To": "4 Avenue",
      "Direction": "WB",
      "Date": "2019-09-22",
      "flow": 0.9972677595628415,
      "Latitude": "40.54678755",
      "Longitude": "-74.21027354"
    },
    {
      "SegmentID": "22924",
      "RoadwayName": "Atlantic Avenue",
      "From": "3 Avenue",
      "To": "4 Avenue",
      "Direction": "EB",
      "Date": "2019-09-22",
      "flow": 0.9508196721311475,
      "Latitude": "40.54678755",
      "Longitude": "-74.21027354"
    },
    {
      "SegmentID": "70931",
      "RoadwayName": "Audubon Ave",
      "From": "West 172 St",
      "To": "West 173 St",
      "Direction": "NB",
      "Date": "2019-09-22",
      "flow": 0.11475409836065574,
      "Latitude": "43.0014991",
      "Longitude": "-76.1489914"
    },
    {
      "SegmentID": "70931",
      "RoadwayName": "Audubon Ave",
      "From": "West 172 St",
      "To": "West 173 St",
      "Direction": "SB",
      "Date": "2019-09-22",
      "flow": 0.1994535519125683,
      "Latitude": "43.0014991",
      "Longitude": "-76.1489914"
    },
    {
      "SegmentID": "27017",
      "RoadwayName": "Avenue J",
      "From": "East 12 Street",
      "To": "East 13 Street",
      "Direction": "EB",
      "Date": "2019-09-22",
      "flow": 0.2786885245901639,
      "Latitude": "40.625039",
      "Longitude": "-73.960803"
    },
    {
      "SegmentID": "27017",
      "RoadwayName": "Avenue J",
      "From": "East 12 Street",
      "To": "East 13 Street",
      "Direction": "WB",
      "Date": "2019-09-22",
      "flow": 0.3087431693989071,
      "Latitude": "40.625039",
      "Longitude": "-73.960803"
    },
    {
      "SegmentID": "27147",
      "RoadwayName": "Avenue M",
      "From": "Brighton Line",
      "To": "East 16 Street",
      "Direction": "EB",
      "Date": "2019-09-22",
      "flow": 0.11475409836065574,
      "Latitude": "40.6178971",
      "Longitude": "-73.959474"
    },
    {
      "SegmentID": "27147",
      "RoadwayName": "Avenue M",
      "From": "Brighton Line",
      "To": "East 16 Street",
      "Direction": "WB",
      "Date": "2019-09-22",
      "flow": 0.13934426229508196,
      "Latitude": "40.6178971",
      "Longitude": "-73.959474"
    },
    {
      "SegmentID": "27120",
      "RoadwayName": "Avenue N",
      "From": "East 15 Street",
      "To": "Brighton Line",
      "Direction": "EB",
      "Date": "2019-09-22",
      "flow": 0.4344262295081967,
      "Latitude": "40.7326744",
      "Longitude": "-73.9835879"
    },
    {
      "SegmentID": "26964",
      "RoadwayName": "Avenue P",
      "From": "East 12 Street",
      "To": "East 13 Street",
      "Direction": "EB",
      "Date": "2019-09-22",
      "flow": 0.3360655737704918,
      "Latitude": "40.608944",
      "Longitude": "-73.973022"
    },
    {
      "SegmentID": "26964",
      "RoadwayName": "Avenue P",
      "From": "East 12 Street",
      "To": "East 13 Street",
      "Direction": "WB",
      "Date": "2019-09-22",
      "flow": 0.3333333333333333,
      "Latitude": "40.608944",
      "Longitude": "-73.973022"
    },
    {
      "SegmentID": "20147",
      "RoadwayName": "Bay Ridge Avenue",
      "From": "19 Avenue",
      "To": "20 Avenue",
      "Direction": "EB",
      "Date": "2019-09-22",
      "flow": 0.09016393442622951,
      "Latitude": "40.6987989",
      "Longitude": "-73.97471527"
    },
    {
      "SegmentID": "15736",
      "RoadwayName": "Bay St",
      "From": "William St",
      "To": "Congress St",
      "Direction": "NB",
      "Date": "2019-09-22",
      "flow": 0.20491803278688525,
      "Latitude": "40.7083391",
      "Longitude": "-74.0076543"
    },
    {
      "SegmentID": "15736",
      "RoadwayName": "Bay St",
      "From": "William St",
      "To": "Congress St",
      "Direction": "SB",
      "Date": "2019-09-22",
      "flow": 0.3633879781420765,
      "Latitude": "40.7083391",
      "Longitude": "-74.0076543"
    },
    {
      "SegmentID": "15540",
      "RoadwayName": "Beach St",
      "From": "Union Pl",
      "To": "Van Duzer St",
      "Direction": "EB",
      "Date": "2019-09-22",
      "flow": 0.06557377049180328,
      "Latitude": "40.6277638",
      "Longitude": "-74.0772802"
    },
    {
      "SegmentID": "15540",
      "RoadwayName": "Beach St",
      "From": "Union Pl",
      "To": "Van Duzer St",
      "Direction": "WB",
      "Date": "2019-09-22",
      "flow": 0.09016393442622951,
      "Latitude": "40.6277638",
      "Longitude": "-74.0772802"
    },
    {
      "SegmentID": "98338",
      "RoadwayName": "Bell Boulevard",
      "From": "45 Drive",
      "To": "46 Avenue",
      "Direction": "NB",
      "Date": "2019-09-22",
      "flow": 0.09562841530054644,
      "Latitude": "40.84097805",
      "Longitude": "-73.86140949"
    },
    {
      "SegmentID": "98338",
      "RoadwayName": "Bell Boulevard",
      "From": "45 Drive",
      "To": "46 Avenue",
      "Direction": "SB",
      "Date": "2019-09-22",
      "flow": 0.1994535519125683,
      "Latitude": "40.84097805",
      "Longitude": "-73.86140949"
    },
    {
      "SegmentID": "91014",
      "RoadwayName": "Booth Memorial Ave.",
      "From": "College Point Boulevard",
      "To": "133 Street",
      "Direction": "EB",
      "Date": "2019-09-22",
      "flow": 0.3005464480874317,
      "Latitude": "40.7525496",
      "Longitude": "-73.8325339"
    },
    {
      "SegmentID": "91014",
      "RoadwayName": "Booth Memorial Ave.",
      "From": "College Point Boulevard",
      "To": "133 Street",
      "Direction": "WB",
      "Date": "2019-09-22",
      "flow": 0.3114754098360656,
      "Latitude": "40.7525496",
      "Longitude": "-73.8325339"
    },
    {
      "SegmentID": "70939",
      "RoadwayName": "Broadway",
      "From": "West 174 St",
      "To": "West 175 St",
      "Direction": "NB",
      "Date": "2019-09-22",
      "flow": 0.30327868852459017,
      "Latitude": "40.8028269",
      "Longitude": "-73.9675054"
    },
    {
      "SegmentID": "70939",
      "RoadwayName": "Broadway",
      "From": "West 174 St",
      "To": "West 175 St",
      "Direction": "SB",
      "Date": "2019-09-22",
      "flow": 0.5573770491803278,
      "Latitude": "40.8028269",
      "Longitude": "-73.9675054"
    },
    {
      "SegmentID": "74501",
      "RoadwayName": "Caldwell Avenue",
      "From": "72 Street",
      "To": "74 Street",
      "Direction": "WB",
      "Date": "2019-09-22",
      "flow": 0.07377049180327869,
      "Latitude": "40.7790162",
      "Longitude": "-73.9818557"
    },
    {
      "SegmentID": "22219",
      "RoadwayName": "Clinton Street",
      "From": "Sackett Street",
      "To": "Union Street",
      "Direction": "NB",
      "Date": "2019-09-22",
      "flow": 0.18032786885245902,
      "Latitude": "40.6857022",
      "Longitude": "-74.0049954"
    },
    {
      "SegmentID": "15047",
      "RoadwayName": "Clove Rd",
      "From": "Neckar Ave",
      "To": "Weser Ave",
      "Direction": "EB",
      "Date": "2019-09-22",
      "flow": 0.10109289617486339,
      "Latitude": "40.6139911",
      "Longitude": "-74.1012626"
    },
    {
      "SegmentID": "15047",
      "RoadwayName": "Clove Rd",
      "From": "Neckar Ave",
      "To": "Weser Ave",
      "Direction": "WB",
      "Date": "2019-09-22",
      "flow": 0.1284153005464481,
      "Latitude": "40.6139911",
      "Longitude": "-74.1012626"
    },
    {
      "SegmentID": "157129",
      "RoadwayName": "College Point Beoulevard",
      "From": "Dead End",
      "To": "Botanical Garden Bridge",
      "Direction": "NB",
      "Date": "2019-09-22",
      "flow": 0.5683060109289617,
      "Latitude": "40.8401745",
      "Longitude": "-73.82344175"
    },
    {
      "SegmentID": "156916",
      "RoadwayName": "College Point Boulevard",
      "From": "Dead End",
      "To": "Botanical Grdn Bridge",
      "Direction": "SB",
      "Date": "2019-09-22",
      "flow": 0.5819672131147541,
      "Latitude": "40.7525496",
      "Longitude": "-73.8325339"
    },
    {
      "SegmentID": "22023",
      "RoadwayName": "Columbia Street",
      "From": "Kane Street",
      "To": "Irving Street",
      "Direction": "NB",
      "Date": "2019-09-22",
      "flow": 0.01912568306010929,
      "Latitude": "40.6863978",
      "Longitude": "-73.9972781"
    },
    {
      "SegmentID": "22023",
      "RoadwayName": "Columbia Street",
      "From": "Kane Street",
      "To": "Irving Street",
      "Direction": "SB",
      "Date": "2019-09-22",
      "flow": 0.21584699453551912,
      "Latitude": "40.6863978",
      "Longitude": "-73.9972781"
    },
    {
      "SegmentID": "22409",
      "RoadwayName": "Court Street",
      "From": "De Graw Street",
      "To": "Sackett Street",
      "Direction": "SB",
      "Date": "2019-09-22",
      "flow": 0.4262295081967213,
      "Latitude": "40.6941",
      "Longitude": "-73.991777"
    },
    {
      "SegmentID": "157208",
      "RoadwayName": "Francis Lewis Boulevard",
      "From": "Dead End",
      "To": "Dead End",
      "Direction": "EB",
      "Date": "2019-09-22",
      "flow": 0.1284153005464481,
      "Latitude": "40.7135593",
      "Longitude": "-73.753829"
    },
    {
      "SegmentID": "96010",
      "RoadwayName": "Fresh Meadow Lane",
      "From": "Horace Harding Expressway Sr. S",
      "To": "65 Avenue",
      "Direction": "NB",
      "Date": "2019-09-22",
      "flow": 0,
      "Latitude": "40.6336953",
      "Longitude": "-74.07832907"
    },
    {
      "SegmentID": "96010",
      "RoadwayName": "Fresh Meadow Lane",
      "From": "Horace Harding Expressway Sr. S",
      "To": "65 Avenue",
      "Direction": "SB",
      "Date": "2019-09-22",
      "flow": 0.030054644808743168,
      "Latitude": "40.6336953",
      "Longitude": "-74.07832907"
    },
    {
      "SegmentID": "21399",
      "RoadwayName": "Ft Hamilton Parkway",
      "From": "Chester Avenue",
      "To": "36 Street",
      "Direction": "NB",
      "Date": "2019-09-22",
      "flow": 0.319672131147541,
      "Latitude": "40.6437651",
      "Longitude": "-73.9839445"
    },
    {
      "SegmentID": "21399",
      "RoadwayName": "Ft Hamilton Parkway",
      "From": "Chester Avenue",
      "To": "36 Street",
      "Direction": "SB",
      "Date": "2019-09-22",
      "flow": 0.5109289617486339,
      "Latitude": "40.6437651",
      "Longitude": "-73.9839445"
    },
    {
      "SegmentID": "19555",
      "RoadwayName": "Ft Hamilton Parkway",
      "From": "67 Street",
      "To": "68 Street",
      "Direction": "NB",
      "Date": "2019-09-22",
      "flow": 0.3251366120218579,
      "Latitude": "40.7285606",
      "Longitude": "-73.959184"
    },
    {
      "SegmentID": "19555",
      "RoadwayName": "Ft Hamilton Parkway",
      "From": "67 Street",
      "To": "68 Street",
      "Direction": "SB",
      "Date": "2019-09-22",
      "flow": 0.3114754098360656,
      "Latitude": "40.7285606",
      "Longitude": "-73.959184"
    },
    {
      "SegmentID": "182686",
      "RoadwayName": "Hewlett Street",
      "From": "Dead end",
      "To": "Union Turnpike",
      "Direction": "NB",
      "Date": "2019-09-22",
      "flow": 0.17759562841530055,
      "Latitude": "40.753754",
      "Longitude": "-73.704711"
    },
    {
      "SegmentID": "182686",
      "RoadwayName": "Hewlett Street",
      "From": "Dead End",
      "To": "Union Turnpike",
      "Direction": "SB",
      "Date": "2019-09-22",
      "flow": 0.16666666666666666,
      "Latitude": "40.753754",
      "Longitude": "-73.704711"
    },
    {
      "SegmentID": "22227",
      "RoadwayName": "Hicks Street",
      "From": "Kane Street",
      "To": "De Graw Street",
      "Direction": "NB",
      "Date": "2019-09-22",
      "flow": 0.2896174863387978,
      "Latitude": "40.6863978",
      "Longitude": "-73.9972781"
    },
    {
      "SegmentID": "22221",
      "RoadwayName": "Hicks Street",
      "From": "Kane Street",
      "To": "De Graw Street",
      "Direction": "SB",
      "Date": "2019-09-22",
      "flow": 0.16939890710382513,
      "Latitude": "40.6863978",
      "Longitude": "-73.9972781"
    },
    {
      "SegmentID": "114869",
      "RoadwayName": "Hylan Blvd South",
      "From": "Olga Pl",
      "To": "Olga Pl",
      "Direction": "NB",
      "Date": "2019-09-22",
      "flow": 0.36885245901639346,
      "Latitude": "40.603789",
      "Longitude": "-74.076663"
    },
    {
      "SegmentID": "14422",
      "RoadwayName": "Steuben St",
      "From": "Hylan Blvd North",
      "To": "Olga Place",
      "Direction": "SB",
      "Date": "2019-09-22",
      "flow": 0.5956284153005464,
      "Latitude": "40.6067335",
      "Longitude": "-74.0758037"
    },
    {
      "SegmentID": "14602",
      "RoadwayName": "Hylan Blvd.",
      "From": "Fingerboard Rd",
      "To": "Dead End",
      "Direction": "NB",
      "Date": "2019-09-22",
      "flow": 0.11475409836065574,
      "Latitude": "40.602132",
      "Longitude": "-74.070593"
    },
    {
      "SegmentID": "14602",
      "RoadwayName": "Hylan Blvd.",
      "From": "Fingerboard St.",
      "To": "Dead End",
      "Direction": "SB",
      "Date": "2019-09-22",
      "flow": 0.26229508196721313,
      "Latitude": "40.600128",
      "Longitude": "-74.0915119"
    },
    {
      "SegmentID": "152334",
      "RoadwayName": "Hylan Boulevard",
      "From": "Ebbitts Street",
      "To": "Dead end",
      "Direction": "NB",
      "Date": "2019-09-22",
      "flow": 0.5382513661202186,
      "Latitude": "40.563146",
      "Longitude": "-74.107869"
    },
    {
      "SegmentID": "155338",
      "RoadwayName": "Hylan Boulevard",
      "From": "Allison Avenue",
      "To": "Princeton Avenue",
      "Direction": "SB",
      "Date": "2019-09-22",
      "flow": 0.2896174863387978,
      "Latitude": "40.5675611",
      "Longitude": "-74.1157632"
    },
    {
      "SegmentID": "52940",
      "RoadwayName": "Jamaica Avenue",
      "From": "101 Street",
      "To": "102 Street",
      "Direction": "EB",
      "Date": "2019-09-22",
      "flow": 0.18579234972677597,
      "Latitude": "40.7023681",
      "Longitude": "-73.8036015"
    },
    {
      "SegmentID": "52940",
      "RoadwayName": "Jamaica Avenue",
      "From": "101 Street",
      "To": "102 Street",
      "Direction": "WB",
      "Date": "2019-09-22",
      "flow": 0.3251366120218579,
      "Latitude": "40.7023681",
      "Longitude": "-73.8036015"
    },
    {
      "SegmentID": "9007483",
      "RoadwayName": "Kissena Boulevard",
      "From": "Dead end",
      "To": "Melbourne Avenue",
      "Direction": "NB",
      "Date": "2019-09-22",
      "flow": 0.24316939890710382,
      "Latitude": "40.8401745",
      "Longitude": "-73.82344175"
    },
    {
      "SegmentID": "9007488",
      "RoadwayName": "Kissena Boulevard",
      "From": "Dead End",
      "To": "Melbourne Ave.",
      "Direction": "SB",
      "Date": "2019-09-22",
      "flow": 0.33879781420765026,
      "Latitude": "40.8401745",
      "Longitude": "-73.82344175"
    },
    {
      "SegmentID": "57167",
      "RoadwayName": "Lakewood Avenue",
      "From": "Inwood Street",
      "To": "Princeton Street",
      "Direction": "EB",
      "Date": "2019-09-22",
      "flow": 0.09016393442622951,
      "Latitude": "40.6799541",
      "Longitude": "-73.7955745"
    },
    {
      "SegmentID": "57167",
      "RoadwayName": "Lakewood Avenue",
      "From": "Inwood Street",
      "To": "Princeton Street",
      "Direction": "WB",
      "Date": "2019-09-22",
      "flow": 0.09562841530054644,
      "Latitude": "40.6799541",
      "Longitude": "-73.7955745"
    },
    {
      "SegmentID": "9005244",
      "RoadwayName": "Manor Road",
      "From": "Dead end",
      "To": "Dead end",
      "Direction": "NB",
      "Date": "2019-09-22",
      "flow": 0.1284153005464481,
      "Latitude": "40.6092982",
      "Longitude": "-74.1212609"
    },
    {
      "SegmentID": "9005244",
      "RoadwayName": "Manor Road",
      "From": "Dead end",
      "To": "Dead end",
      "Direction": "SB",
      "Date": "2019-09-22",
      "flow": 0.15027322404371585,
      "Latitude": "40.6092982",
      "Longitude": "-74.1212609"
    },
    {
      "SegmentID": "275873",
      "RoadwayName": "Myrtle Avenue",
      "From": "Freedom Drive",
      "To": "Memorial Drive",
      "Direction": "EB",
      "Date": "2019-09-22",
      "flow": 0.21584699453551912,
      "Latitude": "40.700494",
      "Longitude": "-73.8481861"
    },
    {
      "SegmentID": "275873",
      "RoadwayName": "Myrtle Avenue",
      "From": "Freedom Drive",
      "To": "Memorial Drive",
      "Direction": "WB",
      "Date": "2019-09-22",
      "flow": 0.09289617486338798,
      "Latitude": "40.700494",
      "Longitude": "-73.8481861"
    },
    {
      "SegmentID": "97309",
      "RoadwayName": "Northern Boulevard",
      "From": "191 Street",
      "To": "192 Street",
      "Direction": "EB",
      "Date": "2019-09-22",
      "flow": 0.3879781420765027,
      "Latitude": "40.7530794",
      "Longitude": "-73.9062074"
    },
    {
      "SegmentID": "97309",
      "RoadwayName": "Northern Boulevard",
      "From": "191 Street",
      "To": "192 Street",
      "Direction": "WB",
      "Date": "2019-09-22",
      "flow": 0.3469945355191257,
      "Latitude": "40.7530794",
      "Longitude": "-73.9062074"
    },
    {
      "SegmentID": "98008",
      "RoadwayName": "Northern Boulevard",
      "From": "Oceania Street",
      "To": "Corporal Kennedy Street",
      "Direction": "EB",
      "Date": "2019-09-22",
      "flow": 0.40437158469945356,
      "Latitude": "40.7530794",
      "Longitude": "-73.9062074"
    },
    {
      "SegmentID": "98008",
      "RoadwayName": "Northern Boulevard",
      "From": "Oceania Street",
      "To": "Corporal Kennedy Stret",
      "Direction": "WB",
      "Date": "2019-09-22",
      "flow": 0.36885245901639346,
      "Latitude": "40.7530794",
      "Longitude": "-73.9062074"
    },
    {
      "SegmentID": "27577",
      "RoadwayName": "Nostrand Avenue",
      "From": "Avenue P",
      "To": "Stuart Street",
      "Direction": "NB",
      "Date": "2019-09-22",
      "flow": 0.26229508196721313,
      "Latitude": "40.608944",
      "Longitude": "-73.973022"
    },
    {
      "SegmentID": "27577",
      "RoadwayName": "Nostrand Avenue",
      "From": "Avenue P",
      "To": "Stuart Street",
      "Direction": "SB",
      "Date": "2019-09-22",
      "flow": 0.2650273224043716,
      "Latitude": "40.608944",
      "Longitude": "-73.973022"
    },
    {
      "SegmentID": "12946",
      "RoadwayName": "Ocean Terrace",
      "From": "Dead End",
      "To": "Milford Dr",
      "Direction": "NB",
      "Date": "2019-09-22",
      "flow": 0.10655737704918032,
      "Latitude": "40.6099752",
      "Longitude": "-74.1017632"
    },
    {
      "SegmentID": "12946",
      "RoadwayName": "Ocean Terrace",
      "From": "Dead End",
      "To": "Milford Dr",
      "Direction": "SB",
      "Date": "2019-09-22",
      "flow": 0.02185792349726776,
      "Latitude": "40.6099752",
      "Longitude": "-74.1017632"
    },
    {
      "SegmentID": "91425",
      "RoadwayName": "Parsons Boulevard",
      "From": "37 Avenue",
      "To": "38 Avenue",
      "Direction": "NB",
      "Date": "2019-09-22",
      "flow": 0.1557377049180328,
      "Latitude": "40.707564",
      "Longitude": "-73.803326"
    },
    {
      "SegmentID": "91425",
      "RoadwayName": "Parsons Boulevard",
      "From": "37 Avenue",
      "To": "38 Avenue",
      "Direction": "SB",
      "Date": "2019-09-22",
      "flow": 0.2786885245901639,
      "Latitude": "40.707564",
      "Longitude": "-73.803326"
    },
    {
      "SegmentID": "149278",
      "RoadwayName": "Richmond Ave",
      "From": "Yukon Ave",
      "To": "Dead End",
      "Direction": "SB",
      "Date": "2019-09-22",
      "flow": 0.3005464480874317,
      "Latitude": "40.5741893",
      "Longitude": "-74.1638395"
    },
    {
      "SegmentID": "155290",
      "RoadwayName": "Richmond Ave",
      "From": "Yukon Ave",
      "To": "Yukon Ave",
      "Direction": "NB",
      "Date": "2019-09-22",
      "flow": 0.7431693989071039,
      "Latitude": "40.5741893",
      "Longitude": "-74.1638395"
    },
    {
      "SegmentID": "112431",
      "RoadwayName": "Richmond Rd",
      "From": "Clove Rd",
      "To": "Dead End",
      "Direction": "SB",
      "Date": "2019-09-22",
      "flow": 0.6830601092896175,
      "Latitude": "40.5973154",
      "Longitude": "-74.0929447"
    },
    {
      "SegmentID": "111985",
      "RoadwayName": "Richmond Rd",
      "From": "Clove Rd",
      "To": "Dead End",
      "Direction": "SB",
      "Date": "2019-09-22",
      "flow": 0.5409836065573771,
      "Latitude": "40.5973154",
      "Longitude": "-74.0929447"
    },
    {
      "SegmentID": "98540",
      "RoadwayName": "Springfield Boulevard",
      "From": "219 Street",
      "To": "46 Avenue",
      "Direction": "NB",
      "Date": "2019-09-22",
      "flow": 0.02459016393442623,
      "Latitude": "40.7803531",
      "Longitude": "-73.9513584"
    },
    {
      "SegmentID": "98540",
      "RoadwayName": "Springfield Boulevard",
      "From": "219 Street",
      "To": "46 Avenue",
      "Direction": "SB",
      "Date": "2019-09-22",
      "flow": 0.060109289617486336,
      "Latitude": "40.7803531",
      "Longitude": "-73.9513584"
    },
    {
      "SegmentID": "101166",
      "RoadwayName": "Springfield Boulevard",
      "From": "64 Ave",
      "To": "67 Ave",
      "Direction": "NB",
      "Date": "2019-09-22",
      "flow": 0.02459016393442623,
      "Latitude": "41.7134121",
      "Longitude": "-73.9250864"
    },
    {
      "SegmentID": "101166",
      "RoadwayName": "Springfield Boulevard",
      "From": "64 Avenue",
      "To": "67 Avenue",
      "Direction": "SB",
      "Date": "2019-09-22",
      "flow": 0.09289617486338798,
      "Latitude": "40.7658729",
      "Longitude": "-73.9657559"
    },
    {
      "SegmentID": "70957",
      "RoadwayName": "St Nicholas Ave",
      "From": "Broadway/ 7 Ave Line",
      "To": "Broadway/ 7 Ave Line",
      "Direction": "NB",
      "Date": "2019-09-22",
      "flow": 0.6147540983606558,
      "Latitude": "40.8241432",
      "Longitude": "-73.9446885"
    },
    {
      "SegmentID": "70957",
      "RoadwayName": "St Nicholas Ave",
      "From": "Broadway / 7 Ave Line",
      "To": "Broadway / 7 Ave Line",
      "Direction": "SB",
      "Date": "2019-09-22",
      "flow": 0.45081967213114754,
      "Latitude": "40.8241432",
      "Longitude": "-73.9446885"
    },
    {
      "SegmentID": "50660",
      "RoadwayName": "Sutter Avenue",
      "From": "Hemlock Street",
      "To": "Autumn Avenue",
      "Direction": "WB",
      "Date": "2019-09-22",
      "flow": 0.3825136612021858,
      "Latitude": "40.684704",
      "Longitude": "-73.8713701"
    },
    {
      "SegmentID": "114825",
      "RoadwayName": "Targee St",
      "From": "Columbus Ave",
      "To": "Richmond Rd",
      "Direction": "NB",
      "Date": "2019-09-22",
      "flow": 0.23770491803278687,
      "Latitude": "40.7998673",
      "Longitude": "-73.9624226"
    },
    {
      "SegmentID": "156721",
      "RoadwayName": "Union Turnpike",
      "From": "196 Street",
      "To": "196 Place",
      "Direction": "EB",
      "Date": "2019-09-22",
      "flow": 0.05737704918032787,
      "Latitude": "40.7454151",
      "Longitude": "-73.715169"
    },
    {
      "SegmentID": "145421",
      "RoadwayName": "Union Turnpike",
      "From": "Dead end",
      "To": "Dead end",
      "Direction": "WB",
      "Date": "2019-09-22",
      "flow": 0.06830601092896176,
      "Latitude": "40.7454151",
      "Longitude": "-73.715169"
    },
    {
      "SegmentID": "156045",
      "RoadwayName": "Utopia Parkway",
      "From": "Dead End",
      "To": "45 Avenue",
      "Direction": "NB",
      "Date": "2019-09-22",
      "flow": 0.19398907103825136,
      "Latitude": "40.8401745",
      "Longitude": "-73.82344175"
    },
    {
      "SegmentID": "152386",
      "RoadwayName": "Utopia Parkway",
      "From": "Dead End",
      "To": "45 Avenue",
      "Direction": "SB",
      "Date": "2019-09-22",
      "flow": 0.2459016393442623,
      "Latitude": "40.8401745",
      "Longitude": "-73.82344175"
    },
    {
      "SegmentID": "112566",
      "RoadwayName": "Van Duzer St",
      "From": "Broad St",
      "To": "Jake Court",
      "Direction": "SB",
      "Date": "2019-09-22",
      "flow": 0.27595628415300544,
      "Latitude": "40.6255943",
      "Longitude": "-74.0844979"
    },
    {
      "SegmentID": "160109",
      "RoadwayName": "Victory Boulevard",
      "From": "South Gannon Avenue",
      "To": "Dr M L King Ep Nb En Victory Bl",
      "Direction": "EB",
      "Date": "2019-09-22",
      "flow": 0.5901639344262295,
      "Latitude": "40.6377769",
      "Longitude": "-74.0758638"
    },
    {
      "SegmentID": "160109",
      "RoadwayName": "Victory Boulevard",
      "From": "South Gannon Avenue",
      "To": "Dr M L King Ep Nb En Victory Bl",
      "Direction": "WB",
      "Date": "2019-09-22",
      "flow": 0.46174863387978143,
      "Latitude": "40.6377769",
      "Longitude": "-74.0758638"
    },
    {
      "SegmentID": "218038",
      "RoadwayName": "Woodrow Road",
      "From": "Dead End",
      "To": "Everton Avenue",
      "Direction": "NB",
      "Date": "2019-09-22",
      "flow": 0.05737704918032787,
      "Latitude": "40.5416162",
      "Longitude": "-74.2097325"
    },
    {
      "SegmentID": "218038",
      "RoadwayName": "Woodrow Road",
      "From": "Dead end",
      "To": "Everton Avenue",
      "Direction": "SB",
      "Date": "2019-09-22",
      "flow": 0.03825136612021858,
      "Latitude": "40.5416162",
      "Longitude": "-74.2097325"
    },
    {
      "SegmentID": "103545",
      "RoadwayName": "Woolley Aveneue",
      "From": "Westwood Avenue",
      "To": "Dawson Street",
      "Direction": "SB",
      "Date": "2019-09-22",
      "flow": 0.3551912568306011,
      "Latitude": "40.6056918",
      "Longitude": "-74.1397543"
    },
    {
      "SegmentID": "103545",
      "RoadwayName": "Woolley Avenue",
      "From": "Westwood Avenue",
      "To": "Dawson Street",
      "Direction": "NB",
      "Date": "2019-09-22",
      "flow": 0.16666666666666666,
      "Latitude": "40.6056918",
      "Longitude": "-74.1397543"
    }
  ],
  "2:00-3:00AM": [
    {
      "SegmentID": "96671",
      "RoadwayName": "188 Street",
      "From": "Rio Drive",
      "To": "Henley Road",
      "Direction": "NB",
      "Date": "2019-09-22",
      "flow": 0.392226148409894,
      "Latitude": "40.7185067",
      "Longitude": "-73.7748952"
    },
    {
      "SegmentID": "96671",
      "RoadwayName": "188 Street",
      "From": "Rio Drive",
      "To": "Henley Road",
      "Direction": "SB",
      "Date": "2019-09-22",
      "flow": 0.6713780918727915,
      "Latitude": "40.7185067",
      "Longitude": "-73.7748952"
    },
    {
      "SegmentID": "117242",
      "RoadwayName": "200 Street",
      "From": "36 Avenue",
      "To": "Francis Lewis Boulevard",
      "Direction": "NB",
      "Date": "2019-09-22",
      "flow": 0,
      "Latitude": "40.71364135",
      "Longitude": "-74.01482043"
    },
    {
      "SegmentID": "98876",
      "RoadwayName": "26 Avenue",
      "From": "201 Street",
      "To": "202 Street",
      "Direction": "EB",
      "Date": "2019-09-22",
      "flow": 0.028268551236749116,
      "Latitude": "42.4373576",
      "Longitude": "-76.4945086"
    },
    {
      "SegmentID": "98876",
      "RoadwayName": "26 Avenue",
      "From": "201 Street",
      "To": "202 Street",
      "Direction": "WB",
      "Date": "2019-09-22",
      "flow": 0.045936395759717315,
      "Latitude": "42.4373576",
      "Longitude": "-76.4945086"
    },
    {
      "SegmentID": "97492",
      "RoadwayName": "35 Avenue",
      "From": "Francis Lewis Boulevard",
      "To": "200 Street",
      "Direction": "EB",
      "Date": "2019-09-22",
      "flow": 0.08833922261484099,
      "Latitude": "40.7127281",
      "Longitude": "-74.0060152"
    },
    {
      "SegmentID": "97492",
      "RoadwayName": "35 Avenue",
      "From": "Francis Lewis Boulevard",
      "To": "200 Street",
      "Direction": "WB",
      "Date": "2019-09-22",
      "flow": 0.12014134275618374,
      "Latitude": "40.7127281",
      "Longitude": "-74.0060152"
    },
    {
      "SegmentID": "97525",
      "RoadwayName": "35 Avenue",
      "From": "203 Street",
      "To": "204 Street",
      "Direction": "EB",
      "Date": "2019-09-22",
      "flow": 0.05653710247349823,
      "Latitude": "40.7127281",
      "Longitude": "-74.0060152"
    },
    {
      "SegmentID": "97525",
      "RoadwayName": "35 Avenue",
      "From": "203 Street",
      "To": "204 Street",
      "Direction": "WB",
      "Date": "2019-09-22",
      "flow": 0.127208480565371,
      "Latitude": "40.7127281",
      "Longitude": "-74.0060152"
    },
    {
      "SegmentID": "21331",
      "RoadwayName": "37 Street",
      "From": "12 Avenue",
      "To": "13 Avenue",
      "Direction": "EB",
      "Date": "2019-09-22",
      "flow": 0.13427561837455831,
      "Latitude": "40.8178841",
      "Longitude": "-73.9604648"
    },
    {
      "SegmentID": "21327",
      "RoadwayName": "39 Street",
      "From": "12 Avenue",
      "To": "13 Avenue",
      "Direction": "EB",
      "Date": "2019-09-22",
      "flow": 0.08833922261484099,
      "Latitude": "40.7583819",
      "Longitude": "-73.9984041"
    },
    {
      "SegmentID": "21327",
      "RoadwayName": "39 Street",
      "From": "12 Avenue",
      "To": "13 Avenue",
      "Direction": "WB",
      "Date": "2019-09-22",
      "flow": 0.0812720848056537,
      "Latitude": "40.7583819",
      "Longitude": "-73.9984041"
    },
    {
      "SegmentID": "97302",
      "RoadwayName": "45 Avenue",
      "From": "192 Street",
      "To": "193 Street",
      "Direction": "WB",
      "Date": "2019-09-22",
      "flow": 0.024734982332155476,
      "Latitude": "40.54747245",
      "Longitude": "-74.21054678"
    },
    {
      "SegmentID": "97302",
      "RoadwayName": "45 Avenue",
      "From": "192 Street",
      "To": "193 Street",
      "Direction": "EB",
      "Date": "2019-09-22",
      "flow": 0.01060070671378092,
      "Latitude": "40.54747245",
      "Longitude": "-74.21054678"
    },
    {
      "SegmentID": "21164",
      "RoadwayName": "49 Street",
      "From": "12 Avenue",
      "To": "13 Avenue",
      "Direction": "WB",
      "Date": "2019-09-22",
      "flow": 0.024734982332155476,
      "Latitude": "40.8178841",
      "Longitude": "-73.9604648"
    },
    {
      "SegmentID": "28923",
      "RoadwayName": "5 Avenue",
      "From": "Douglass Street",
      "To": "De Graw Street",
      "Direction": "NB",
      "Date": "2019-09-22",
      "flow": 0.3745583038869258,
      "Latitude": "40.5467724",
      "Longitude": "-74.21034999"
    },
    {
      "SegmentID": "21148",
      "RoadwayName": "50 Street",
      "From": "New Utecht Avenue",
      "To": "13 Avenue",
      "Direction": "EB",
      "Date": "2019-09-22",
      "flow": 0.09540636042402827,
      "Latitude": "40.7616618",
      "Longitude": "-73.9838968"
    },
    {
      "SegmentID": "19805",
      "RoadwayName": "60 Street",
      "From": "11 Avenue",
      "To": "12 Avenue",
      "Direction": "EB",
      "Date": "2019-09-22",
      "flow": 0.1519434628975265,
      "Latitude": "40.5923764",
      "Longitude": "-73.7887383"
    },
    {
      "SegmentID": "19805",
      "RoadwayName": "60 Street",
      "From": "11 Avenue",
      "To": "12 Avenue",
      "Direction": "WB",
      "Date": "2019-09-22",
      "flow": 0.1625441696113074,
      "Latitude": "40.5923764",
      "Longitude": "-73.7887383"
    },
    {
      "SegmentID": "81815",
      "RoadwayName": "63 Drive",
      "From": "Wetherole St.",
      "To": "Booth Street",
      "Direction": "NB",
      "Date": "2019-09-22",
      "flow": 0.21554770318021202,
      "Latitude": "40.7279569",
      "Longitude": "-73.8635025"
    },
    {
      "SegmentID": "81815",
      "RoadwayName": "63 Drive",
      "From": "Wetherole St.",
      "To": "Booth Street",
      "Direction": "SB",
      "Date": "2019-09-22",
      "flow": 0.08480565371024736,
      "Latitude": "40.7279569",
      "Longitude": "-73.8635025"
    },
    {
      "SegmentID": "19566",
      "RoadwayName": "65 Street",
      "From": "10 Avenue",
      "To": "11 Avenue",
      "Direction": "EB",
      "Date": "2019-09-22",
      "flow": 1,
      "Latitude": "40.6682755",
      "Longitude": "-73.9946405"
    },
    {
      "SegmentID": "19566",
      "RoadwayName": "65 Street",
      "From": "10 Avenue",
      "To": "11 Avenue",
      "Direction": "WB",
      "Date": "2019-09-22",
      "flow": 0.3957597173144876,
      "Latitude": "40.6682755",
      "Longitude": "-73.9946405"
    },
    {
      "SegmentID": "20157",
      "RoadwayName": "65 Street",
      "From": "18 Avenue",
      "To": "19 Avenue",
      "Direction": "EB",
      "Date": "2019-09-22",
      "flow": 0.4911660777385159,
      "Latitude": "40.6682755",
      "Longitude": "-73.9946405"
    },
    {
      "SegmentID": "20157",
      "RoadwayName": "65 Street",
      "From": "18 Avenue",
      "To": "19 Avenue",
      "Direction": "WB",
      "Date": "2019-09-22",
      "flow": 0.37809187279151946,
      "Latitude": "40.6682755",
      "Longitude": "-73.9946405"
    },
    {
      "SegmentID": "96615",
      "RoadwayName": "73 Avenue",
      "From": "194 Street",
      "To": "195 Street",
      "Direction": "WB",
      "Date": "2019-09-22",
      "flow": 0.07420494699646643,
      "Latitude": "40.72847335",
      "Longitude": "-73.89326198"
    },
    {
      "SegmentID": "96615",
      "RoadwayName": "73 Avenue",
      "From": "194 Street",
      "To": "195 Street",
      "Direction": "EB",
      "Date": "2019-09-22",
      "flow": 0.0353356890459364,
      "Latitude": "40.72847335",
      "Longitude": "-73.89326198"
    },
    {
      "SegmentID": "19461",
      "RoadwayName": "8 Avenue",
      "From": "67 Street",
      "To": "68 Street",
      "Direction": "NB",
      "Date": "2019-09-22",
      "flow": 0.08480565371024736,
      "Latitude": "40.7683107",
      "Longitude": "-73.96440596"
    },
    {
      "SegmentID": "19461",
      "RoadwayName": "8 Avenue",
      "From": "67 Street",
      "To": "68 Street",
      "Direction": "SB",
      "Date": "2019-09-22",
      "flow": 0.10600706713780919,
      "Latitude": "40.7683107",
      "Longitude": "-73.96440596"
    },
    {
      "SegmentID": "52297",
      "RoadwayName": "80 Street",
      "From": "68 Avenue",
      "To": "68 Road",
      "Direction": "NB",
      "Date": "2019-09-22",
      "flow": 0.20141342756183744,
      "Latitude": "40.7651325",
      "Longitude": "-73.9580265"
    },
    {
      "SegmentID": "52297",
      "RoadwayName": "80 Street",
      "From": "68 Avenue",
      "To": "68 Road",
      "Direction": "SB",
      "Date": "2019-09-22",
      "flow": 0.2862190812720848,
      "Latitude": "40.7651325",
      "Longitude": "-73.9580265"
    },
    {
      "SegmentID": "112136",
      "RoadwayName": "Amboy Road",
      "From": "3 Street",
      "To": "Dale Ave",
      "Direction": "NB",
      "Date": "2019-09-22",
      "flow": 0.21554770318021202,
      "Latitude": "40.57364435",
      "Longitude": "-74.00012135"
    },
    {
      "SegmentID": "112136",
      "RoadwayName": "Amboy Road",
      "From": "2 Street",
      "To": "Dale Ave.",
      "Direction": "SB",
      "Date": "2019-09-22",
      "flow": 0.16607773851590105,
      "Latitude": "40.5472181",
      "Longitude": "-74.21231751"
    },
    {
      "SegmentID": "22924",
      "RoadwayName": "Atlantic Avenue",
      "From": "3 Avenue",
      "To": "4 Avenue",
      "Direction": "WB",
      "Date": "2019-09-22",
      "flow": 0.7102473498233216,
      "Latitude": "40.54678755",
      "Longitude": "-74.21027354"
    },
    {
      "SegmentID": "22924",
      "RoadwayName": "Atlantic Avenue",
      "From": "3 Avenue",
      "To": "4 Avenue",
      "Direction": "EB",
      "Date": "2019-09-22",
      "flow": 0.7703180212014135,
      "Latitude": "40.54678755",
      "Longitude": "-74.21027354"
    },
    {
      "SegmentID": "70931",
      "RoadwayName": "Audubon Ave",
      "From": "West 172 St",
      "To": "West 173 St",
      "Direction": "NB",
      "Date": "2019-09-22",
      "flow": 0.19434628975265017,
      "Latitude": "43.0014991",
      "Longitude": "-76.1489914"
    },
    {
      "SegmentID": "70931",
      "RoadwayName": "Audubon Ave",
      "From": "West 172 St",
      "To": "West 173 St",
      "Direction": "SB",
      "Date": "2019-09-22",
      "flow": 0.21554770318021202,
      "Latitude": "43.0014991",
      "Longitude": "-76.1489914"
    },
    {
      "SegmentID": "27017",
      "RoadwayName": "Avenue J",
      "From": "East 12 Street",
      "To": "East 13 Street",
      "Direction": "EB",
      "Date": "2019-09-22",
      "flow": 0.24028268551236748,
      "Latitude": "40.625039",
      "Longitude": "-73.960803"
    },
    {
      "SegmentID": "27017",
      "RoadwayName": "Avenue J",
      "From": "East 12 Street",
      "To": "East 13 Street",
      "Direction": "WB",
      "Date": "2019-09-22",
      "flow": 0.2756183745583039,
      "Latitude": "40.625039",
      "Longitude": "-73.960803"
    },
    {
      "SegmentID": "27147",
      "RoadwayName": "Avenue M",
      "From": "Brighton Line",
      "To": "East 16 Street",
      "Direction": "EB",
      "Date": "2019-09-22",
      "flow": 0.10600706713780919,
      "Latitude": "40.6178971",
      "Longitude": "-73.959474"
    },
    {
      "SegmentID": "27147",
      "RoadwayName": "Avenue M",
      "From": "Brighton Line",
      "To": "East 16 Street",
      "Direction": "WB",
      "Date": "2019-09-22",
      "flow": 0.0989399293286219,
      "Latitude": "40.6178971",
      "Longitude": "-73.959474"
    },
    {
      "SegmentID": "27120",
      "RoadwayName": "Avenue N",
      "From": "East 15 Street",
      "To": "Brighton Line",
      "Direction": "EB",
      "Date": "2019-09-22",
      "flow": 0.4840989399293286,
      "Latitude": "40.7326744",
      "Longitude": "-73.9835879"
    },
    {
      "SegmentID": "26964",
      "RoadwayName": "Avenue P",
      "From": "East 12 Street",
      "To": "East 13 Street",
      "Direction": "EB",
      "Date": "2019-09-22",
      "flow": 0.254416961130742,
      "Latitude": "40.608944",
      "Longitude": "-73.973022"
    },
    {
      "SegmentID": "26964",
      "RoadwayName": "Avenue P",
      "From": "East 12 Street",
      "To": "East 13 Street",
      "Direction": "WB",
      "Date": "2019-09-22",
      "flow": 0.27208480565371024,
      "Latitude": "40.608944",
      "Longitude": "-73.973022"
    },
    {
      "SegmentID": "20147",
      "RoadwayName": "Bay Ridge Avenue",
      "From": "19 Avenue",
      "To": "20 Avenue",
      "Direction": "EB",
      "Date": "2019-09-22",
      "flow": 0.06007067137809187,
      "Latitude": "40.6987989",
      "Longitude": "-73.97471527"
    },
    {
      "SegmentID": "15736",
      "RoadwayName": "Bay St",
      "From": "William St",
      "To": "Congress St",
      "Direction": "NB",
      "Date": "2019-09-22",
      "flow": 0.2579505300353357,
      "Latitude": "40.7083391",
      "Longitude": "-74.0076543"
    },
    {
      "SegmentID": "15736",
      "RoadwayName": "Bay St",
      "From": "William St",
      "To": "Congress St",
      "Direction": "SB",
      "Date": "2019-09-22",
      "flow": 0.37809187279151946,
      "Latitude": "40.7083391",
      "Longitude": "-74.0076543"
    },
    {
      "SegmentID": "15540",
      "RoadwayName": "Beach St",
      "From": "Union Pl",
      "To": "Van Duzer St",
      "Direction": "EB",
      "Date": "2019-09-22",
      "flow": 0.09187279151943463,
      "Latitude": "40.6277638",
      "Longitude": "-74.0772802"
    },
    {
      "SegmentID": "15540",
      "RoadwayName": "Beach St",
      "From": "Union Pl",
      "To": "Van Duzer St",
      "Direction": "WB",
      "Date": "2019-09-22",
      "flow": 0.08833922261484099,
      "Latitude": "40.6277638",
      "Longitude": "-74.0772802"
    },
    {
      "SegmentID": "98338",
      "RoadwayName": "Bell Boulevard",
      "From": "45 Drive",
      "To": "46 Avenue",
      "Direction": "NB",
      "Date": "2019-09-22",
      "flow": 0.10600706713780919,
      "Latitude": "40.84097805",
      "Longitude": "-73.86140949"
    },
    {
      "SegmentID": "98338",
      "RoadwayName": "Bell Boulevard",
      "From": "45 Drive",
      "To": "46 Avenue",
      "Direction": "SB",
      "Date": "2019-09-22",
      "flow": 0.13074204946996468,
      "Latitude": "40.84097805",
      "Longitude": "-73.86140949"
    },
    {
      "SegmentID": "91014",
      "RoadwayName": "Booth Memorial Ave.",
      "From": "College Point Boulevard",
      "To": "133 Street",
      "Direction": "EB",
      "Date": "2019-09-22",
      "flow": 0.21201413427561838,
      "Latitude": "40.7525496",
      "Longitude": "-73.8325339"
    },
    {
      "SegmentID": "91014",
      "RoadwayName": "Booth Memorial Ave.",
      "From": "College Point Boulevard",
      "To": "133 Street",
      "Direction": "WB",
      "Date": "2019-09-22",
      "flow": 0.21554770318021202,
      "Latitude": "40.7525496",
      "Longitude": "-73.8325339"
    },
    {
      "SegmentID": "70939",
      "RoadwayName": "Broadway",
      "From": "West 174 St",
      "To": "West 175 St",
      "Direction": "NB",
      "Date": "2019-09-22",
      "flow": 0.3321554770318021,
      "Latitude": "40.8028269",
      "Longitude": "-73.9675054"
    },
    {
      "SegmentID": "70939",
      "RoadwayName": "Broadway",
      "From": "West 174 St",
      "To": "West 175 St",
      "Direction": "SB",
      "Date": "2019-09-22",
      "flow": 0.5123674911660777,
      "Latitude": "40.8028269",
      "Longitude": "-73.9675054"
    },
    {
      "SegmentID": "74501",
      "RoadwayName": "Caldwell Avenue",
      "From": "72 Street",
      "To": "74 Street",
      "Direction": "WB",
      "Date": "2019-09-22",
      "flow": 0.09187279151943463,
      "Latitude": "40.7790162",
      "Longitude": "-73.9818557"
    },
    {
      "SegmentID": "22219",
      "RoadwayName": "Clinton Street",
      "From": "Sackett Street",
      "To": "Union Street",
      "Direction": "NB",
      "Date": "2019-09-22",
      "flow": 0.1519434628975265,
      "Latitude": "40.6857022",
      "Longitude": "-74.0049954"
    },
    {
      "SegmentID": "15047",
      "RoadwayName": "Clove Rd",
      "From": "Neckar Ave",
      "To": "Weser Ave",
      "Direction": "EB",
      "Date": "2019-09-22",
      "flow": 0.26501766784452296,
      "Latitude": "40.6139911",
      "Longitude": "-74.1012626"
    },
    {
      "SegmentID": "15047",
      "RoadwayName": "Clove Rd",
      "From": "Neckar Ave",
      "To": "Weser Ave",
      "Direction": "WB",
      "Date": "2019-09-22",
      "flow": 0.053003533568904596,
      "Latitude": "40.6139911",
      "Longitude": "-74.1012626"
    },
    {
      "SegmentID": "157129",
      "RoadwayName": "College Point Beoulevard",
      "From": "Dead End",
      "To": "Botanical Garden Bridge",
      "Direction": "NB",
      "Date": "2019-09-22",
      "flow": 0.5441696113074205,
      "Latitude": "40.8401745",
      "Longitude": "-73.82344175"
    },
    {
      "SegmentID": "156916",
      "RoadwayName": "College Point Boulevard",
      "From": "Dead End",
      "To": "Botanical Grdn Bridge",
      "Direction": "SB",
      "Date": "2019-09-22",
      "flow": 0.6325088339222615,
      "Latitude": "40.7525496",
      "Longitude": "-73.8325339"
    },
    {
      "SegmentID": "22023",
      "RoadwayName": "Columbia Street",
      "From": "Kane Street",
      "To": "Irving Street",
      "Direction": "NB",
      "Date": "2019-09-22",
      "flow": 0.03180212014134275,
      "Latitude": "40.6863978",
      "Longitude": "-73.9972781"
    },
    {
      "SegmentID": "22023",
      "RoadwayName": "Columbia Street",
      "From": "Kane Street",
      "To": "Irving Street",
      "Direction": "SB",
      "Date": "2019-09-22",
      "flow": 0.20848056537102475,
      "Latitude": "40.6863978",
      "Longitude": "-73.9972781"
    },
    {
      "SegmentID": "22409",
      "RoadwayName": "Court Street",
      "From": "De Graw Street",
      "To": "Sackett Street",
      "Direction": "SB",
      "Date": "2019-09-22",
      "flow": 0.3286219081272085,
      "Latitude": "40.6941",
      "Longitude": "-73.991777"
    },
    {
      "SegmentID": "157208",
      "RoadwayName": "Francis Lewis Boulevard",
      "From": "Dead End",
      "To": "Dead End",
      "Direction": "EB",
      "Date": "2019-09-22",
      "flow": 0.08833922261484099,
      "Latitude": "40.7135593",
      "Longitude": "-73.753829"
    },
    {
      "SegmentID": "96010",
      "RoadwayName": "Fresh Meadow Lane",
      "From": "Horace Harding Expressway Sr. S",
      "To": "65 Avenue",
      "Direction": "NB",
      "Date": "2019-09-22",
      "flow": 0.007067137809187279,
      "Latitude": "40.6336953",
      "Longitude": "-74.07832907"
    },
    {
      "SegmentID": "96010",
      "RoadwayName": "Fresh Meadow Lane",
      "From": "Horace Harding Expressway Sr. S",
      "To": "65 Avenue",
      "Direction": "SB",
      "Date": "2019-09-22",
      "flow": 0.04240282685512368,
      "Latitude": "40.6336953",
      "Longitude": "-74.07832907"
    },
    {
      "SegmentID": "21399",
      "RoadwayName": "Ft Hamilton Parkway",
      "From": "Chester Avenue",
      "To": "36 Street",
      "Direction": "NB",
      "Date": "2019-09-22",
      "flow": 0.36395759717314485,
      "Latitude": "40.6437651",
      "Longitude": "-73.9839445"
    },
    {
      "SegmentID": "21399",
      "RoadwayName": "Ft Hamilton Parkway",
      "From": "Chester Avenue",
      "To": "36 Street",
      "Direction": "SB",
      "Date": "2019-09-22",
      "flow": 0.5300353356890459,
      "Latitude": "40.6437651",
      "Longitude": "-73.9839445"
    },
    {
      "SegmentID": "19555",
      "RoadwayName": "Ft Hamilton Parkway",
      "From": "67 Street",
      "To": "68 Street",
      "Direction": "NB",
      "Date": "2019-09-22",
      "flow": 0.254416961130742,
      "Latitude": "40.7285606",
      "Longitude": "-73.959184"
    },
    {
      "SegmentID": "19555",
      "RoadwayName": "Ft Hamilton Parkway",
      "From": "67 Street",
      "To": "68 Street",
      "Direction": "SB",
      "Date": "2019-09-22",
      "flow": 0.14840989399293286,
      "Latitude": "40.7285606",
      "Longitude": "-73.959184"
    },
    {
      "SegmentID": "182686",
      "RoadwayName": "Hewlett Street",
      "From": "Dead end",
      "To": "Union Turnpike",
      "Direction": "NB",
      "Date": "2019-09-22",
      "flow": 0.0989399293286219,
      "Latitude": "40.753754",
      "Longitude": "-73.704711"
    },
    {
      "SegmentID": "182686",
      "RoadwayName": "Hewlett Street",
      "From": "Dead End",
      "To": "Union Turnpike",
      "Direction": "SB",
      "Date": "2019-09-22",
      "flow": 0.1413427561837456,
      "Latitude": "40.753754",
      "Longitude": "-73.704711"
    },
    {
      "SegmentID": "22227",
      "RoadwayName": "Hicks Street",
      "From": "Kane Street",
      "To": "De Graw Street",
      "Direction": "NB",
      "Date": "2019-09-22",
      "flow": 0.1872791519434629,
      "Latitude": "40.6863978",
      "Longitude": "-73.9972781"
    },
    {
      "SegmentID": "22221",
      "RoadwayName": "Hicks Street",
      "From": "Kane Street",
      "To": "De Graw Street",
      "Direction": "SB",
      "Date": "2019-09-22",
      "flow": 0.18021201413427562,
      "Latitude": "40.6863978",
      "Longitude": "-73.9972781"
    },
    {
      "SegmentID": "114869",
      "RoadwayName": "Hylan Blvd South",
      "From": "Olga Pl",
      "To": "Olga Pl",
      "Direction": "NB",
      "Date": "2019-09-22",
      "flow": 0.29328621908127206,
      "Latitude": "40.603789",
      "Longitude": "-74.076663"
    },
    {
      "SegmentID": "14422",
      "RoadwayName": "Steuben St",
      "From": "Hylan Blvd North",
      "To": "Olga Place",
      "Direction": "SB",
      "Date": "2019-09-22",
      "flow": 0.5406360424028268,
      "Latitude": "40.6067335",
      "Longitude": "-74.0758037"
    },
    {
      "SegmentID": "14602",
      "RoadwayName": "Hylan Blvd.",
      "From": "Fingerboard Rd",
      "To": "Dead End",
      "Direction": "NB",
      "Date": "2019-09-22",
      "flow": 0.12014134275618374,
      "Latitude": "40.602132",
      "Longitude": "-74.070593"
    },
    {
      "SegmentID": "14602",
      "RoadwayName": "Hylan Blvd.",
      "From": "Fingerboard St.",
      "To": "Dead End",
      "Direction": "SB",
      "Date": "2019-09-22",
      "flow": 0.1519434628975265,
      "Latitude": "40.600128",
      "Longitude": "-74.0915119"
    },
    {
      "SegmentID": "152334",
      "RoadwayName": "Hylan Boulevard",
      "From": "Ebbitts Street",
      "To": "Dead end",
      "Direction": "NB",
      "Date": "2019-09-22",
      "flow": 0.43462897526501765,
      "Latitude": "40.563146",
      "Longitude": "-74.107869"
    },
    {
      "SegmentID": "155338",
      "RoadwayName": "Hylan Boulevard",
      "From": "Allison Avenue",
      "To": "Princeton Avenue",
      "Direction": "SB",
      "Date": "2019-09-22",
      "flow": 0.31802120141342755,
      "Latitude": "40.5675611",
      "Longitude": "-74.1157632"
    },
    {
      "SegmentID": "52940",
      "RoadwayName": "Jamaica Avenue",
      "From": "101 Street",
      "To": "102 Street",
      "Direction": "EB",
      "Date": "2019-09-22",
      "flow": 0.19434628975265017,
      "Latitude": "40.7023681",
      "Longitude": "-73.8036015"
    },
    {
      "SegmentID": "52940",
      "RoadwayName": "Jamaica Avenue",
      "From": "101 Street",
      "To": "102 Street",
      "Direction": "WB",
      "Date": "2019-09-22",
      "flow": 0.3215547703180212,
      "Latitude": "40.7023681",
      "Longitude": "-73.8036015"
    },
    {
      "SegmentID": "9007483",
      "RoadwayName": "Kissena Boulevard",
      "From": "Dead end",
      "To": "Melbourne Avenue",
      "Direction": "NB",
      "Date": "2019-09-22",
      "flow": 0.26148409893992935,
      "Latitude": "40.8401745",
      "Longitude": "-73.82344175"
    },
    {
      "SegmentID": "9007488",
      "RoadwayName": "Kissena Boulevard",
      "From": "Dead End",
      "To": "Melbourne Ave.",
      "Direction": "SB",
      "Date": "2019-09-22",
      "flow": 0.36395759717314485,
      "Latitude": "40.8401745",
      "Longitude": "-73.82344175"
    },
    {
      "SegmentID": "57167",
      "RoadwayName": "Lakewood Avenue",
      "From": "Inwood Street",
      "To": "Princeton Street",
      "Direction": "EB",
      "Date": "2019-09-22",
      "flow": 0.12367491166077739,
      "Latitude": "40.6799541",
      "Longitude": "-73.7955745"
    },
    {
      "SegmentID": "57167",
      "RoadwayName": "Lakewood Avenue",
      "From": "Inwood Street",
      "To": "Princeton Street",
      "Direction": "WB",
      "Date": "2019-09-22",
      "flow": 0.07773851590106007,
      "Latitude": "40.6799541",
      "Longitude": "-73.7955745"
    },
    {
      "SegmentID": "9005244",
      "RoadwayName": "Manor Road",
      "From": "Dead end",
      "To": "Dead end",
      "Direction": "NB",
      "Date": "2019-09-22",
      "flow": 0.10600706713780919,
      "Latitude": "40.6092982",
      "Longitude": "-74.1212609"
    },
    {
      "SegmentID": "9005244",
      "RoadwayName": "Manor Road",
      "From": "Dead end",
      "To": "Dead end",
      "Direction": "SB",
      "Date": "2019-09-22",
      "flow": 0.13074204946996468,
      "Latitude": "40.6092982",
      "Longitude": "-74.1212609"
    },
    {
      "SegmentID": "275873",
      "RoadwayName": "Myrtle Avenue",
      "From": "Freedom Drive",
      "To": "Memorial Drive",
      "Direction": "EB",
      "Date": "2019-09-22",
      "flow": 0.26501766784452296,
      "Latitude": "40.700494",
      "Longitude": "-73.8481861"
    },
    {
      "SegmentID": "275873",
      "RoadwayName": "Myrtle Avenue",
      "From": "Freedom Drive",
      "To": "Memorial Drive",
      "Direction": "WB",
      "Date": "2019-09-22",
      "flow": 0.07420494699646643,
      "Latitude": "40.700494",
      "Longitude": "-73.8481861"
    },
    {
      "SegmentID": "97309",
      "RoadwayName": "Northern Boulevard",
      "From": "191 Street",
      "To": "192 Street",
      "Direction": "EB",
      "Date": "2019-09-22",
      "flow": 0.3392226148409894,
      "Latitude": "40.7530794",
      "Longitude": "-73.9062074"
    },
    {
      "SegmentID": "97309",
      "RoadwayName": "Northern Boulevard",
      "From": "191 Street",
      "To": "192 Street",
      "Direction": "WB",
      "Date": "2019-09-22",
      "flow": 0.3286219081272085,
      "Latitude": "40.7530794",
      "Longitude": "-73.9062074"
    },
    {
      "SegmentID": "98008",
      "RoadwayName": "Northern Boulevard",
      "From": "Oceania Street",
      "To": "Corporal Kennedy Street",
      "Direction": "EB",
      "Date": "2019-09-22",
      "flow": 0.303886925795053,
      "Latitude": "40.7530794",
      "Longitude": "-73.9062074"
    },
    {
      "SegmentID": "98008",
      "RoadwayName": "Northern Boulevard",
      "From": "Oceania Street",
      "To": "Corporal Kennedy Stret",
      "Direction": "WB",
      "Date": "2019-09-22",
      "flow": 0.4558303886925795,
      "Latitude": "40.7530794",
      "Longitude": "-73.9062074"
    },
    {
      "SegmentID": "27577",
      "RoadwayName": "Nostrand Avenue",
      "From": "Avenue P",
      "To": "Stuart Street",
      "Direction": "NB",
      "Date": "2019-09-22",
      "flow": 0.2226148409893993,
      "Latitude": "40.608944",
      "Longitude": "-73.973022"
    },
    {
      "SegmentID": "27577",
      "RoadwayName": "Nostrand Avenue",
      "From": "Avenue P",
      "To": "Stuart Street",
      "Direction": "SB",
      "Date": "2019-09-22",
      "flow": 0.30742049469964666,
      "Latitude": "40.608944",
      "Longitude": "-73.973022"
    },
    {
      "SegmentID": "12946",
      "RoadwayName": "Ocean Terrace",
      "From": "Dead End",
      "To": "Milford Dr",
      "Direction": "NB",
      "Date": "2019-09-22",
      "flow": 0.06007067137809187,
      "Latitude": "40.6099752",
      "Longitude": "-74.1017632"
    },
    {
      "SegmentID": "12946",
      "RoadwayName": "Ocean Terrace",
      "From": "Dead End",
      "To": "Milford Dr",
      "Direction": "SB",
      "Date": "2019-09-22",
      "flow": 0.045936395759717315,
      "Latitude": "40.6099752",
      "Longitude": "-74.1017632"
    },
    {
      "SegmentID": "91425",
      "RoadwayName": "Parsons Boulevard",
      "From": "37 Avenue",
      "To": "38 Avenue",
      "Direction": "NB",
      "Date": "2019-09-22",
      "flow": 0.14840989399293286,
      "Latitude": "40.707564",
      "Longitude": "-73.803326"
    },
    {
      "SegmentID": "91425",
      "RoadwayName": "Parsons Boulevard",
      "From": "37 Avenue",
      "To": "38 Avenue",
      "Direction": "SB",
      "Date": "2019-09-22",
      "flow": 0.26855123674911663,
      "Latitude": "40.707564",
      "Longitude": "-73.803326"
    },
    {
      "SegmentID": "149278",
      "RoadwayName": "Richmond Ave",
      "From": "Yukon Ave",
      "To": "Dead End",
      "Direction": "SB",
      "Date": "2019-09-22",
      "flow": 0.2332155477031802,
      "Latitude": "40.5741893",
      "Longitude": "-74.1638395"
    },
    {
      "SegmentID": "155290",
      "RoadwayName": "Richmond Ave",
      "From": "Yukon Ave",
      "To": "Yukon Ave",
      "Direction": "NB",
      "Date": "2019-09-22",
      "flow": 0.6113074204946997,
      "Latitude": "40.5741893",
      "Longitude": "-74.1638395"
    },
    {
      "SegmentID": "112431",
      "RoadwayName": "Richmond Rd",
      "From": "Clove Rd",
      "To": "Dead End",
      "Direction": "SB",
      "Date": "2019-09-22",
      "flow": 0.5865724381625441,
      "Latitude": "40.5973154",
      "Longitude": "-74.0929447"
    },
    {
      "SegmentID": "111985",
      "RoadwayName": "Richmond Rd",
      "From": "Clove Rd",
      "To": "Dead End",
      "Direction": "SB",
      "Date": "2019-09-22",
      "flow": 0.43109540636042404,
      "Latitude": "40.5973154",
      "Longitude": "-74.0929447"
    },
    {
      "SegmentID": "98540",
      "RoadwayName": "Springfield Boulevard",
      "From": "219 Street",
      "To": "46 Avenue",
      "Direction": "NB",
      "Date": "2019-09-22",
      "flow": 0.024734982332155476,
      "Latitude": "40.7803531",
      "Longitude": "-73.9513584"
    },
    {
      "SegmentID": "98540",
      "RoadwayName": "Springfield Boulevard",
      "From": "219 Street",
      "To": "46 Avenue",
      "Direction": "SB",
      "Date": "2019-09-22",
      "flow": 0.03180212014134275,
      "Latitude": "40.7803531",
      "Longitude": "-73.9513584"
    },
    {
      "SegmentID": "101166",
      "RoadwayName": "Springfield Boulevard",
      "From": "64 Ave",
      "To": "67 Ave",
      "Direction": "NB",
      "Date": "2019-09-22",
      "flow": 0.053003533568904596,
      "Latitude": "41.7134121",
      "Longitude": "-73.9250864"
    },
    {
      "SegmentID": "101166",
      "RoadwayName": "Springfield Boulevard",
      "From": "64 Avenue",
      "To": "67 Avenue",
      "Direction": "SB",
      "Date": "2019-09-22",
      "flow": 0.127208480565371,
      "Latitude": "40.7658729",
      "Longitude": "-73.9657559"
    },
    {
      "SegmentID": "70957",
      "RoadwayName": "St Nicholas Ave",
      "From": "Broadway/ 7 Ave Line",
      "To": "Broadway/ 7 Ave Line",
      "Direction": "NB",
      "Date": "2019-09-22",
      "flow": 0.6395759717314488,
      "Latitude": "40.8241432",
      "Longitude": "-73.9446885"
    },
    {
      "SegmentID": "70957",
      "RoadwayName": "St Nicholas Ave",
      "From": "Broadway / 7 Ave Line",
      "To": "Broadway / 7 Ave Line",
      "Direction": "SB",
      "Date": "2019-09-22",
      "flow": 0.5512367491166078,
      "Latitude": "40.8241432",
      "Longitude": "-73.9446885"
    },
    {
      "SegmentID": "50660",
      "RoadwayName": "Sutter Avenue",
      "From": "Hemlock Street",
      "To": "Autumn Avenue",
      "Direction": "WB",
      "Date": "2019-09-22",
      "flow": 0.4381625441696113,
      "Latitude": "40.684704",
      "Longitude": "-73.8713701"
    },
    {
      "SegmentID": "114825",
      "RoadwayName": "Targee St",
      "From": "Columbus Ave",
      "To": "Richmond Rd",
      "Direction": "NB",
      "Date": "2019-09-22",
      "flow": 0.38515901060070673,
      "Latitude": "40.7998673",
      "Longitude": "-73.9624226"
    },
    {
      "SegmentID": "156721",
      "RoadwayName": "Union Turnpike",
      "From": "196 Street",
      "To": "196 Place",
      "Direction": "EB",
      "Date": "2019-09-22",
      "flow": 0.07773851590106007,
      "Latitude": "40.7454151",
      "Longitude": "-73.715169"
    },
    {
      "SegmentID": "145421",
      "RoadwayName": "Union Turnpike",
      "From": "Dead end",
      "To": "Dead end",
      "Direction": "WB",
      "Date": "2019-09-22",
      "flow": 0.05653710247349823,
      "Latitude": "40.7454151",
      "Longitude": "-73.715169"
    },
    {
      "SegmentID": "156045",
      "RoadwayName": "Utopia Parkway",
      "From": "Dead End",
      "To": "45 Avenue",
      "Direction": "NB",
      "Date": "2019-09-22",
      "flow": 0.17314487632508835,
      "Latitude": "40.8401745",
      "Longitude": "-73.82344175"
    },
    {
      "SegmentID": "152386",
      "RoadwayName": "Utopia Parkway",
      "From": "Dead End",
      "To": "45 Avenue",
      "Direction": "SB",
      "Date": "2019-09-22",
      "flow": 0.20848056537102475,
      "Latitude": "40.8401745",
      "Longitude": "-73.82344175"
    },
    {
      "SegmentID": "112566",
      "RoadwayName": "Van Duzer St",
      "From": "Broad St",
      "To": "Jake Court",
      "Direction": "SB",
      "Date": "2019-09-22",
      "flow": 0.3250883392226148,
      "Latitude": "40.6255943",
      "Longitude": "-74.0844979"
    },
    {
      "SegmentID": "160109",
      "RoadwayName": "Victory Boulevard",
      "From": "South Gannon Avenue",
      "To": "Dr M L King Ep Nb En Victory Bl",
      "Direction": "EB",
      "Date": "2019-09-22",
      "flow": 0.4628975265017668,
      "Latitude": "40.6377769",
      "Longitude": "-74.0758638"
    },
    {
      "SegmentID": "160109",
      "RoadwayName": "Victory Boulevard",
      "From": "South Gannon Avenue",
      "To": "Dr M L King Ep Nb En Victory Bl",
      "Direction": "WB",
      "Date": "2019-09-22",
      "flow": 0.43109540636042404,
      "Latitude": "40.6377769",
      "Longitude": "-74.0758638"
    },
    {
      "SegmentID": "218038",
      "RoadwayName": "Woodrow Road",
      "From": "Dead End",
      "To": "Everton Avenue",
      "Direction": "NB",
      "Date": "2019-09-22",
      "flow": 0.06007067137809187,
      "Latitude": "40.5416162",
      "Longitude": "-74.2097325"
    },
    {
      "SegmentID": "218038",
      "RoadwayName": "Woodrow Road",
      "From": "Dead end",
      "To": "Everton Avenue",
      "Direction": "SB",
      "Date": "2019-09-22",
      "flow": 0.045936395759717315,
      "Latitude": "40.5416162",
      "Longitude": "-74.2097325"
    },
    {
      "SegmentID": "103545",
      "RoadwayName": "Woolley Aveneue",
      "From": "Westwood Avenue",
      "To": "Dawson Street",
      "Direction": "SB",
      "Date": "2019-09-22",
      "flow": 0.30742049469964666,
      "Latitude": "40.6056918",
      "Longitude": "-74.1397543"
    },
    {
      "SegmentID": "103545",
      "RoadwayName": "Woolley Avenue",
      "From": "Westwood Avenue",
      "To": "Dawson Street",
      "Direction": "NB",
      "Date": "2019-09-22",
      "flow": 0.14840989399293286,
      "Latitude": "40.6056918",
      "Longitude": "-74.1397543"
    }
  ],
  "3:00-4:00AM": [
    {
      "SegmentID": "96671",
      "RoadwayName": "188 Street",
      "From": "Rio Drive",
      "To": "Henley Road",
      "Direction": "NB",
      "Date": "2019-09-22",
      "flow": 0.41545893719806765,
      "Latitude": "40.7185067",
      "Longitude": "-73.7748952"
    },
    {
      "SegmentID": "96671",
      "RoadwayName": "188 Street",
      "From": "Rio Drive",
      "To": "Henley Road",
      "Direction": "SB",
      "Date": "2019-09-22",
      "flow": 0.48792270531400966,
      "Latitude": "40.7185067",
      "Longitude": "-73.7748952"
    },
    {
      "SegmentID": "117242",
      "RoadwayName": "200 Street",
      "From": "36 Avenue",
      "To": "Francis Lewis Boulevard",
      "Direction": "NB",
      "Date": "2019-09-22",
      "flow": 0.014492753623188406,
      "Latitude": "40.71364135",
      "Longitude": "-74.01482043"
    },
    {
      "SegmentID": "98876",
      "RoadwayName": "26 Avenue",
      "From": "201 Street",
      "To": "202 Street",
      "Direction": "EB",
      "Date": "2019-09-22",
      "flow": 0.05314009661835749,
      "Latitude": "42.4373576",
      "Longitude": "-76.4945086"
    },
    {
      "SegmentID": "98876",
      "RoadwayName": "26 Avenue",
      "From": "201 Street",
      "To": "202 Street",
      "Direction": "WB",
      "Date": "2019-09-22",
      "flow": 0.028985507246376812,
      "Latitude": "42.4373576",
      "Longitude": "-76.4945086"
    },
    {
      "SegmentID": "97492",
      "RoadwayName": "35 Avenue",
      "From": "Francis Lewis Boulevard",
      "To": "200 Street",
      "Direction": "EB",
      "Date": "2019-09-22",
      "flow": 0.05314009661835749,
      "Latitude": "40.7127281",
      "Longitude": "-74.0060152"
    },
    {
      "SegmentID": "97492",
      "RoadwayName": "35 Avenue",
      "From": "Francis Lewis Boulevard",
      "To": "200 Street",
      "Direction": "WB",
      "Date": "2019-09-22",
      "flow": 0.08695652173913043,
      "Latitude": "40.7127281",
      "Longitude": "-74.0060152"
    },
    {
      "SegmentID": "97525",
      "RoadwayName": "35 Avenue",
      "From": "203 Street",
      "To": "204 Street",
      "Direction": "EB",
      "Date": "2019-09-22",
      "flow": 0.07246376811594203,
      "Latitude": "40.7127281",
      "Longitude": "-74.0060152"
    },
    {
      "SegmentID": "97525",
      "RoadwayName": "35 Avenue",
      "From": "203 Street",
      "To": "204 Street",
      "Direction": "WB",
      "Date": "2019-09-22",
      "flow": 0.11594202898550725,
      "Latitude": "40.7127281",
      "Longitude": "-74.0060152"
    },
    {
      "SegmentID": "21331",
      "RoadwayName": "37 Street",
      "From": "12 Avenue",
      "To": "13 Avenue",
      "Direction": "EB",
      "Date": "2019-09-22",
      "flow": 0.1111111111111111,
      "Latitude": "40.8178841",
      "Longitude": "-73.9604648"
    },
    {
      "SegmentID": "21327",
      "RoadwayName": "39 Street",
      "From": "12 Avenue",
      "To": "13 Avenue",
      "Direction": "EB",
      "Date": "2019-09-22",
      "flow": 0.11594202898550725,
      "Latitude": "40.7583819",
      "Longitude": "-73.9984041"
    },
    {
      "SegmentID": "21327",
      "RoadwayName": "39 Street",
      "From": "12 Avenue",
      "To": "13 Avenue",
      "Direction": "WB",
      "Date": "2019-09-22",
      "flow": 0.07729468599033816,
      "Latitude": "40.7583819",
      "Longitude": "-73.9984041"
    },
    {
      "SegmentID": "97302",
      "RoadwayName": "45 Avenue",
      "From": "192 Street",
      "To": "193 Street",
      "Direction": "WB",
      "Date": "2019-09-22",
      "flow": 0.00966183574879227,
      "Latitude": "40.54747245",
      "Longitude": "-74.21054678"
    },
    {
      "SegmentID": "97302",
      "RoadwayName": "45 Avenue",
      "From": "192 Street",
      "To": "193 Street",
      "Direction": "EB",
      "Date": "2019-09-22",
      "flow": 0.03864734299516908,
      "Latitude": "40.54747245",
      "Longitude": "-74.21054678"
    },
    {
      "SegmentID": "21164",
      "RoadwayName": "49 Street",
      "From": "12 Avenue",
      "To": "13 Avenue",
      "Direction": "WB",
      "Date": "2019-09-22",
      "flow": 0.014492753623188406,
      "Latitude": "40.8178841",
      "Longitude": "-73.9604648"
    },
    {
      "SegmentID": "28923",
      "RoadwayName": "5 Avenue",
      "From": "Douglass Street",
      "To": "De Graw Street",
      "Direction": "NB",
      "Date": "2019-09-22",
      "flow": 0.36231884057971014,
      "Latitude": "40.5467724",
      "Longitude": "-74.21034999"
    },
    {
      "SegmentID": "21148",
      "RoadwayName": "50 Street",
      "From": "New Utecht Avenue",
      "To": "13 Avenue",
      "Direction": "EB",
      "Date": "2019-09-22",
      "flow": 0.06763285024154589,
      "Latitude": "40.7616618",
      "Longitude": "-73.9838968"
    },
    {
      "SegmentID": "19805",
      "RoadwayName": "60 Street",
      "From": "11 Avenue",
      "To": "12 Avenue",
      "Direction": "EB",
      "Date": "2019-09-22",
      "flow": 0.18840579710144928,
      "Latitude": "40.5923764",
      "Longitude": "-73.7887383"
    },
    {
      "SegmentID": "19805",
      "RoadwayName": "60 Street",
      "From": "11 Avenue",
      "To": "12 Avenue",
      "Direction": "WB",
      "Date": "2019-09-22",
      "flow": 0.18840579710144928,
      "Latitude": "40.5923764",
      "Longitude": "-73.7887383"
    },
    {
      "SegmentID": "81815",
      "RoadwayName": "63 Drive",
      "From": "Wetherole St.",
      "To": "Booth Street",
      "Direction": "NB",
      "Date": "2019-09-22",
      "flow": 0.2028985507246377,
      "Latitude": "40.7279569",
      "Longitude": "-73.8635025"
    },
    {
      "SegmentID": "81815",
      "RoadwayName": "63 Drive",
      "From": "Wetherole St.",
      "To": "Booth Street",
      "Direction": "SB",
      "Date": "2019-09-22",
      "flow": 0.0821256038647343,
      "Latitude": "40.7279569",
      "Longitude": "-73.8635025"
    },
    {
      "SegmentID": "19566",
      "RoadwayName": "65 Street",
      "From": "10 Avenue",
      "To": "11 Avenue",
      "Direction": "EB",
      "Date": "2019-09-22",
      "flow": 1,
      "Latitude": "40.6682755",
      "Longitude": "-73.9946405"
    },
    {
      "SegmentID": "19566",
      "RoadwayName": "65 Street",
      "From": "10 Avenue",
      "To": "11 Avenue",
      "Direction": "WB",
      "Date": "2019-09-22",
      "flow": 0.5797101449275363,
      "Latitude": "40.6682755",
      "Longitude": "-73.9946405"
    },
    {
      "SegmentID": "20157",
      "RoadwayName": "65 Street",
      "From": "18 Avenue",
      "To": "19 Avenue",
      "Direction": "EB",
      "Date": "2019-09-22",
      "flow": 0.6473429951690821,
      "Latitude": "40.6682755",
      "Longitude": "-73.9946405"
    },
    {
      "SegmentID": "20157",
      "RoadwayName": "65 Street",
      "From": "18 Avenue",
      "To": "19 Avenue",
      "Direction": "WB",
      "Date": "2019-09-22",
      "flow": 0.3719806763285024,
      "Latitude": "40.6682755",
      "Longitude": "-73.9946405"
    },
    {
      "SegmentID": "96615",
      "RoadwayName": "73 Avenue",
      "From": "194 Street",
      "To": "195 Street",
      "Direction": "WB",
      "Date": "2019-09-22",
      "flow": 0.05314009661835749,
      "Latitude": "40.72847335",
      "Longitude": "-73.89326198"
    },
    {
      "SegmentID": "96615",
      "RoadwayName": "73 Avenue",
      "From": "194 Street",
      "To": "195 Street",
      "Direction": "EB",
      "Date": "2019-09-22",
      "flow": 0.024154589371980676,
      "Latitude": "40.72847335",
      "Longitude": "-73.89326198"
    },
    {
      "SegmentID": "19461",
      "RoadwayName": "8 Avenue",
      "From": "67 Street",
      "To": "68 Street",
      "Direction": "NB",
      "Date": "2019-09-22",
      "flow": 0.13526570048309178,
      "Latitude": "40.7683107",
      "Longitude": "-73.96440596"
    },
    {
      "SegmentID": "19461",
      "RoadwayName": "8 Avenue",
      "From": "67 Street",
      "To": "68 Street",
      "Direction": "SB",
      "Date": "2019-09-22",
      "flow": 0.14492753623188406,
      "Latitude": "40.7683107",
      "Longitude": "-73.96440596"
    },
    {
      "SegmentID": "52297",
      "RoadwayName": "80 Street",
      "From": "68 Avenue",
      "To": "68 Road",
      "Direction": "NB",
      "Date": "2019-09-22",
      "flow": 0.12560386473429952,
      "Latitude": "40.7651325",
      "Longitude": "-73.9580265"
    },
    {
      "SegmentID": "52297",
      "RoadwayName": "80 Street",
      "From": "68 Avenue",
      "To": "68 Road",
      "Direction": "SB",
      "Date": "2019-09-22",
      "flow": 0.25120772946859904,
      "Latitude": "40.7651325",
      "Longitude": "-73.9580265"
    },
    {
      "SegmentID": "112136",
      "RoadwayName": "Amboy Road",
      "From": "3 Street",
      "To": "Dale Ave",
      "Direction": "NB",
      "Date": "2019-09-22",
      "flow": 0.1111111111111111,
      "Latitude": "40.57364435",
      "Longitude": "-74.00012135"
    },
    {
      "SegmentID": "112136",
      "RoadwayName": "Amboy Road",
      "From": "2 Street",
      "To": "Dale Ave.",
      "Direction": "SB",
      "Date": "2019-09-22",
      "flow": 0.17391304347826086,
      "Latitude": "40.5472181",
      "Longitude": "-74.21231751"
    },
    {
      "SegmentID": "22924",
      "RoadwayName": "Atlantic Avenue",
      "From": "3 Avenue",
      "To": "4 Avenue",
      "Direction": "WB",
      "Date": "2019-09-22",
      "flow": 0.9420289855072463,
      "Latitude": "40.54678755",
      "Longitude": "-74.21027354"
    },
    {
      "SegmentID": "22924",
      "RoadwayName": "Atlantic Avenue",
      "From": "3 Avenue",
      "To": "4 Avenue",
      "Direction": "EB",
      "Date": "2019-09-22",
      "flow": 0.8985507246376812,
      "Latitude": "40.54678755",
      "Longitude": "-74.21027354"
    },
    {
      "SegmentID": "70931",
      "RoadwayName": "Audubon Ave",
      "From": "West 172 St",
      "To": "West 173 St",
      "Direction": "NB",
      "Date": "2019-09-22",
      "flow": 0.16908212560386474,
      "Latitude": "43.0014991",
      "Longitude": "-76.1489914"
    },
    {
      "SegmentID": "70931",
      "RoadwayName": "Audubon Ave",
      "From": "West 172 St",
      "To": "West 173 St",
      "Direction": "SB",
      "Date": "2019-09-22",
      "flow": 0.2463768115942029,
      "Latitude": "43.0014991",
      "Longitude": "-76.1489914"
    },
    {
      "SegmentID": "27017",
      "RoadwayName": "Avenue J",
      "From": "East 12 Street",
      "To": "East 13 Street",
      "Direction": "EB",
      "Date": "2019-09-22",
      "flow": 0.27053140096618356,
      "Latitude": "40.625039",
      "Longitude": "-73.960803"
    },
    {
      "SegmentID": "27017",
      "RoadwayName": "Avenue J",
      "From": "East 12 Street",
      "To": "East 13 Street",
      "Direction": "WB",
      "Date": "2019-09-22",
      "flow": 0.30434782608695654,
      "Latitude": "40.625039",
      "Longitude": "-73.960803"
    },
    {
      "SegmentID": "27147",
      "RoadwayName": "Avenue M",
      "From": "Brighton Line",
      "To": "East 16 Street",
      "Direction": "EB",
      "Date": "2019-09-22",
      "flow": 0.09178743961352658,
      "Latitude": "40.6178971",
      "Longitude": "-73.959474"
    },
    {
      "SegmentID": "27147",
      "RoadwayName": "Avenue M",
      "From": "Brighton Line",
      "To": "East 16 Street",
      "Direction": "WB",
      "Date": "2019-09-22",
      "flow": 0.0821256038647343,
      "Latitude": "40.6178971",
      "Longitude": "-73.959474"
    },
    {
      "SegmentID": "27120",
      "RoadwayName": "Avenue N",
      "From": "East 15 Street",
      "To": "Brighton Line",
      "Direction": "EB",
      "Date": "2019-09-22",
      "flow": 0.4975845410628019,
      "Latitude": "40.7326744",
      "Longitude": "-73.9835879"
    },
    {
      "SegmentID": "26964",
      "RoadwayName": "Avenue P",
      "From": "East 12 Street",
      "To": "East 13 Street",
      "Direction": "EB",
      "Date": "2019-09-22",
      "flow": 0.32367149758454106,
      "Latitude": "40.608944",
      "Longitude": "-73.973022"
    },
    {
      "SegmentID": "26964",
      "RoadwayName": "Avenue P",
      "From": "East 12 Street",
      "To": "East 13 Street",
      "Direction": "WB",
      "Date": "2019-09-22",
      "flow": 0.2318840579710145,
      "Latitude": "40.608944",
      "Longitude": "-73.973022"
    },
    {
      "SegmentID": "20147",
      "RoadwayName": "Bay Ridge Avenue",
      "From": "19 Avenue",
      "To": "20 Avenue",
      "Direction": "EB",
      "Date": "2019-09-22",
      "flow": 0.06763285024154589,
      "Latitude": "40.6987989",
      "Longitude": "-73.97471527"
    },
    {
      "SegmentID": "15736",
      "RoadwayName": "Bay St",
      "From": "William St",
      "To": "Congress St",
      "Direction": "NB",
      "Date": "2019-09-22",
      "flow": 0.30917874396135264,
      "Latitude": "40.7083391",
      "Longitude": "-74.0076543"
    },
    {
      "SegmentID": "15736",
      "RoadwayName": "Bay St",
      "From": "William St",
      "To": "Congress St",
      "Direction": "SB",
      "Date": "2019-09-22",
      "flow": 0.3526570048309179,
      "Latitude": "40.7083391",
      "Longitude": "-74.0076543"
    },
    {
      "SegmentID": "15540",
      "RoadwayName": "Beach St",
      "From": "Union Pl",
      "To": "Van Duzer St",
      "Direction": "EB",
      "Date": "2019-09-22",
      "flow": 0.0966183574879227,
      "Latitude": "40.6277638",
      "Longitude": "-74.0772802"
    },
    {
      "SegmentID": "15540",
      "RoadwayName": "Beach St",
      "From": "Union Pl",
      "To": "Van Duzer St",
      "Direction": "WB",
      "Date": "2019-09-22",
      "flow": 0.1497584541062802,
      "Latitude": "40.6277638",
      "Longitude": "-74.0772802"
    },
    {
      "SegmentID": "98338",
      "RoadwayName": "Bell Boulevard",
      "From": "45 Drive",
      "To": "46 Avenue",
      "Direction": "NB",
      "Date": "2019-09-22",
      "flow": 0.08695652173913043,
      "Latitude": "40.84097805",
      "Longitude": "-73.86140949"
    },
    {
      "SegmentID": "98338",
      "RoadwayName": "Bell Boulevard",
      "From": "45 Drive",
      "To": "46 Avenue",
      "Direction": "SB",
      "Date": "2019-09-22",
      "flow": 0.11594202898550725,
      "Latitude": "40.84097805",
      "Longitude": "-73.86140949"
    },
    {
      "SegmentID": "91014",
      "RoadwayName": "Booth Memorial Ave.",
      "From": "College Point Boulevard",
      "To": "133 Street",
      "Direction": "EB",
      "Date": "2019-09-22",
      "flow": 0.28502415458937197,
      "Latitude": "40.7525496",
      "Longitude": "-73.8325339"
    },
    {
      "SegmentID": "91014",
      "RoadwayName": "Booth Memorial Ave.",
      "From": "College Point Boulevard",
      "To": "133 Street",
      "Direction": "WB",
      "Date": "2019-09-22",
      "flow": 0.28019323671497587,
      "Latitude": "40.7525496",
      "Longitude": "-73.8325339"
    },
    {
      "SegmentID": "70939",
      "RoadwayName": "Broadway",
      "From": "West 174 St",
      "To": "West 175 St",
      "Direction": "NB",
      "Date": "2019-09-22",
      "flow": 0.42995169082125606,
      "Latitude": "40.8028269",
      "Longitude": "-73.9675054"
    },
    {
      "SegmentID": "70939",
      "RoadwayName": "Broadway",
      "From": "West 174 St",
      "To": "West 175 St",
      "Direction": "SB",
      "Date": "2019-09-22",
      "flow": 0.4782608695652174,
      "Latitude": "40.8028269",
      "Longitude": "-73.9675054"
    },
    {
      "SegmentID": "74501",
      "RoadwayName": "Caldwell Avenue",
      "From": "72 Street",
      "To": "74 Street",
      "Direction": "WB",
      "Date": "2019-09-22",
      "flow": 0.09178743961352658,
      "Latitude": "40.7790162",
      "Longitude": "-73.9818557"
    },
    {
      "SegmentID": "22219",
      "RoadwayName": "Clinton Street",
      "From": "Sackett Street",
      "To": "Union Street",
      "Direction": "NB",
      "Date": "2019-09-22",
      "flow": 0.08695652173913043,
      "Latitude": "40.6857022",
      "Longitude": "-74.0049954"
    },
    {
      "SegmentID": "15047",
      "RoadwayName": "Clove Rd",
      "From": "Neckar Ave",
      "To": "Weser Ave",
      "Direction": "EB",
      "Date": "2019-09-22",
      "flow": 0.5410628019323671,
      "Latitude": "40.6139911",
      "Longitude": "-74.1012626"
    },
    {
      "SegmentID": "15047",
      "RoadwayName": "Clove Rd",
      "From": "Neckar Ave",
      "To": "Weser Ave",
      "Direction": "WB",
      "Date": "2019-09-22",
      "flow": 0.1111111111111111,
      "Latitude": "40.6139911",
      "Longitude": "-74.1012626"
    },
    {
      "SegmentID": "157129",
      "RoadwayName": "College Point Beoulevard",
      "From": "Dead End",
      "To": "Botanical Garden Bridge",
      "Direction": "NB",
      "Date": "2019-09-22",
      "flow": 0.5990338164251208,
      "Latitude": "40.8401745",
      "Longitude": "-73.82344175"
    },
    {
      "SegmentID": "156916",
      "RoadwayName": "College Point Boulevard",
      "From": "Dead End",
      "To": "Botanical Grdn Bridge",
      "Direction": "SB",
      "Date": "2019-09-22",
      "flow": 0.7439613526570048,
      "Latitude": "40.7525496",
      "Longitude": "-73.8325339"
    },
    {
      "SegmentID": "22023",
      "RoadwayName": "Columbia Street",
      "From": "Kane Street",
      "To": "Irving Street",
      "Direction": "NB",
      "Date": "2019-09-22",
      "flow": 0.03864734299516908,
      "Latitude": "40.6863978",
      "Longitude": "-73.9972781"
    },
    {
      "SegmentID": "22023",
      "RoadwayName": "Columbia Street",
      "From": "Kane Street",
      "To": "Irving Street",
      "Direction": "SB",
      "Date": "2019-09-22",
      "flow": 0.15942028985507245,
      "Latitude": "40.6863978",
      "Longitude": "-73.9972781"
    },
    {
      "SegmentID": "22409",
      "RoadwayName": "Court Street",
      "From": "De Graw Street",
      "To": "Sackett Street",
      "Direction": "SB",
      "Date": "2019-09-22",
      "flow": 0.2753623188405797,
      "Latitude": "40.6941",
      "Longitude": "-73.991777"
    },
    {
      "SegmentID": "157208",
      "RoadwayName": "Francis Lewis Boulevard",
      "From": "Dead End",
      "To": "Dead End",
      "Direction": "EB",
      "Date": "2019-09-22",
      "flow": 0.12077294685990338,
      "Latitude": "40.7135593",
      "Longitude": "-73.753829"
    },
    {
      "SegmentID": "96010",
      "RoadwayName": "Fresh Meadow Lane",
      "From": "Horace Harding Expressway Sr. S",
      "To": "65 Avenue",
      "Direction": "NB",
      "Date": "2019-09-22",
      "flow": 0.00966183574879227,
      "Latitude": "40.6336953",
      "Longitude": "-74.07832907"
    },
    {
      "SegmentID": "96010",
      "RoadwayName": "Fresh Meadow Lane",
      "From": "Horace Harding Expressway Sr. S",
      "To": "65 Avenue",
      "Direction": "SB",
      "Date": "2019-09-22",
      "flow": 0.00966183574879227,
      "Latitude": "40.6336953",
      "Longitude": "-74.07832907"
    },
    {
      "SegmentID": "21399",
      "RoadwayName": "Ft Hamilton Parkway",
      "From": "Chester Avenue",
      "To": "36 Street",
      "Direction": "NB",
      "Date": "2019-09-22",
      "flow": 0.40096618357487923,
      "Latitude": "40.6437651",
      "Longitude": "-73.9839445"
    },
    {
      "SegmentID": "21399",
      "RoadwayName": "Ft Hamilton Parkway",
      "From": "Chester Avenue",
      "To": "36 Street",
      "Direction": "SB",
      "Date": "2019-09-22",
      "flow": 0.5942028985507246,
      "Latitude": "40.6437651",
      "Longitude": "-73.9839445"
    },
    {
      "SegmentID": "19555",
      "RoadwayName": "Ft Hamilton Parkway",
      "From": "67 Street",
      "To": "68 Street",
      "Direction": "NB",
      "Date": "2019-09-22",
      "flow": 0.34299516908212563,
      "Latitude": "40.7285606",
      "Longitude": "-73.959184"
    },
    {
      "SegmentID": "19555",
      "RoadwayName": "Ft Hamilton Parkway",
      "From": "67 Street",
      "To": "68 Street",
      "Direction": "SB",
      "Date": "2019-09-22",
      "flow": 0.2463768115942029,
      "Latitude": "40.7285606",
      "Longitude": "-73.959184"
    },
    {
      "SegmentID": "182686",
      "RoadwayName": "Hewlett Street",
      "From": "Dead end",
      "To": "Union Turnpike",
      "Direction": "NB",
      "Date": "2019-09-22",
      "flow": 0.1497584541062802,
      "Latitude": "40.753754",
      "Longitude": "-73.704711"
    },
    {
      "SegmentID": "182686",
      "RoadwayName": "Hewlett Street",
      "From": "Dead End",
      "To": "Union Turnpike",
      "Direction": "SB",
      "Date": "2019-09-22",
      "flow": 0.13043478260869565,
      "Latitude": "40.753754",
      "Longitude": "-73.704711"
    },
    {
      "SegmentID": "22227",
      "RoadwayName": "Hicks Street",
      "From": "Kane Street",
      "To": "De Graw Street",
      "Direction": "NB",
      "Date": "2019-09-22",
      "flow": 0.24154589371980675,
      "Latitude": "40.6863978",
      "Longitude": "-73.9972781"
    },
    {
      "SegmentID": "22221",
      "RoadwayName": "Hicks Street",
      "From": "Kane Street",
      "To": "De Graw Street",
      "Direction": "SB",
      "Date": "2019-09-22",
      "flow": 0.1111111111111111,
      "Latitude": "40.6863978",
      "Longitude": "-73.9972781"
    },
    {
      "SegmentID": "114869",
      "RoadwayName": "Hylan Blvd South",
      "From": "Olga Pl",
      "To": "Olga Pl",
      "Direction": "NB",
      "Date": "2019-09-22",
      "flow": 0.3864734299516908,
      "Latitude": "40.603789",
      "Longitude": "-74.076663"
    },
    {
      "SegmentID": "14422",
      "RoadwayName": "Steuben St",
      "From": "Hylan Blvd North",
      "To": "Olga Place",
      "Direction": "SB",
      "Date": "2019-09-22",
      "flow": 0.4830917874396135,
      "Latitude": "40.6067335",
      "Longitude": "-74.0758037"
    },
    {
      "SegmentID": "14602",
      "RoadwayName": "Hylan Blvd.",
      "From": "Fingerboard Rd",
      "To": "Dead End",
      "Direction": "NB",
      "Date": "2019-09-22",
      "flow": 0.22705314009661837,
      "Latitude": "40.602132",
      "Longitude": "-74.070593"
    },
    {
      "SegmentID": "14602",
      "RoadwayName": "Hylan Blvd.",
      "From": "Fingerboard St.",
      "To": "Dead End",
      "Direction": "SB",
      "Date": "2019-09-22",
      "flow": 0.13043478260869565,
      "Latitude": "40.600128",
      "Longitude": "-74.0915119"
    },
    {
      "SegmentID": "152334",
      "RoadwayName": "Hylan Boulevard",
      "From": "Ebbitts Street",
      "To": "Dead end",
      "Direction": "NB",
      "Date": "2019-09-22",
      "flow": 0.3188405797101449,
      "Latitude": "40.563146",
      "Longitude": "-74.107869"
    },
    {
      "SegmentID": "155338",
      "RoadwayName": "Hylan Boulevard",
      "From": "Allison Avenue",
      "To": "Princeton Avenue",
      "Direction": "SB",
      "Date": "2019-09-22",
      "flow": 0.26570048309178745,
      "Latitude": "40.5675611",
      "Longitude": "-74.1157632"
    },
    {
      "SegmentID": "52940",
      "RoadwayName": "Jamaica Avenue",
      "From": "101 Street",
      "To": "102 Street",
      "Direction": "EB",
      "Date": "2019-09-22",
      "flow": 0.19806763285024154,
      "Latitude": "40.7023681",
      "Longitude": "-73.8036015"
    },
    {
      "SegmentID": "52940",
      "RoadwayName": "Jamaica Avenue",
      "From": "101 Street",
      "To": "102 Street",
      "Direction": "WB",
      "Date": "2019-09-22",
      "flow": 0.34782608695652173,
      "Latitude": "40.7023681",
      "Longitude": "-73.8036015"
    },
    {
      "SegmentID": "9007483",
      "RoadwayName": "Kissena Boulevard",
      "From": "Dead end",
      "To": "Melbourne Avenue",
      "Direction": "NB",
      "Date": "2019-09-22",
      "flow": 0.30917874396135264,
      "Latitude": "40.8401745",
      "Longitude": "-73.82344175"
    },
    {
      "SegmentID": "9007488",
      "RoadwayName": "Kissena Boulevard",
      "From": "Dead End",
      "To": "Melbourne Ave.",
      "Direction": "SB",
      "Date": "2019-09-22",
      "flow": 0.3719806763285024,
      "Latitude": "40.8401745",
      "Longitude": "-73.82344175"
    },
    {
      "SegmentID": "57167",
      "RoadwayName": "Lakewood Avenue",
      "From": "Inwood Street",
      "To": "Princeton Street",
      "Direction": "EB",
      "Date": "2019-09-22",
      "flow": 0.11594202898550725,
      "Latitude": "40.6799541",
      "Longitude": "-73.7955745"
    },
    {
      "SegmentID": "57167",
      "RoadwayName": "Lakewood Avenue",
      "From": "Inwood Street",
      "To": "Princeton Street",
      "Direction": "WB",
      "Date": "2019-09-22",
      "flow": 0.12077294685990338,
      "Latitude": "40.6799541",
      "Longitude": "-73.7955745"
    },
    {
      "SegmentID": "9005244",
      "RoadwayName": "Manor Road",
      "From": "Dead end",
      "To": "Dead end",
      "Direction": "NB",
      "Date": "2019-09-22",
      "flow": 0.0821256038647343,
      "Latitude": "40.6092982",
      "Longitude": "-74.1212609"
    },
    {
      "SegmentID": "9005244",
      "RoadwayName": "Manor Road",
      "From": "Dead end",
      "To": "Dead end",
      "Direction": "SB",
      "Date": "2019-09-22",
      "flow": 0.1111111111111111,
      "Latitude": "40.6092982",
      "Longitude": "-74.1212609"
    },
    {
      "SegmentID": "275873",
      "RoadwayName": "Myrtle Avenue",
      "From": "Freedom Drive",
      "To": "Memorial Drive",
      "Direction": "EB",
      "Date": "2019-09-22",
      "flow": 0.2463768115942029,
      "Latitude": "40.700494",
      "Longitude": "-73.8481861"
    },
    {
      "SegmentID": "275873",
      "RoadwayName": "Myrtle Avenue",
      "From": "Freedom Drive",
      "To": "Memorial Drive",
      "Direction": "WB",
      "Date": "2019-09-22",
      "flow": 0.1111111111111111,
      "Latitude": "40.700494",
      "Longitude": "-73.8481861"
    },
    {
      "SegmentID": "97309",
      "RoadwayName": "Northern Boulevard",
      "From": "191 Street",
      "To": "192 Street",
      "Direction": "EB",
      "Date": "2019-09-22",
      "flow": 0.4057971014492754,
      "Latitude": "40.7530794",
      "Longitude": "-73.9062074"
    },
    {
      "SegmentID": "97309",
      "RoadwayName": "Northern Boulevard",
      "From": "191 Street",
      "To": "192 Street",
      "Direction": "WB",
      "Date": "2019-09-22",
      "flow": 0.34782608695652173,
      "Latitude": "40.7530794",
      "Longitude": "-73.9062074"
    },
    {
      "SegmentID": "98008",
      "RoadwayName": "Northern Boulevard",
      "From": "Oceania Street",
      "To": "Corporal Kennedy Street",
      "Direction": "EB",
      "Date": "2019-09-22",
      "flow": 0.30434782608695654,
      "Latitude": "40.7530794",
      "Longitude": "-73.9062074"
    },
    {
      "SegmentID": "98008",
      "RoadwayName": "Northern Boulevard",
      "From": "Oceania Street",
      "To": "Corporal Kennedy Stret",
      "Direction": "WB",
      "Date": "2019-09-22",
      "flow": 0.357487922705314,
      "Latitude": "40.7530794",
      "Longitude": "-73.9062074"
    },
    {
      "SegmentID": "27577",
      "RoadwayName": "Nostrand Avenue",
      "From": "Avenue P",
      "To": "Stuart Street",
      "Direction": "NB",
      "Date": "2019-09-22",
      "flow": 0.14492753623188406,
      "Latitude": "40.608944",
      "Longitude": "-73.973022"
    },
    {
      "SegmentID": "27577",
      "RoadwayName": "Nostrand Avenue",
      "From": "Avenue P",
      "To": "Stuart Street",
      "Direction": "SB",
      "Date": "2019-09-22",
      "flow": 0.27053140096618356,
      "Latitude": "40.608944",
      "Longitude": "-73.973022"
    },
    {
      "SegmentID": "12946",
      "RoadwayName": "Ocean Terrace",
      "From": "Dead End",
      "To": "Milford Dr",
      "Direction": "NB",
      "Date": "2019-09-22",
      "flow": 0.01932367149758454,
      "Latitude": "40.6099752",
      "Longitude": "-74.1017632"
    },
    {
      "SegmentID": "12946",
      "RoadwayName": "Ocean Terrace",
      "From": "Dead End",
      "To": "Milford Dr",
      "Direction": "SB",
      "Date": "2019-09-22",
      "flow": 0,
      "Latitude": "40.6099752",
      "Longitude": "-74.1017632"
    },