{
  "1:00-2:00AM": [
    {
      "SegmentID": "155864",
      "RoadwayName": "11TH STREET",
      "From": "47th Avenue",
      "To": "47th Road",
      "Direction": "NB",
      "Date": "2019-11-10",
      "flow": 0.05876543209876543,
      "Latitude": "40.7505577",
      "Longitude": "-73.7917086"
    },
    {
      "SegmentID": "156973",
      "RoadwayName": "11TH STREET",
      "From": "47th Avenue",
      "To": "47th Road",
      "Direction": "SB",
      "Date": "2019-11-10",
      "flow": 0.08049382716049383,
      "Latitude": "40.7505577",
      "Longitude": "-73.7917086"
    },
    {
      "SegmentID": "152665",
      "RoadwayName": "ATLANTIC AVENUE",
      "From": "Classon Avenue",
      "To": "Franklin Avenue Shuttle Line",
      "Direction": "WB",
      "Date": "2019-11-10",
      "flow": 0.30962962962962964,
      "Latitude": "40.688873",
      "Longitude": "-73.96007"
    },
    {
      "SegmentID": "108866",
      "RoadwayName": "Bainbridge Avenue",
      "From": "East 213 Street",
      "To": "Jerome Avenue",
      "Direction": "NB",
      "Date": "2019-11-10",
      "flow": 0.011358024691358024,
      "Latitude": "40.8665331",
      "Longitude": "-73.8981713"
    },
    {
      "SegmentID": "108866",
      "RoadwayName": "Bainbrige Avenue",
      "From": "East 213 Street",
      "To": "Jerome Avenue",
      "Direction": "SB",
      "Date": "2019-11-10",
      "flow": 0.023703703703703703,
      "Latitude": "40.8665331",
      "Longitude": "-73.8981713"
    },
    {
      "SegmentID": "88826",
      "RoadwayName": "Baychester Avenue",
      "From": "Tilotson Avenue",
      "To": "Dyre Avenue Line",
      "Direction": "NB",
      "Date": "2019-11-10",
      "flow": 0.12790123456790123,
      "Latitude": "40.8699949",
      "Longitude": "-73.8458916"
    },
    {
      "SegmentID": "88826",
      "RoadwayName": "Baychester Avenue",
      "From": "Tilotson Avenue",
      "To": "Dyre Avenue Line",
      "Direction": "SB",
      "Date": "2019-11-10",
      "flow": 0.06123456790123457,
      "Latitude": "40.8699949",
      "Longitude": "-73.8458916"
    },
    {
      "SegmentID": "88298",
      "RoadwayName": "Boston Road",
      "From": "Fish Avenue",
      "To": "Seymour Avenue",
      "Direction": "EB",
      "Date": "2019-11-10",
      "flow": 0.08691358024691358,
      "Latitude": "40.8673321",
      "Longitude": "-73.8600312"
    },
    {
      "SegmentID": "88298",
      "RoadwayName": "Boston Road",
      "From": "Fish Avenue",
      "To": "Seymour Avenue",
      "Direction": "WB",
      "Date": "2019-11-10",
      "flow": 0.0854320987654321,
      "Latitude": "40.8673321",
      "Longitude": "-73.8600312"
    },
    {
      "SegmentID": "146329",
      "RoadwayName": "Boston Road",
      "From": "Connector",
      "To": "Connector",
      "Direction": "WB",
      "Date": "2019-11-10",
      "flow": 0.06024691358024691,
      "Latitude": "40.8673321",
      "Longitude": "-73.8600312"
    },
    {
      "SegmentID": "146328",
      "RoadwayName": "Boston Road",
      "From": "Connector",
      "To": "Connector",
      "Direction": "EB",
      "Date": "2019-11-10",
      "flow": 0.056296296296296296,
      "Latitude": "40.8673321",
      "Longitude": "-73.8600312"
    },
    {
      "SegmentID": "81165",
      "RoadwayName": "Broadway",
      "From": "West 259 Street",
      "To": "West 260 Street",
      "Direction": "NB",
      "Date": "2019-11-10",
      "flow": 0.10962962962962963,
      "Latitude": "40.8028269",
      "Longitude": "-73.9675054"
    },
    {
      "SegmentID": "81165",
      "RoadwayName": "Broadway",
      "From": "West 259 Street",
      "To": "West 260 Street",
      "Direction": "SB",
      "Date": "2019-11-10",
      "flow": 0.09530864197530864,
      "Latitude": "40.8028269",
      "Longitude": "-73.9675054"
    },
    {
      "SegmentID": "134084",
      "RoadwayName": "Broadway",
      "From": "Dead End",
      "To": "Dead End",
      "Direction": "SB",
      "Date": "2019-11-10",
      "flow": 0.05333333333333334,
      "Latitude": "40.8028269",
      "Longitude": "-73.9675054"
    },
    {
      "SegmentID": "134083",
      "RoadwayName": "Broadway",
      "From": "Van Cortlandt Park South",
      "To": "Dead End",
      "Direction": "NB",
      "Date": "2019-11-10",
      "flow": 0.08592592592592592,
      "Latitude": "40.8028269",
      "Longitude": "-73.9675054"
    },
    {
      "SegmentID": "255657",
      "RoadwayName": "Broadway",
      "From": "Broadway/ 7 Avenue Line",
      "To": "Broadway/ 7 Avenue Line",
      "Direction": "SB",
      "Date": "2019-11-10",
      "flow": 0.02666666666666667,
      "Latitude": "40.8028269",
      "Longitude": "-73.9675054"
    },
    {
      "SegmentID": "88880",
      "RoadwayName": "Bronx Boulevard",
      "From": "Bronx River Greenway",
      "To": "Dead End",
      "Direction": "NB",
      "Date": "2019-11-10",
      "flow": 0.07111111111111111,
      "Latitude": "40.8870077",
      "Longitude": "-73.8653065"
    },
    {
      "SegmentID": "87447",
      "RoadwayName": "Bronx Park East",
      "From": "Maran Place",
      "To": "Lydig Avenue",
      "Direction": "NB",
      "Date": "2019-11-10",
      "flow": 0.09481481481481481,
      "Latitude": "40.8489744",
      "Longitude": "-73.8683841"
    },
    {
      "SegmentID": "87447",
      "RoadwayName": "Bronx Park East",
      "From": "Maran Place",
      "To": "Lydig Avenue",
      "Direction": "SB",
      "Date": "2019-11-10",
      "flow": 0.14617283950617285,
      "Latitude": "40.8489744",
      "Longitude": "-73.8683841"
    },
    {
      "SegmentID": "29843",
      "RoadwayName": "BROOKLYN AVENUE",
      "From": "St Johns Place",
      "To": "Lincoln Place",
      "Direction": "SB",
      "Date": "2019-11-10",
      "flow": 0.11555555555555555,
      "Latitude": "40.6313796",
      "Longitude": "-73.9416905"
    },
    {
      "SegmentID": "9003959",
      "RoadwayName": "Burke Avenue",
      "From": "Yates Avenue",
      "To": "Dead End",
      "Direction": "EB",
      "Date": "2019-11-10",
      "flow": 0.029135802469135802,
      "Latitude": "40.8714348",
      "Longitude": "-73.8671748"
    },
    {
      "SegmentID": "9003959",
      "RoadwayName": "Burke Avenue",
      "From": "Yates Avenue",
      "To": "Dead End",
      "Direction": "WB",
      "Date": "2019-11-10",
      "flow": 0.025185185185185185,
      "Latitude": "40.8714348",
      "Longitude": "-73.8671748"
    },
    {
      "SegmentID": "9002975",
      "RoadwayName": "Calhoun Avenue",
      "From": "Dead End",
      "To": "Dead End",
      "Direction": "NB",
      "Date": "2019-11-10",
      "flow": 0.0049382716049382715,
      "Latitude": "40.8401745",
      "Longitude": "-73.82344175"
    },
    {
      "SegmentID": "9002975",
      "RoadwayName": "Calhoun Avenue",
      "From": "Dead End",
      "To": "Dead End",
      "Direction": "SB",
      "Date": "2019-11-10",
      "flow": 0.012345679012345678,
      "Latitude": "40.8401745",
      "Longitude": "-73.82344175"
    },
    {
      "SegmentID": "95712",
      "RoadwayName": "Conner Street",
      "From": "Hollers Avenue",
      "To": "Boston Road",
      "Direction": "NB",
      "Date": "2019-11-10",
      "flow": 0.1111111111111111,
      "Latitude": "40.8887386",
      "Longitude": "-73.8168994"
    },
    {
      "SegmentID": "95712",
      "RoadwayName": "Conner Street",
      "From": "Hollers Avenue",
      "To": "Boston Road",
      "Direction": "SB",
      "Date": "2019-11-10",
      "flow": 0.09530864197530864,
      "Latitude": "40.8887386",
      "Longitude": "-73.8168994"
    },
    {
      "SegmentID": "188574",
      "RoadwayName": "East 133 Street",
      "From": "Bruckner Boulevard",
      "To": "Bruckner Boulevard",
      "Direction": "EB",
      "Date": "2019-11-10",
      "flow": 0.057777777777777775,
      "Latitude": "40.8301747",
      "Longitude": "-73.8375135"
    },
    {
      "SegmentID": "174149",
      "RoadwayName": "East 161 Street",
      "From": "Connector",
      "To": "Dead end",
      "Direction": "EB",
      "Date": "2019-11-10",
      "flow": 0.047407407407407405,
      "Latitude": "40.7516976",
      "Longitude": "-73.9997739"
    },
    {
      "SegmentID": "174149",
      "RoadwayName": "East 161 Street",
      "From": "Connector",
      "To": "Dead end",
      "Direction": "WB",
      "Date": "2019-11-10",
      "flow": 0.08493827160493828,
      "Latitude": "40.7516976",
      "Longitude": "-73.9997739"
    },
    {
      "SegmentID": "147472",
      "RoadwayName": "East 161 Street",
      "From": "Grand Concourse",
      "To": "Dead End",
      "Direction": "WB",
      "Date": "2019-11-10",
      "flow": 0.0725925925925926,
      "Latitude": "40.8510934",
      "Longitude": "-73.9046308"
    },
    {
      "SegmentID": "147471",
      "RoadwayName": "East 161 Street",
      "From": "Grand Concourse",
      "To": "Dead End",
      "Direction": "EB",
      "Date": "2019-11-10",
      "flow": 0.07209876543209877,
      "Latitude": "40.8510934",
      "Longitude": "-73.9046308"
    },
    {
      "SegmentID": "77424",
      "RoadwayName": "East 163 Street",
      "From": "Rogers Place",
      "To": "Intervale Avenue",
      "Direction": "EB",
      "Date": "2019-11-10",
      "flow": 0.06518518518518518,
      "Latitude": "40.8237575",
      "Longitude": "-73.8976172"
    },
    {
      "SegmentID": "77424",
      "RoadwayName": "East 163 Street",
      "From": "Rogers Place",
      "To": "Intervale Avenue",
      "Direction": "WB",
      "Date": "2019-11-10",
      "flow": 0.07308641975308643,
      "Latitude": "40.8237575",
      "Longitude": "-73.8976172"
    },
    {
      "SegmentID": "174289",
      "RoadwayName": "East 167 Street",
      "From": "Dead End",
      "To": "Dead End",
      "Direction": "EB",
      "Date": "2019-11-10",
      "flow": 0.04296296296296296,
      "Latitude": "40.8401745",
      "Longitude": "-73.82344175"
    },
    {
      "SegmentID": "174289",
      "RoadwayName": "East 167 Street",
      "From": "Dead End",
      "To": "Dead End",
      "Direction": "WB",
      "Date": "2019-11-10",
      "flow": 0.037037037037037035,
      "Latitude": "40.8401745",
      "Longitude": "-73.82344175"
    },
    {
      "SegmentID": "116598",
      "RoadwayName": "East 222 Street",
      "From": "Wickham Avenue",
      "To": "Bruner Avenue",
      "Direction": "EB",
      "Date": "2019-11-10",
      "flow": 0.05580246913580247,
      "Latitude": "40.8607479",
      "Longitude": "-73.8352367"
    },
    {
      "SegmentID": "116598",
      "RoadwayName": "East 222 Street",
      "From": "Wickham Avenue",
      "To": "Bruner Avenue",
      "Direction": "WB",
      "Date": "2019-11-10",
      "flow": 0.06666666666666667,
      "Latitude": "40.8607479",
      "Longitude": "-73.8352367"
    },
    {
      "SegmentID": "89274",
      "RoadwayName": "East 241 Street",
      "From": "Bronx Boulevard",
      "To": "Carpenter Avenue",
      "Direction": "EB",
      "Date": "2019-11-10",
      "flow": 0.04,
      "Latitude": "40.8870077",
      "Longitude": "-73.8653065"
    },
    {
      "SegmentID": "89274",
      "RoadwayName": "East 241 Street",
      "From": "Bronx Boulevard",
      "To": "Carpenter Avenue",
      "Direction": "WB",
      "Date": "2019-11-10",
      "flow": 0.07555555555555556,
      "Latitude": "40.8870077",
      "Longitude": "-73.8653065"
    },
    {
      "SegmentID": "116587",
      "RoadwayName": "East Gun Hill Road",
      "From": "Givan Avenue",
      "To": "Pearsall Avenue",
      "Direction": "EB",
      "Date": "2019-11-10",
      "flow": 0.046419753086419754,
      "Latitude": "40.8640107",
      "Longitude": "-73.8339775"
    },
    {
      "SegmentID": "116587",
      "RoadwayName": "East Gun Hill Road",
      "From": "Givan Avenue",
      "To": "Pearsall Avenue",
      "Direction": "WB",
      "Date": "2019-11-10",
      "flow": 0.08296296296296296,
      "Latitude": "40.8640107",
      "Longitude": "-73.8339775"
    },
    {
      "SegmentID": "178395",
      "RoadwayName": "East Gun Hill Road",
      "From": "Bronx River Parkway",
      "To": "Dead End",
      "Direction": "EB",
      "Date": "2019-11-10",
      "flow": 0.16592592592592592,
      "Latitude": "40.8640107",
      "Longitude": "-73.8339775"
    },
    {
      "SegmentID": "178395",
      "RoadwayName": "East Gun Hill Road",
      "From": "Bronx River Parkway",
      "To": "Dead End",
      "Direction": "WB",
      "Date": "2019-11-10",
      "flow": 0.2883950617283951,
      "Latitude": "40.8640107",
      "Longitude": "-73.8339775"
    },
    {
      "SegmentID": "78404",
      "RoadwayName": "East Tremont Avenue",
      "From": "Anthony Avenue",
      "To": "Dead end",
      "Direction": "EB",
      "Date": "2019-11-10",
      "flow": 0.08641975308641975,
      "Latitude": "40.8418573",
      "Longitude": "-73.8583296"
    },
    {
      "SegmentID": "78404",
      "RoadwayName": "East Tremont Avenue",
      "From": "Anthony Avenue",
      "To": "Dead End",
      "Direction": "WB",
      "Date": "2019-11-10",
      "flow": 0.12148148148148148,
      "Latitude": "40.8418573",
      "Longitude": "-73.8583296"
    },
    {
      "SegmentID": "93653",
      "RoadwayName": "East Tremont Avenue",
      "From": "Harding Avenue",
      "To": "Silver Beach Place",
      "Direction": "NB",
      "Date": "2019-11-10",
      "flow": 0.0044444444444444444,
      "Latitude": "40.8418573",
      "Longitude": "-73.8583296"
    },
    {
      "SegmentID": "93653",
      "RoadwayName": "East Tremont Avenue",
      "From": "Harding Avenue",
      "To": "Silver Beach Place",
      "Direction": "SB",
      "Date": "2019-11-10",
      "flow": 0.003950617283950617,
      "Latitude": "40.8418573",
      "Longitude": "-73.8583296"
    },
    {
      "SegmentID": "251949",
      "RoadwayName": "Exterior Street",
      "From": "Dead End",
      "To": "Dead End",
      "Direction": "NB",
      "Date": "2019-11-10",
      "flow": 1,
      "Latitude": "40.8401745",
      "Longitude": "-73.82344175"
    },
    {
      "SegmentID": "251949",
      "RoadwayName": "Exterior Street",
      "From": "Dead End",
      "To": "Dead End",
      "Direction": "SB",
      "Date": "2019-11-10",
      "flow": 0.6558024691358024,
      "Latitude": "40.8401745",
      "Longitude": "-73.82344175"
    },
    {
      "SegmentID": "150536",
      "RoadwayName": "Francis Lewis Boulevard",
      "From": "Dead End",
      "To": "200 Street",
      "Direction": "WB",
      "Date": "2019-11-10",
      "flow": 0.015308641975308642,
      "Latitude": "40.7135593",
      "Longitude": "-73.753829"
    },
    {
      "SegmentID": "29565",
      "RoadwayName": "FRANKLIN AVENUE",
      "From": "Hancock Street",
      "To": "Fulton Street",
      "Direction": "SB",
      "Date": "2019-11-10",
      "flow": 0.1274074074074074,
      "Latitude": "40.6706813",
      "Longitude": "-73.9579734"
    },
    {
      "SegmentID": "29461",
      "RoadwayName": "Fulton Street",
      "From": "Classon Avenue",
      "To": "Claver Place",
      "Direction": "EB",
      "Date": "2019-11-10",
      "flow": 0.09876543209876543,
      "Latitude": "40.7101857",
      "Longitude": "-74.0076638"
    },
    {
      "SegmentID": "29461",
      "RoadwayName": "FULTON STREET",
      "From": "Classon Avenue",
      "To": "Claver Place",
      "Direction": "WB",
      "Date": "2019-11-10",
      "flow": 0.0819753086419753,
      "Latitude": "40.7101857",
      "Longitude": "-74.0076638"
    },
    {
      "SegmentID": "176284",
      "RoadwayName": "Grand Concourse",
      "From": "Concourse Line",
      "To": "Concourse Line",
      "Direction": "NB",
      "Date": "2019-11-10",
      "flow": 0.10074074074074074,
      "Latitude": "40.8510934",
      "Longitude": "-73.9046308"
    },
    {
      "SegmentID": "176284",
      "RoadwayName": "Grand Concourse",
      "From": "Concourse Line",
      "To": "Concourse Line",
      "Direction": "SB",
      "Date": "2019-11-10",
      "flow": 0.0745679012345679,
      "Latitude": "40.8510934",
      "Longitude": "-73.9046308"
    },
    {
      "SegmentID": "148196",
      "RoadwayName": "Grand Concourse",
      "From": "East 187 Street",
      "To": "Connector",
      "Direction": "SB",
      "Date": "2019-11-10",
      "flow": 0.06617283950617284,
      "Latitude": "40.8510934",
      "Longitude": "-73.9046308"
    },
    {
      "SegmentID": "148195",
      "RoadwayName": "Grand Concourse",
      "From": "East 187 Street",
      "To": "Connector",
      "Direction": "NB",
      "Date": "2019-11-10",
      "flow": 0.07160493827160494,
      "Latitude": "40.8510934",
      "Longitude": "-73.9046308"
    },
    {
      "SegmentID": "9008598",
      "RoadwayName": "Harrod Avenue",
      "From": "Dead End",
      "To": "Dead End",
      "Direction": "NB",
      "Date": "2019-11-10",
      "flow": 0.018271604938271607,
      "Latitude": "40.8401745",
      "Longitude": "-73.82344175"
    },
    {
      "SegmentID": "9008598",
      "RoadwayName": "Harrod Avenue",
      "From": "Dead End",
      "To": "Dead End",
      "Direction": "SB",
      "Date": "2019-11-10",
      "flow": 0.01580246913580247,
      "Latitude": "40.8401745",
      "Longitude": "-73.82344175"
    },
    {
      "SegmentID": "9009984",
      "RoadwayName": "Jerome Avenue",
      "From": "East 213 Street",
      "To": "Jerome Avenue Line",
      "Direction": "NB",
      "Date": "2019-11-10",
      "flow": 0.05432098765432099,
      "Latitude": "40.8665331",
      "Longitude": "-73.8981713"
    },
    {
      "SegmentID": "9009984",
      "RoadwayName": "Jerome Avenue",
      "From": "East 213 Street",
      "To": "Jerome Avenue Line",
      "Direction": "SB",
      "Date": "2019-11-10",
      "flow": 0.06123456790123457,
      "Latitude": "40.8665331",
      "Longitude": "-73.8981713"
    },
    {
      "SegmentID": "77328",
      "RoadwayName": "Longwood Avenue",
      "From": "Prospect Avenue",
      "To": "Hewitt Place",
      "Direction": "EB",
      "Date": "2019-11-10",
      "flow": 0.017777777777777778,
      "Latitude": "40.665414",
      "Longitude": "-73.992872"
    },
    {
      "SegmentID": "77328",
      "RoadwayName": "Longwood Avenue",
      "From": "Prospect Avenue",
      "To": "Hewitt Place",
      "Direction": "WB",
      "Date": "2019-11-10",
      "flow": 0.019753086419753086,
      "Latitude": "40.665414",
      "Longitude": "-73.992872"
    },
    {
      "SegmentID": "141740",
      "RoadwayName": "Mosholu Parkway",
      "From": "Dead End",
      "To": "Major Deegan Expwy Et 12 Nb",
      "Direction": "SB",
      "Date": "2019-11-10",
      "flow": 0.08592592592592592,
      "Latitude": "40.8792799",
      "Longitude": "-73.8852693"
    },
    {
      "SegmentID": "176737",
      "RoadwayName": "Mosholu Parkway",
      "From": "Dead End",
      "To": "Dead End",
      "Direction": "NB",
      "Date": "2019-11-10",
      "flow": 0.06666666666666667,
      "Latitude": "40.8792799",
      "Longitude": "-73.8852693"
    },
    {
      "SegmentID": "89614",
      "RoadwayName": "Nereid Avenue",
      "From": "Hill Avenue",
      "To": "Monticello Avenue",
      "Direction": "EB",
      "Date": "2019-11-10",
      "flow": 0.019753086419753086,
      "Latitude": "40.8935705",
      "Longitude": "-73.84011"
    },
    {
      "SegmentID": "89614",
      "RoadwayName": "Nereid Avenue",
      "From": "Hill Avenue",
      "To": "Monticello Avenue",
      "Direction": "WB",
      "Date": "2019-11-10",
      "flow": 0.014814814814814815,
      "Latitude": "40.8935705",
      "Longitude": "-73.84011"
    },
    {
      "SegmentID": "9008830",
      "RoadwayName": "Pelham Parkway",
      "From": "Dead End",
      "To": "Dead End",
      "Direction": "EB",
      "Date": "2019-11-10",
      "flow": 0.12987654320987654,
      "Latitude": "40.857229",
      "Longitude": "-73.8676281"
    },
    {
      "SegmentID": "9008826",
      "RoadwayName": "Pelham Parkway",
      "From": "Dead End",
      "To": "Dead End",
      "Direction": "WB",
      "Date": "2019-11-10",
      "flow": 0.10469135802469136,
      "Latitude": "40.857229",
      "Longitude": "-73.8676281"
    },
    {
      "SegmentID": "9003698",
      "RoadwayName": "Pelham Parkway North",
      "From": "Dead End",
      "To": "Dead End",
      "Direction": "WB",
      "Date": "2019-11-10",
      "flow": 0.015308641975308642,
      "Latitude": "40.8401745",
      "Longitude": "-73.82344175"
    },
    {
      "SegmentID": "87638",
      "RoadwayName": "Pelham Parkway South",
      "From": "Wallace Avenue",
      "To": "Barnes Avenue",
      "Direction": "EB",
      "Date": "2019-11-10",
      "flow": 0.0854320987654321,
      "Latitude": "40.8563458",
      "Longitude": "-73.8385504"
    },
    {
      "SegmentID": "194263",
      "RoadwayName": "Pelham Parkway",
      "From": "Boston Road",
      "To": "White Plains Road",
      "Direction": "EB",
      "Date": "2019-11-10",
      "flow": 0.1925925925925926,
      "Latitude": "40.857229",
      "Longitude": "-73.8676281"
    },
    {
      "SegmentID": "193983",
      "RoadwayName": "Pelham Parkway",
      "From": "Boston Road",
      "To": "White Plains Road",
      "Direction": "WB",
      "Date": "2019-11-10",
      "flow": 0.1417283950617284,
      "Latitude": "40.857229",
      "Longitude": "-73.8676281"
    },
    {
      "SegmentID": "178366",
      "RoadwayName": "Pelham Parkway North",
      "From": "Dead End",
      "To": "White Plains Road",
      "Direction": "WB",
      "Date": "2019-11-10",
      "flow": 0,
      "Latitude": "40.8401745",
      "Longitude": "-73.82344175"
    },
    {
      "SegmentID": "194327",
      "RoadwayName": "Pelham Parkway South",
      "From": "Bolton Street",
      "To": "White Plains Road",
      "Direction": "EB",
      "Date": "2019-11-10",
      "flow": 0.08493827160493828,
      "Latitude": "40.8563458",
      "Longitude": "-73.8385504"
    },
    {
      "SegmentID": "93887",
      "RoadwayName": "Pennyfield Avenue",
      "From": "Mullen Place",
      "To": "Harding Avenue",
      "Direction": "NB",
      "Date": "2019-11-10",
      "flow": 0.020246913580246915,
      "Latitude": "43.1560584",
      "Longitude": "-77.6332169"
    },
    {
      "SegmentID": "93887",
      "RoadwayName": "Pennyfield Avenue",
      "From": "Mullen Place",
      "To": "Harding Avenue",
      "Direction": "SB",
      "Date": "2019-11-10",
      "flow": 0.028148148148148148,
      "Latitude": "43.1560584",
      "Longitude": "-77.6332169"
    },
    {
      "SegmentID": "89600",
      "RoadwayName": "Pitman Avenue",
      "From": "Wilder Avenue",
      "To": "Murdock Avenue",
      "Direction": "EB",
      "Date": "2019-11-10",
      "flow": 0.03160493827160494,
      "Latitude": "40.89581",
      "Longitude": "-73.8428862"
    },
    {
      "SegmentID": "89600",
      "RoadwayName": "Pitman Avenue",
      "From": "Wilder Avenue",
      "To": "Murdock Avenue",
      "Direction": "WB",
      "Date": "2019-11-10",
      "flow": 0.02074074074074074,
      "Latitude": "40.89581",
      "Longitude": "-73.8428862"
    },
    {
      "SegmentID": "179513",
      "RoadwayName": "Randall Avenue",
      "From": "Dead End",
      "To": "Cross Bronx Expressway",
      "Direction": "NB",
      "Date": "2019-11-10",
      "flow": 0.23407407407407407,
      "Latitude": "40.8401745",
      "Longitude": "-73.82344175"
    },
    {
      "SegmentID": "179513",
      "RoadwayName": "Randall Avenue",
      "From": "Dead End",
      "To": "Cross Bronx Expressway",
      "Direction": "SB",
      "Date": "2019-11-10",
      "flow": 0.25037037037037035,
      "Latitude": "40.8401745",
      "Longitude": "-73.82344175"
    },
    {
      "SegmentID": "109429",
      "RoadwayName": "Roosevelt Avenue",
      "From": "57 Street",
      "To": "58 Street",
      "Direction": "EB",
      "Date": "2019-11-10",
      "flow": 0.14419753086419754,
      "Latitude": "40.7582939",
      "Longitude": "-73.8342154"
    },
    {
      "SegmentID": "109429",
      "RoadwayName": "Roosevelt Avenue",
      "From": "57 Street",
      "To": "58 Street",
      "Direction": "WB",
      "Date": "2019-11-10",
      "flow": 0.12246913580246914,
      "Latitude": "40.7582939",
      "Longitude": "-73.8342154"
    },
    {
      "SegmentID": "146666",
      "RoadwayName": "Southern Boulevard",
      "From": "Dead End",
      "To": "East Fordham Road",
      "Direction": "NB",
      "Date": "2019-11-10",
      "flow": 0.06518518518518518,
      "Latitude": "40.8101526",
      "Longitude": "-73.9070982"
    },
    {
      "SegmentID": "154724",
      "RoadwayName": "Southern Boulevard",
      "From": "East Fordham Road",
      "To": "Dead End",
      "Direction": "SB",
      "Date": "2019-11-10",
      "flow": 0.09382716049382717,
      "Latitude": "40.8101526",
      "Longitude": "-73.9070982"
    },
    {
      "SegmentID": "9001821",
      "RoadwayName": "St Anns Avenue",
      "From": "Dead End",
      "To": "East 156 Street",
      "Direction": "NB",
      "Date": "2019-11-10",
      "flow": 0.04148148148148148,
      "Latitude": "40.59127905",
      "Longitude": "-74.09666133"
    },
    {
      "SegmentID": "9001821",
      "RoadwayName": "St Anns Avenue",
      "From": "Dead End",
      "To": "East 156 Street",
      "Direction": "SB",
      "Date": "2019-11-10",
      "flow": 0.02567901234567901,
      "Latitude": "40.59127905",
      "Longitude": "-74.09666133"
    },
    {
      "SegmentID": "178549",
      "RoadwayName": "Stillwell Avenue",
      "From": "Rhinelander Avenue",
      "To": "Pelham Parkway South",
      "Direction": "NB",
      "Date": "2019-11-10",
      "flow": 0.025185185185185185,
      "Latitude": "40.5870044",
      "Longitude": "-73.983419"
    },
    {
      "SegmentID": "178549",
      "RoadwayName": "Stillwell Avenue",
      "From": "Rhinelander Avenue",
      "To": "Pelham Parkway South",
      "Direction": "SB",
      "Date": "2019-11-10",
      "flow": 0.007901234567901235,
      "Latitude": "40.5870044",
      "Longitude": "-73.983419"
    },
    {
      "SegmentID": "43033",
      "RoadwayName": "THROOP AVENUE",
      "From": "Jefferson Avenue",
      "To": "Hancock Street",
      "Direction": "NB",
      "Date": "2019-11-10",
      "flow": 0.08592592592592592,
      "Latitude": "40.8722356",
      "Longitude": "-73.8507951"
    },
    {
      "SegmentID": "36705",
      "RoadwayName": "VERNON BOULEVARD",
      "From": "46th Road",
      "To": "47th Avenue",
      "Direction": "SB",
      "Date": "2019-11-10",
      "flow": 0.04148148148148148,
      "Latitude": "40.7527826",
      "Longitude": "-73.7909966"
    },
    {
      "SegmentID": "113476",
      "RoadwayName": "Webster Avenue",
      "From": "Clay Avenue",
      "To": "East Mt Eden Avenue",
      "Direction": "NB",
      "Date": "2019-11-10",
      "flow": 0.1308641975308642,
      "Latitude": "40.8301832",
      "Longitude": "-73.9108058"
    },
    {
      "SegmentID": "113476",
      "RoadwayName": "Webster Avenue",
      "From": "Clay Avenue",
      "To": "East Mt Eden Avenue",
      "Direction": "SB",
      "Date": "2019-11-10",
      "flow": 0.15407407407407409,
      "Latitude": "40.8301832",
      "Longitude": "-73.9108058"
    },
    {
      "SegmentID": "176295",
      "RoadwayName": "Webster Avenue",
      "From": "East 189 Street",
      "To": "East Fordham Road",
      "Direction": "NB",
      "Date": "2019-11-10",
      "flow": 0.16641975308641976,
      "Latitude": "40.8301832",
      "Longitude": "-73.9108058"
    },
    {
      "SegmentID": "176295",
      "RoadwayName": "Webster Avenue",
      "From": "East 189 Street",
      "To": "East Fordham Road",
      "Direction": "SB",
      "Date": "2019-11-10",
      "flow": 0.10320987654320987,
      "Latitude": "40.8301832",
      "Longitude": "-73.9108058"
    },
    {
      "SegmentID": "107183",
      "RoadwayName": "Mosholu Parkway",
      "From": "Grand Concourse",
      "To": "Bike Path",
      "Direction": "NB",
      "Date": "2019-11-10",
      "flow": 0.056296296296296296,
      "Latitude": "40.8792799",
      "Longitude": "-73.8852693"
    },
    {
      "SegmentID": "107183",
      "RoadwayName": "Mosholu Parkway",
      "From": "Grand Concourse",
      "To": "Bike Path",
      "Direction": "SB",
      "Date": "2019-11-10",
      "flow": 0.08938271604938272,
      "Latitude": "40.8792799",
      "Longitude": "-73.8852693"
    },
    {
      "SegmentID": "89398",
      "RoadwayName": "White Plains Road",
      "From": "St Ouen Street",
      "To": "Penfield Street",
      "Direction": "NB",
      "Date": "2019-11-10",
      "flow": 0.08790123456790123,
      "Latitude": "40.8573681",
      "Longitude": "-73.8676146"
    },
    {
      "SegmentID": "89398",
      "RoadwayName": "White Plains Road",
      "From": "St Ouen Street",
      "To": "Penfield Street",
      "Direction": "SB",
      "Date": "2019-11-10",
      "flow": 0.06962962962962962,
      "Latitude": "40.8573681",
      "Longitude": "-73.8676146"
    }
  ],
  "2:00-3:00AM": [
    {
      "SegmentID": "155864",
      "RoadwayName": "11TH STREET",
      "From": "47th Avenue",
      "To": "47th Road",
      "Direction": "NB",
      "Date": "2019-11-10",
      "flow": 0.05997624703087886,
      "Latitude": "40.7505577",
      "Longitude": "-73.7917086"
    },
    {
      "SegmentID": "156973",
      "RoadwayName": "11TH STREET",
      "From": "47th Avenue",
      "To": "47th Road",
      "Direction": "SB",
      "Date": "2019-11-10",
      "flow": 0.07660332541567696,
      "Latitude": "40.7505577",
      "Longitude": "-73.7917086"
    },
    {
      "SegmentID": "152665",
      "RoadwayName": "ATLANTIC AVENUE",
      "From": "Classon Avenue",
      "To": "Franklin Avenue Shuttle Line",
      "Direction": "WB",
      "Date": "2019-11-10",
      "flow": 0.26068883610451304,
      "Latitude": "40.688873",
      "Longitude": "-73.96007"
    },
    {
      "SegmentID": "108866",
      "RoadwayName": "Bainbridge Avenue",
      "From": "East 213 Street",
      "To": "Jerome Avenue",
      "Direction": "NB",
      "Date": "2019-11-10",
      "flow": 0.004750593824228029,
      "Latitude": "40.8665331",
      "Longitude": "-73.8981713"
    },
    {
      "SegmentID": "108866",
      "RoadwayName": "Bainbrige Avenue",
      "From": "East 213 Street",
      "To": "Jerome Avenue",
      "Direction": "SB",
      "Date": "2019-11-10",
      "flow": 0.027315914489311165,
      "Latitude": "40.8665331",
      "Longitude": "-73.8981713"
    },
    {
      "SegmentID": "88826",
      "RoadwayName": "Baychester Avenue",
      "From": "Tilotson Avenue",
      "To": "Dyre Avenue Line",
      "Direction": "NB",
      "Date": "2019-11-10",
      "flow": 0.11282660332541568,
      "Latitude": "40.8699949",
      "Longitude": "-73.8458916"
    },
    {
      "SegmentID": "88826",
      "RoadwayName": "Baychester Avenue",
      "From": "Tilotson Avenue",
      "To": "Dyre Avenue Line",
      "Direction": "SB",
      "Date": "2019-11-10",
      "flow": 0.05344418052256532,
      "Latitude": "40.8699949",
      "Longitude": "-73.8458916"
    },
    {
      "SegmentID": "88298",
      "RoadwayName": "Boston Road",
      "From": "Fish Avenue",
      "To": "Seymour Avenue",
      "Direction": "EB",
      "Date": "2019-11-10",
      "flow": 0.06353919239904988,
      "Latitude": "40.8673321",
      "Longitude": "-73.8600312"
    },
    {
      "SegmentID": "88298",
      "RoadwayName": "Boston Road",
      "From": "Fish Avenue",
      "To": "Seymour Avenue",
      "Direction": "WB",
      "Date": "2019-11-10",
      "flow": 0.07422802850356294,
      "Latitude": "40.8673321",
      "Longitude": "-73.8600312"
    },
    {
      "SegmentID": "146329",
      "RoadwayName": "Boston Road",
      "From": "Connector",
      "To": "Connector",
      "Direction": "WB",
      "Date": "2019-11-10",
      "flow": 0.035629453681710214,
      "Latitude": "40.8673321",
      "Longitude": "-73.8600312"
    },
    {
      "SegmentID": "146328",
      "RoadwayName": "Boston Road",
      "From": "Connector",
      "To": "Connector",
      "Direction": "EB",
      "Date": "2019-11-10",
      "flow": 0.04275534441805225,
      "Latitude": "40.8673321",
      "Longitude": "-73.8600312"
    },
    {
      "SegmentID": "81165",
      "RoadwayName": "Broadway",
      "From": "West 259 Street",
      "To": "West 260 Street",
      "Direction": "NB",
      "Date": "2019-11-10",
      "flow": 0.08135391923990498,
      "Latitude": "40.8028269",
      "Longitude": "-73.9675054"
    },
    {
      "SegmentID": "81165",
      "RoadwayName": "Broadway",
      "From": "West 259 Street",
      "To": "West 260 Street",
      "Direction": "SB",
      "Date": "2019-11-10",
      "flow": 0.08669833729216152,
      "Latitude": "40.8028269",
      "Longitude": "-73.9675054"
    },
    {
      "SegmentID": "134084",
      "RoadwayName": "Broadway",
      "From": "Dead End",
      "To": "Dead End",
      "Direction": "SB",
      "Date": "2019-11-10",
      "flow": 0.07897862232779097,
      "Latitude": "40.8028269",
      "Longitude": "-73.9675054"
    },
    {
      "SegmentID": "134083",
      "RoadwayName": "Broadway",
      "From": "Van Cortlandt Park South",
      "To": "Dead End",
      "Direction": "NB",
      "Date": "2019-11-10",
      "flow": 0.07838479809976247,
      "Latitude": "40.8028269",
      "Longitude": "-73.9675054"
    },
    {
      "SegmentID": "255657",
      "RoadwayName": "Broadway",
      "From": "Broadway/ 7 Avenue Line",
      "To": "Broadway/ 7 Avenue Line",
      "Direction": "SB",
      "Date": "2019-11-10",
      "flow": 0.029097387173396674,
      "Latitude": "40.8028269",
      "Longitude": "-73.9675054"
    },
    {
      "SegmentID": "88880",
      "RoadwayName": "Bronx Boulevard",
      "From": "Bronx River Greenway",
      "To": "Dead End",
      "Direction": "NB",
      "Date": "2019-11-10",
      "flow": 0.05522565320665083,
      "Latitude": "40.8870077",
      "Longitude": "-73.8653065"
    },
    {
      "SegmentID": "87447",
      "RoadwayName": "Bronx Park East",
      "From": "Maran Place",
      "To": "Lydig Avenue",
      "Direction": "NB",
      "Date": "2019-11-10",
      "flow": 0.07422802850356294,
      "Latitude": "40.8489744",
      "Longitude": "-73.8683841"
    },
    {
      "SegmentID": "87447",
      "RoadwayName": "Bronx Park East",
      "From": "Maran Place",
      "To": "Lydig Avenue",
      "Direction": "SB",
      "Date": "2019-11-10",
      "flow": 0.1336104513064133,
      "Latitude": "40.8489744",
      "Longitude": "-73.8683841"
    },
    {
      "SegmentID": "29843",
      "RoadwayName": "BROOKLYN AVENUE",
      "From": "St Johns Place",
      "To": "Lincoln Place",
      "Direction": "SB",
      "Date": "2019-11-10",
      "flow": 0.08076009501187649,
      "Latitude": "40.6313796",
      "Longitude": "-73.9416905"
    },
    {
      "SegmentID": "9003959",
      "RoadwayName": "Burke Avenue",
      "From": "Yates Avenue",
      "To": "Dead End",
      "Direction": "EB",
      "Date": "2019-11-10",
      "flow": 0.01840855106888361,
      "Latitude": "40.8714348",
      "Longitude": "-73.8671748"
    },
    {
      "SegmentID": "9003959",
      "RoadwayName": "Burke Avenue",
      "From": "Yates Avenue",
      "To": "Dead End",
      "Direction": "WB",
      "Date": "2019-11-10",
      "flow": 0.017814726840855107,
      "Latitude": "40.8714348",
      "Longitude": "-73.8671748"
    },
    {
      "SegmentID": "9002975",
      "RoadwayName": "Calhoun Avenue",
      "From": "Dead End",
      "To": "Dead End",
      "Direction": "NB",
      "Date": "2019-11-10",
      "flow": 0.0023752969121140144,
      "Latitude": "40.8401745",
      "Longitude": "-73.82344175"
    },
    {
      "SegmentID": "9002975",
      "RoadwayName": "Calhoun Avenue",
      "From": "Dead End",
      "To": "Dead End",
      "Direction": "SB",
      "Date": "2019-11-10",
      "flow": 0.0059382422802850355,
      "Latitude": "40.8401745",
      "Longitude": "-73.82344175"
    },
    {
      "SegmentID": "95712",
      "RoadwayName": "Conner Street",
      "From": "Hollers Avenue",
      "To": "Boston Road",
      "Direction": "NB",
      "Date": "2019-11-10",
      "flow": 0.11045130641330166,
      "Latitude": "40.8887386",
      "Longitude": "-73.8168994"
    },
    {
      "SegmentID": "95712",
      "RoadwayName": "Conner Street",
      "From": "Hollers Avenue",
      "To": "Boston Road",
      "Direction": "SB",
      "Date": "2019-11-10",
      "flow": 0.08788598574821853,
      "Latitude": "40.8887386",
      "Longitude": "-73.8168994"
    },
    {
      "SegmentID": "188574",
      "RoadwayName": "East 133 Street",
      "From": "Bruckner Boulevard",
      "To": "Bruckner Boulevard",
      "Direction": "EB",
      "Date": "2019-11-10",
      "flow": 0.09204275534441805,
      "Latitude": "40.8301747",
      "Longitude": "-73.8375135"
    },
    {
      "SegmentID": "174149",
      "RoadwayName": "East 161 Street",
      "From": "Connector",
      "To": "Dead end",
      "Direction": "EB",
      "Date": "2019-11-10",
      "flow": 0.058788598574821854,
      "Latitude": "40.7516976",
      "Longitude": "-73.9997739"
    },
    {
      "SegmentID": "174149",
      "RoadwayName": "East 161 Street",
      "From": "Connector",
      "To": "Dead end",
      "Direction": "WB",
      "Date": "2019-11-10",
      "flow": 0.08907363420427554,
      "Latitude": "40.7516976",
      "Longitude": "-73.9997739"
    },
    {
      "SegmentID": "147472",
      "RoadwayName": "East 161 Street",
      "From": "Grand Concourse",
      "To": "Dead End",
      "Direction": "WB",
      "Date": "2019-11-10",
      "flow": 0.06413301662707839,
      "Latitude": "40.8510934",
      "Longitude": "-73.9046308"
    },
    {
      "SegmentID": "147471",
      "RoadwayName": "East 161 Street",
      "From": "Grand Concourse",
      "To": "Dead End",
      "Direction": "EB",
      "Date": "2019-11-10",
      "flow": 0.060570071258907364,
      "Latitude": "40.8510934",
      "Longitude": "-73.9046308"
    },
    {
      "SegmentID": "77424",
      "RoadwayName": "East 163 Street",
      "From": "Rogers Place",
      "To": "Intervale Avenue",
      "Direction": "EB",
      "Date": "2019-11-10",
      "flow": 0.07482185273159145,
      "Latitude": "40.8237575",
      "Longitude": "-73.8976172"
    },
    {
      "SegmentID": "77424",
      "RoadwayName": "East 163 Street",
      "From": "Rogers Place",
      "To": "Intervale Avenue",
      "Direction": "WB",
      "Date": "2019-11-10",
      "flow": 0.07244655581947744,
      "Latitude": "40.8237575",
      "Longitude": "-73.8976172"
    },
    {
      "SegmentID": "174289",
      "RoadwayName": "East 167 Street",
      "From": "Dead End",
      "To": "Dead End",
      "Direction": "EB",
      "Date": "2019-11-10",
      "flow": 0.04334916864608076,
      "Latitude": "40.8401745",
      "Longitude": "-73.82344175"
    },
    {
      "SegmentID": "174289",
      "RoadwayName": "East 167 Street",
      "From": "Dead End",
      "To": "Dead End",
      "Direction": "WB",
      "Date": "2019-11-10",
      "flow": 0.043942992874109264,
      "Latitude": "40.8401745",
      "Longitude": "-73.82344175"
    },
    {
      "SegmentID": "116598",
      "RoadwayName": "East 222 Street",
      "From": "Wickham Avenue",
      "To": "Bruner Avenue",
      "Direction": "EB",
      "Date": "2019-11-10",
      "flow": 0.04334916864608076,
      "Latitude": "40.8607479",
      "Longitude": "-73.8352367"
    },
    {
      "SegmentID": "116598",
      "RoadwayName": "East 222 Street",
      "From": "Wickham Avenue",
      "To": "Bruner Avenue",
      "Direction": "WB",
      "Date": "2019-11-10",
      "flow": 0.055819477434679333,
      "Latitude": "40.8607479",
      "Longitude": "-73.8352367"
    },
    {
      "SegmentID": "89274",
      "RoadwayName": "East 241 Street",
      "From": "Bronx Boulevard",
      "To": "Carpenter Avenue",
      "Direction": "EB",
      "Date": "2019-11-10",
      "flow": 0.03978622327790974,
      "Latitude": "40.8870077",
      "Longitude": "-73.8653065"
    },
    {
      "SegmentID": "89274",
      "RoadwayName": "East 241 Street",
      "From": "Bronx Boulevard",
      "To": "Carpenter Avenue",
      "Direction": "WB",
      "Date": "2019-11-10",
      "flow": 0.08254156769596199,
      "Latitude": "40.8870077",
      "Longitude": "-73.8653065"
    },
    {
      "SegmentID": "116587",
      "RoadwayName": "East Gun Hill Road",
      "From": "Givan Avenue",
      "To": "Pearsall Avenue",
      "Direction": "EB",
      "Date": "2019-11-10",
      "flow": 0.03978622327790974,
      "Latitude": "40.8640107",
      "Longitude": "-73.8339775"
    },
    {
      "SegmentID": "116587",
      "RoadwayName": "East Gun Hill Road",
      "From": "Givan Avenue",
      "To": "Pearsall Avenue",
      "Direction": "WB",
      "Date": "2019-11-10",
      "flow": 0.07007125890736342,
      "Latitude": "40.8640107",
      "Longitude": "-73.8339775"
    },
    {
      "SegmentID": "178395",
      "RoadwayName": "East Gun Hill Road",
      "From": "Bronx River Parkway",
      "To": "Dead End",
      "Direction": "EB",
      "Date": "2019-11-10",
      "flow": 0.1496437054631829,
      "Latitude": "40.8640107",
      "Longitude": "-73.8339775"
    },
    {
      "SegmentID": "178395",
      "RoadwayName": "East Gun Hill Road",
      "From": "Bronx River Parkway",
      "To": "Dead End",
      "Direction": "WB",
      "Date": "2019-11-10",
      "flow": 0.26128266033254155,
      "Latitude": "40.8640107",
      "Longitude": "-73.8339775"
    },
    {
      "SegmentID": "78404",
      "RoadwayName": "East Tremont Avenue",
      "From": "Anthony Avenue",
      "To": "Dead end",
      "Direction": "EB",
      "Date": "2019-11-10",
      "flow": 0.08966745843230403,
      "Latitude": "40.8418573",
      "Longitude": "-73.8583296"
    },
    {
      "SegmentID": "78404",
      "RoadwayName": "East Tremont Avenue",
      "From": "Anthony Avenue",
      "To": "Dead End",
      "Direction": "WB",
      "Date": "2019-11-10",
      "flow": 0.11995249406175772,
      "Latitude": "40.8418573",
      "Longitude": "-73.8583296"
    },
    {
      "SegmentID": "93653",
      "RoadwayName": "East Tremont Avenue",
      "From": "Harding Avenue",
      "To": "Silver Beach Place",
      "Direction": "NB",
      "Date": "2019-11-10",
      "flow": 0.0029691211401425177,
      "Latitude": "40.8418573",
      "Longitude": "-73.8583296"
    },
    {
      "SegmentID": "93653",
      "RoadwayName": "East Tremont Avenue",
      "From": "Harding Avenue",
      "To": "Silver Beach Place",
      "Direction": "SB",
      "Date": "2019-11-10",
      "flow": 0.0035629453681710215,
      "Latitude": "40.8418573",
      "Longitude": "-73.8583296"
    },
    {
      "SegmentID": "251949",
      "RoadwayName": "Exterior Street",
      "From": "Dead End",
      "To": "Dead End",
      "Direction": "NB",
      "Date": "2019-11-10",
      "flow": 1,
      "Latitude": "40.8401745",
      "Longitude": "-73.82344175"
    },
    {
      "SegmentID": "251949",
      "RoadwayName": "Exterior Street",
      "From": "Dead End",
      "To": "Dead End",
      "Direction": "SB",
      "Date": "2019-11-10",
      "flow": 0.6247030878859857,
      "Latitude": "40.8401745",
      "Longitude": "-73.82344175"
    },
    {
      "SegmentID": "150536",
      "RoadwayName": "Francis Lewis Boulevard",
      "From": "Dead End",
      "To": "200 Street",
      "Direction": "WB",
      "Date": "2019-11-10",
      "flow": 0.0166270783847981,
      "Latitude": "40.7135593",
      "Longitude": "-73.753829"
    },
    {
      "SegmentID": "29565",
      "RoadwayName": "FRANKLIN AVENUE",
      "From": "Hancock Street",
      "To": "Fulton Street",
      "Direction": "SB",
      "Date": "2019-11-10",
      "flow": 0.11520190023752969,
      "Latitude": "40.6706813",
      "Longitude": "-73.9579734"
    },
    {
      "SegmentID": "29461",
      "RoadwayName": "Fulton Street",
      "From": "Classon Avenue",
      "To": "Claver Place",
      "Direction": "EB",
      "Date": "2019-11-10",
      "flow": 0.12232779097387174,
      "Latitude": "40.7101857",
      "Longitude": "-74.0076638"
    },
    {
      "SegmentID": "29461",
      "RoadwayName": "FULTON STREET",
      "From": "Classon Avenue",
      "To": "Claver Place",
      "Direction": "WB",
      "Date": "2019-11-10",
      "flow": 0.08729216152019002,
      "Latitude": "40.7101857",
      "Longitude": "-74.0076638"
    },
    {
      "SegmentID": "176284",
      "RoadwayName": "Grand Concourse",
      "From": "Concourse Line",
      "To": "Concourse Line",
      "Direction": "NB",
      "Date": "2019-11-10",
      "flow": 0.09204275534441805,
      "Latitude": "40.8510934",
      "Longitude": "-73.9046308"
    },
    {
      "SegmentID": "176284",
      "RoadwayName": "Grand Concourse",
      "From": "Concourse Line",
      "To": "Concourse Line",
      "Direction": "SB",
      "Date": "2019-11-10",
      "flow": 0.07600950118764846,
      "Latitude": "40.8510934",
      "Longitude": "-73.9046308"
    },
    {
      "SegmentID": "148196",
      "RoadwayName": "Grand Concourse",
      "From": "East 187 Street",
      "To": "Connector",
      "Direction": "SB",
      "Date": "2019-11-10",
      "flow": 0.05819477434679335,
      "Latitude": "40.8510934",
      "Longitude": "-73.9046308"
    },
    {
      "SegmentID": "148195",
      "RoadwayName": "Grand Concourse",
      "From": "East 187 Street",
      "To": "Connector",
      "Direction": "NB",
      "Date": "2019-11-10",
      "flow": 0.06769596199524941,
      "Latitude": "40.8510934",
      "Longitude": "-73.9046308"
    },
    {
      "SegmentID": "9008598",
      "RoadwayName": "Harrod Avenue",
      "From": "Dead End",
      "To": "Dead End",
      "Direction": "NB",
      "Date": "2019-11-10",
      "flow": 0.01840855106888361,
      "Latitude": "40.8401745",
      "Longitude": "-73.82344175"
    },
    {
      "SegmentID": "9008598",
      "RoadwayName": "Harrod Avenue",
      "From": "Dead End",
      "To": "Dead End",
      "Direction": "SB",
      "Date": "2019-11-10",
      "flow": 0.01840855106888361,
      "Latitude": "40.8401745",
      "Longitude": "-73.82344175"
    },
    {
      "SegmentID": "9009984",
      "RoadwayName": "Jerome Avenue",
      "From": "East 213 Street",
      "To": "Jerome Avenue Line",
      "Direction": "NB",
      "Date": "2019-11-10",
      "flow": 0.043942992874109264,
      "Latitude": "40.8665331",
      "Longitude": "-73.8981713"
    },
    {
      "SegmentID": "9009984",
      "RoadwayName": "Jerome Avenue",
      "From": "East 213 Street",
      "To": "Jerome Avenue Line",
      "Direction": "SB",
      "Date": "2019-11-10",
      "flow": 0.043942992874109264,
      "Latitude": "40.8665331",
      "Longitude": "-73.8981713"
    },
    {
      "SegmentID": "77328",
      "RoadwayName": "Longwood Avenue",
      "From": "Prospect Avenue",
      "To": "Hewitt Place",
      "Direction": "EB",
      "Date": "2019-11-10",
      "flow": 0.026128266033254157,
      "Latitude": "40.665414",
      "Longitude": "-73.992872"
    },
    {
      "SegmentID": "77328",
      "RoadwayName": "Longwood Avenue",
      "From": "Prospect Avenue",
      "To": "Hewitt Place",
      "Direction": "WB",
      "Date": "2019-11-10",
      "flow": 0.03147268408551069,
      "Latitude": "40.665414",
      "Longitude": "-73.992872"
    },
    {
      "SegmentID": "141740",
      "RoadwayName": "Mosholu Parkway",
      "From": "Dead End",
      "To": "Major Deegan Expwy Et 12 Nb",
      "Direction": "SB",
      "Date": "2019-11-10",
      "flow": 0.052256532066508314,
      "Latitude": "40.8792799",
      "Longitude": "-73.8852693"
    },
    {
      "SegmentID": "176737",
      "RoadwayName": "Mosholu Parkway",
      "From": "Dead End",
      "To": "Dead End",
      "Direction": "NB",
      "Date": "2019-11-10",
      "flow": 0.06353919239904988,
      "Latitude": "40.8792799",
      "Longitude": "-73.8852693"
    },
    {
      "SegmentID": "89614",
      "RoadwayName": "Nereid Avenue",
      "From": "Hill Avenue",
      "To": "Monticello Avenue",
      "Direction": "EB",
      "Date": "2019-11-10",
      "flow": 0.0166270783847981,
      "Latitude": "40.8935705",
      "Longitude": "-73.84011"
    },
    {
      "SegmentID": "89614",
      "RoadwayName": "Nereid Avenue",
      "From": "Hill Avenue",
      "To": "Monticello Avenue",
      "Direction": "WB",
      "Date": "2019-11-10",
      "flow": 0.015439429928741092,
      "Latitude": "40.8935705",
      "Longitude": "-73.84011"
    },
    {
      "SegmentID": "9008830",
      "RoadwayName": "Pelham Parkway",
      "From": "Dead End",
      "To": "Dead End",
      "Direction": "EB",
      "Date": "2019-11-10",
      "flow": 0.1187648456057007,
      "Latitude": "40.857229",
      "Longitude": "-73.8676281"
    },
    {
      "SegmentID": "9008826",
      "RoadwayName": "Pelham Parkway",
      "From": "Dead End",
      "To": "Dead End",
      "Direction": "WB",
      "Date": "2019-11-10",
      "flow": 0.07957244655581948,
      "Latitude": "40.857229",
      "Longitude": "-73.8676281"
    },
    {
      "SegmentID": "9003698",
      "RoadwayName": "Pelham Parkway North",
      "From": "Dead End",
      "To": "Dead End",
      "Direction": "WB",
      "Date": "2019-11-10",
      "flow": 0.00831353919239905,
      "Latitude": "40.8401745",
      "Longitude": "-73.82344175"
    },
    {
      "SegmentID": "87638",
      "RoadwayName": "Pelham Parkway South",
      "From": "Wallace Avenue",
      "To": "Barnes Avenue",
      "Direction": "EB",
      "Date": "2019-11-10",
      "flow": 0.0855106888361045,
      "Latitude": "40.8563458",
      "Longitude": "-73.8385504"
    },
    {
      "SegmentID": "194263",
      "RoadwayName": "Pelham Parkway",
      "From": "Boston Road",
      "To": "White Plains Road",
      "Direction": "EB",
      "Date": "2019-11-10",
      "flow": 0.15676959619952494,
      "Latitude": "40.857229",
      "Longitude": "-73.8676281"
    },
    {
      "SegmentID": "193983",
      "RoadwayName": "Pelham Parkway",
      "From": "Boston Road",
      "To": "White Plains Road",
      "Direction": "WB",
      "Date": "2019-11-10",
      "flow": 0.10985748218527316,
      "Latitude": "40.857229",
      "Longitude": "-73.8676281"
    },
    {
      "SegmentID": "178366",
      "RoadwayName": "Pelham Parkway North",
      "From": "Dead End",
      "To": "White Plains Road",
      "Direction": "WB",
      "Date": "2019-11-10",
      "flow": 0,
      "Latitude": "40.8401745",
      "Longitude": "-73.82344175"
    },
    {
      "SegmentID": "194327",
      "RoadwayName": "Pelham Parkway South",
      "From": "Bolton Street",
      "To": "White Plains Road",
      "Direction": "EB",
      "Date": "2019-11-10",
      "flow": 0.07957244655581948,
      "Latitude": "40.8563458",
      "Longitude": "-73.8385504"
    },
    {
      "SegmentID": "93887",
      "RoadwayName": "Pennyfield Avenue",
      "From": "Mullen Place",
      "To": "Harding Avenue",
      "Direction": "NB",
      "Date": "2019-11-10",
      "flow": 0.017814726840855107,
      "Latitude": "43.1560584",
      "Longitude": "-77.6332169"
    },
    {
      "SegmentID": "93887",
      "RoadwayName": "Pennyfield Avenue",
      "From": "Mullen Place",
      "To": "Harding Avenue",
      "Direction": "SB",
      "Date": "2019-11-10",
      "flow": 0.016033254156769598,
      "Latitude": "43.1560584",
      "Longitude": "-77.6332169"
    },
    {
      "SegmentID": "89600",
      "RoadwayName": "Pitman Avenue",
      "From": "Wilder Avenue",
      "To": "Murdock Avenue",
      "Direction": "EB",
      "Date": "2019-11-10",
      "flow": 0.02315914489311164,
      "Latitude": "40.89581",
      "Longitude": "-73.8428862"
    },
    {
      "SegmentID": "89600",
      "RoadwayName": "Pitman Avenue",
      "From": "Wilder Avenue",
      "To": "Murdock Avenue",
      "Direction": "WB",
      "Date": "2019-11-10",
      "flow": 0.023752969121140142,
      "Latitude": "40.89581",
      "Longitude": "-73.8428862"
    },
    {
      "SegmentID": "179513",
      "RoadwayName": "Randall Avenue",
      "From": "Dead End",
      "To": "Cross Bronx Expressway",
      "Direction": "NB",
      "Date": "2019-11-10",
      "flow": 0.15914489311163896,
      "Latitude": "40.8401745",
      "Longitude": "-73.82344175"
    },
    {
      "SegmentID": "179513",
      "RoadwayName": "Randall Avenue",
      "From": "Dead End",
      "To": "Cross Bronx Expressway",
      "Direction": "SB",
      "Date": "2019-11-10",
      "flow": 0.24049881235154394,
      "Latitude": "40.8401745",
      "Longitude": "-73.82344175"
    },
    {
      "SegmentID": "109429",
      "RoadwayName": "Roosevelt Avenue",
      "From": "57 Street",
      "To": "58 Street",
      "Direction": "EB",
      "Date": "2019-11-10",
      "flow": 0.14786223277909738,
      "Latitude": "40.7582939",
      "Longitude": "-73.8342154"
    },
    {
      "SegmentID": "109429",
      "RoadwayName": "Roosevelt Avenue",
      "From": "57 Street",
      "To": "58 Street",
      "Direction": "WB",
      "Date": "2019-11-10",
      "flow": 0.12232779097387174,
      "Latitude": "40.7582939",
      "Longitude": "-73.8342154"
    },
    {
      "SegmentID": "146666",
      "RoadwayName": "Southern Boulevard",
      "From": "Dead End",
      "To": "East Fordham Road",
      "Direction": "NB",
      "Date": "2019-11-10",
      "flow": 0.04809976247030879,
      "Latitude": "40.8101526",
      "Longitude": "-73.9070982"
    },
    {
      "SegmentID": "154724",
      "RoadwayName": "Southern Boulevard",
      "From": "East Fordham Road",
      "To": "Dead End",
      "Direction": "SB",
      "Date": "2019-11-10",
      "flow": 0.08432304038004751,
      "Latitude": "40.8101526",
      "Longitude": "-73.9070982"
    },
    {
      "SegmentID": "9001821",
      "RoadwayName": "St Anns Avenue",
      "From": "Dead End",
      "To": "East 156 Street",
      "Direction": "NB",
      "Date": "2019-11-10",
      "flow": 0.03503562945368171,
      "Latitude": "40.59127905",
      "Longitude": "-74.09666133"
    },
    {
      "SegmentID": "9001821",
      "RoadwayName": "St Anns Avenue",
      "From": "Dead End",
      "To": "East 156 Street",
      "Direction": "SB",
      "Date": "2019-11-10",
      "flow": 0.020783847980997625,
      "Latitude": "40.59127905",
      "Longitude": "-74.09666133"
    },
    {
      "SegmentID": "178549",
      "RoadwayName": "Stillwell Avenue",
      "From": "Rhinelander Avenue",
      "To": "Pelham Parkway South",
      "Direction": "NB",
      "Date": "2019-11-10",
      "flow": 0.014251781472684086,
      "Latitude": "40.5870044",
      "Longitude": "-73.983419"
    },
    {
      "SegmentID": "178549",
      "RoadwayName": "Stillwell Avenue",
      "From": "Rhinelander Avenue",
      "To": "Pelham Parkway South",
      "Direction": "SB",
      "Date": "2019-11-10",
      "flow": 0.007719714964370546,
      "Latitude": "40.5870044",
      "Longitude": "-73.983419"
    },
    {
      "SegmentID": "43033",
      "RoadwayName": "THROOP AVENUE",
      "From": "Jefferson Avenue",
      "To": "Hancock Street",
      "Direction": "NB",
      "Date": "2019-11-10",
      "flow": 0.06353919239904988,
      "Latitude": "40.8722356",
      "Longitude": "-73.8507951"
    },
    {
      "SegmentID": "36705",
      "RoadwayName": "VERNON BOULEVARD",
      "From": "46th Road",
      "To": "47th Avenue",
      "Direction": "SB",
      "Date": "2019-11-10",
      "flow": 0.03859857482185273,
      "Latitude": "40.7527826",
      "Longitude": "-73.7909966"
    },
    {
      "SegmentID": "113476",
      "RoadwayName": "Webster Avenue",
      "From": "Clay Avenue",
      "To": "East Mt Eden Avenue",
      "Direction": "NB",
      "Date": "2019-11-10",
      "flow": 0.1342042755344418,
      "Latitude": "40.8301832",
      "Longitude": "-73.9108058"
    },
    {
      "SegmentID": "113476",
      "RoadwayName": "Webster Avenue",
      "From": "Clay Avenue",
      "To": "East Mt Eden Avenue",
      "Direction": "SB",
      "Date": "2019-11-10",
      "flow": 0.15380047505938244,
      "Latitude": "40.8301832",
      "Longitude": "-73.9108058"
    },
    {
      "SegmentID": "176295",
      "RoadwayName": "Webster Avenue",
      "From": "East 189 Street",
      "To": "East Fordham Road",
      "Direction": "NB",
      "Date": "2019-11-10",
      "flow": 0.15498812351543942,
      "Latitude": "40.8301832",
      "Longitude": "-73.9108058"
    },
    {
      "SegmentID": "176295",
      "RoadwayName": "Webster Avenue",
      "From": "East 189 Street",
      "To": "East Fordham Road",
      "Direction": "SB",
      "Date": "2019-11-10",
      "flow": 0.11045130641330166,
      "Latitude": "40.8301832",
      "Longitude": "-73.9108058"
    },
    {
      "SegmentID": "107183",
      "RoadwayName": "Mosholu Parkway",
      "From": "Grand Concourse",
      "To": "Bike Path",
      "Direction": "NB",
      "Date": "2019-11-10",
      "flow": 0.05344418052256532,
      "Latitude": "40.8792799",
      "Longitude": "-73.8852693"
    },
    {
      "SegmentID": "107183",
      "RoadwayName": "Mosholu Parkway",
      "From": "Grand Concourse",
      "To": "Bike Path",
      "Direction": "SB",
      "Date": "2019-11-10",
      "flow": 0.07541567695961995,
      "Latitude": "40.8792799",
      "Longitude": "-73.8852693"
    },
    {
      "SegmentID": "89398",
      "RoadwayName": "White Plains Road",
      "From": "St Ouen Street",
      "To": "Penfield Street",
      "Direction": "NB",
      "Date": "2019-11-10",
      "flow": 0.07482185273159145,
      "Latitude": "40.8573681",
      "Longitude": "-73.8676146"
    },
    {
      "SegmentID": "89398",
      "RoadwayName": "White Plains Road",
      "From": "St Ouen Street",
      "To": "Penfield Street",
      "Direction": "SB",
      "Date": "2019-11-10",
      "flow": 0.06828978622327792,
      "Latitude": "40.8573681",
      "Longitude": "-73.8676146"
    }
  ],
  "3:00-4:00AM": [
    {
      "SegmentID": "155864",
      "RoadwayName": "11TH STREET",
      "From": "47th Avenue",
      "To": "47th Road",
      "Direction": "NB",
      "Date": "2019-11-10",
      "flow": 0.040446304044630406,
      "Latitude": "40.7505577",
      "Longitude": "-73.7917086"
    },
    {
      "SegmentID": "156973",
      "RoadwayName": "11TH STREET",
      "From": "47th Avenue",
      "To": "47th Road",
      "Direction": "SB",
      "Date": "2019-11-10",
      "flow": 0.09135285913528592,
      "Latitude": "40.7505577",
      "Longitude": "-73.7917086"
    },
    {
      "SegmentID": "152665",
      "RoadwayName": "ATLANTIC AVENUE",
      "From": "Classon Avenue",
      "To": "Franklin Avenue Shuttle Line",
      "Direction": "WB",
      "Date": "2019-11-10",
      "flow": 0.21687587168758718,
      "Latitude": "40.688873",
      "Longitude": "-73.96007"
    },
    {
      "SegmentID": "108866",
      "RoadwayName": "Bainbridge Avenue",
      "From": "East 213 Street",
      "To": "Jerome Avenue",
      "Direction": "NB",
      "Date": "2019-11-10",
      "flow": 0.007670850767085077,
      "Latitude": "40.8665331",
      "Longitude": "-73.8981713"
    },
    {
      "SegmentID": "108866",
      "RoadwayName": "Bainbrige Avenue",
      "From": "East 213 Street",
      "To": "Jerome Avenue",
      "Direction": "SB",
      "Date": "2019-11-10",
      "flow": 0.019525801952580194,
      "Latitude": "40.8665331",
      "Longitude": "-73.8981713"
    },
    {
      "SegmentID": "88826",
      "RoadwayName": "Baychester Avenue",
      "From": "Tilotson Avenue",
      "To": "Dyre Avenue Line",
      "Direction": "NB",
      "Date": "2019-11-10",
      "flow": 0.10111576011157601,
      "Latitude": "40.8699949",
      "Longitude": "-73.8458916"
    },
    {
      "SegmentID": "88826",
      "RoadwayName": "Baychester Avenue",
      "From": "Tilotson Avenue",
      "To": "Dyre Avenue Line",
      "Direction": "SB",
      "Date": "2019-11-10",
      "flow": 0.06903765690376569,
      "Latitude": "40.8699949",
      "Longitude": "-73.8458916"
    },
    {
      "SegmentID": "88298",
      "RoadwayName": "Boston Road",
      "From": "Fish Avenue",
      "To": "Seymour Avenue",
      "Direction": "EB",
      "Date": "2019-11-10",
      "flow": 0.05230125523012552,
      "Latitude": "40.8673321",
      "Longitude": "-73.8600312"
    },
    {
      "SegmentID": "88298",
      "RoadwayName": "Boston Road",
      "From": "Fish Avenue",
      "To": "Seymour Avenue",
      "Direction": "WB",
      "Date": "2019-11-10",
      "flow": 0.06485355648535565,
      "Latitude": "40.8673321",
      "Longitude": "-73.8600312"
    },
    {
      "SegmentID": "146329",
      "RoadwayName": "Boston Road",
      "From": "Connector",
      "To": "Connector",
      "Direction": "WB",
      "Date": "2019-11-10",
      "flow": 0.03417015341701534,
      "Latitude": "40.8673321",
      "Longitude": "-73.8600312"
    },
    {
      "SegmentID": "146328",
      "RoadwayName": "Boston Road",
      "From": "Connector",
      "To": "Connector",
      "Direction": "EB",
      "Date": "2019-11-10",
      "flow": 0.041143654114365415,
      "Latitude": "40.8673321",
      "Longitude": "-73.8600312"
    },
    {
      "SegmentID": "81165",
      "RoadwayName": "Broadway",
      "From": "West 259 Street",
      "To": "West 260 Street",
      "Direction": "NB",
      "Date": "2019-11-10",
      "flow": 0.10460251046025104,
      "Latitude": "40.8028269",
      "Longitude": "-73.9675054"
    },
    {
      "SegmentID": "81165",
      "RoadwayName": "Broadway",
      "From": "West 259 Street",
      "To": "West 260 Street",
      "Direction": "SB",
      "Date": "2019-11-10",
      "flow": 0.0697350069735007,
      "Latitude": "40.8028269",
      "Longitude": "-73.9675054"
    },
    {
      "SegmentID": "134084",
      "RoadwayName": "Broadway",
      "From": "Dead End",
      "To": "Dead End",
      "Direction": "SB",
      "Date": "2019-11-10",
      "flow": 0.05509065550906555,
      "Latitude": "40.8028269",
      "Longitude": "-73.9675054"
    },
    {
      "SegmentID": "134083",
      "RoadwayName": "Broadway",
      "From": "Van Cortlandt Park South",
      "To": "Dead End",
      "Direction": "NB",
      "Date": "2019-11-10",
      "flow": 0.059274755927475595,
      "Latitude": "40.8028269",
      "Longitude": "-73.9675054"
    },
    {
      "SegmentID": "255657",
      "RoadwayName": "Broadway",
      "From": "Broadway/ 7 Avenue Line",
      "To": "Broadway/ 7 Avenue Line",
      "Direction": "SB",
      "Date": "2019-11-10",
      "flow": 0.01603905160390516,
      "Latitude": "40.8028269",
      "Longitude": "-73.9675054"
    },
    {
      "SegmentID": "88880",
      "RoadwayName": "Bronx Boulevard",
      "From": "Bronx River Greenway",
      "To": "Dead End",
      "Direction": "NB",
      "Date": "2019-11-10",
      "flow": 0.042538354253835425,
      "Latitude": "40.8870077",
      "Longitude": "-73.8653065"
    },
    {
      "SegmentID": "87447",
      "RoadwayName": "Bronx Park East",
      "From": "Maran Place",
      "To": "Lydig Avenue",
      "Direction": "NB",
      "Date": "2019-11-10",
      "flow": 0.07740585774058577,
      "Latitude": "40.8489744",
      "Longitude": "-73.8683841"
    },
    {
      "SegmentID": "87447",
      "RoadwayName": "Bronx Park East",
      "From": "Maran Place",
      "To": "Lydig Avenue",
      "Direction": "SB",
      "Date": "2019-11-10",
      "flow": 0.13249651324965134,
      "Latitude": "40.8489744",
      "Longitude": "-73.8683841"
    },
    {
      "SegmentID": "29843",
      "RoadwayName": "BROOKLYN AVENUE",
      "From": "St Johns Place",
      "To": "Lincoln Place",
      "Direction": "SB",
      "Date": "2019-11-10",
      "flow": 0.09274755927475593,
      "Latitude": "40.6313796",
      "Longitude": "-73.9416905"
    },
    {
      "SegmentID": "9003959",
      "RoadwayName": "Burke Avenue",
      "From": "Yates Avenue",
      "To": "Dead End",
      "Direction": "EB",
      "Date": "2019-11-10",
      "flow": 0.017433751743375175,
      "Latitude": "40.8714348",
      "Longitude": "-73.8671748"
    },
    {
      "SegmentID": "9003959",
      "RoadwayName": "Burke Avenue",
      "From": "Yates Avenue",
      "To": "Dead End",
      "Direction": "WB",
      "Date": "2019-11-10",
      "flow": 0.01882845188284519,
      "Latitude": "40.8714348",
      "Longitude": "-73.8671748"
    },
    {
      "SegmentID": "9002975",
      "RoadwayName": "Calhoun Avenue",
      "From": "Dead End",
      "To": "Dead End",
      "Direction": "NB",
      "Date": "2019-11-10",
      "flow": 0.002789400278940028,
      "Latitude": "40.8401745",
      "Longitude": "-73.82344175"
    },
    {
      "SegmentID": "9002975",
      "RoadwayName": "Calhoun Avenue",
      "From": "Dead End",
      "To": "Dead End",
      "Direction": "SB",
      "Date": "2019-11-10",
      "flow": 0.008368200836820083,
      "Latitude": "40.8401745",
      "Longitude": "-73.82344175"
    },
    {
      "SegmentID": "95712",
      "RoadwayName": "Conner Street",
      "From": "Hollers Avenue",
      "To": "Boston Road",
      "Direction": "NB",
      "Date": "2019-11-10",
      "flow": 0.08437935843793584,
      "Latitude": "40.8887386",
      "Longitude": "-73.8168994"
    },
    {
      "SegmentID": "95712",
      "RoadwayName": "Conner Street",
      "From": "Hollers Avenue",
      "To": "Boston Road",
      "Direction": "SB",
      "Date": "2019-11-10",
      "flow": 0.05509065550906555,
      "Latitude": "40.8887386",
      "Longitude": "-73.8168994"
    },
    {
      "SegmentID": "188574",
      "RoadwayName": "East 133 Street",
      "From": "Bruckner Boulevard",
      "To": "Bruckner Boulevard",
      "Direction": "EB",
      "Date": "2019-11-10",
      "flow": 0.08368200836820083,
      "Latitude": "40.8301747",
      "Longitude": "-73.8375135"
    },
    {
      "SegmentID": "174149",
      "RoadwayName": "East 161 Street",
      "From": "Connector",
      "To": "Dead end",
      "Direction": "EB",
      "Date": "2019-11-10",
      "flow": 0.07252440725244072,
      "Latitude": "40.7516976",
      "Longitude": "-73.9997739"
    },
    {
      "SegmentID": "174149",
      "RoadwayName": "East 161 Street",
      "From": "Connector",
      "To": "Dead end",
      "Direction": "WB",
      "Date": "2019-11-10",
      "flow": 0.09414225941422594,
      "Latitude": "40.7516976",
      "Longitude": "-73.9997739"
    },
    {
      "SegmentID": "147472",
      "RoadwayName": "East 161 Street",
      "From": "Grand Concourse",
      "To": "Dead End",
      "Direction": "WB",
      "Date": "2019-11-10",
      "flow": 0.045327754532775454,
      "Latitude": "40.8510934",
      "Longitude": "-73.9046308"
    },
    {
      "SegmentID": "147471",
      "RoadwayName": "East 161 Street",
      "From": "Grand Concourse",
      "To": "Dead End",
      "Direction": "EB",
      "Date": "2019-11-10",
      "flow": 0.06624825662482567,
      "Latitude": "40.8510934",
      "Longitude": "-73.9046308"
    },
    {
      "SegmentID": "77424",
      "RoadwayName": "East 163 Street",
      "From": "Rogers Place",
      "To": "Intervale Avenue",
      "Direction": "EB",
      "Date": "2019-11-10",
      "flow": 0.07322175732217573,
      "Latitude": "40.8237575",
      "Longitude": "-73.8976172"
    },
    {
      "SegmentID": "77424",
      "RoadwayName": "East 163 Street",
      "From": "Rogers Place",
      "To": "Intervale Avenue",
      "Direction": "WB",
      "Date": "2019-11-10",
      "flow": 0.06624825662482567,
      "Latitude": "40.8237575",
      "Longitude": "-73.8976172"
    },
    {
      "SegmentID": "174289",
      "RoadwayName": "East 167 Street",
      "From": "Dead End",
      "To": "Dead End",
      "Direction": "EB",
      "Date": "2019-11-10",
      "flow": 0.042538354253835425,
      "Latitude": "40.8401745",
      "Longitude": "-73.82344175"
    },
    {
      "SegmentID": "174289",
      "RoadwayName": "East 167 Street",
      "From": "Dead End",
      "To": "Dead End",
      "Direction": "WB",
      "Date": "2019-11-10",
      "flow": 0.044630404463040445,
      "Latitude": "40.8401745",
      "Longitude": "-73.82344175"
    },
    {
      "SegmentID": "116598",
      "RoadwayName": "East 222 Street",
      "From": "Wickham Avenue",
      "To": "Bruner Avenue",
      "Direction": "EB",
      "Date": "2019-11-10",
      "flow": 0.05090655509065551,
      "Latitude": "40.8607479",
      "Longitude": "-73.8352367"
    },
    {
      "SegmentID": "116598",
      "RoadwayName": "East 222 Street",
      "From": "Wickham Avenue",
      "To": "Bruner Avenue",
      "Direction": "WB",
      "Date": "2019-11-10",
      "flow": 0.0397489539748954,
      "Latitude": "40.8607479",
      "Longitude": "-73.8352367"
    },
    {
      "SegmentID": "89274",
      "RoadwayName": "East 241 Street",
      "From": "Bronx Boulevard",
      "To": "Carpenter Avenue",
      "Direction": "EB",
      "Date": "2019-11-10",
      "flow": 0.03347280334728033,
      "Latitude": "40.8870077",
      "Longitude": "-73.8653065"
    },
    {
      "SegmentID": "89274",
      "RoadwayName": "East 241 Street",
      "From": "Bronx Boulevard",
      "To": "Carpenter Avenue",
      "Direction": "WB",
      "Date": "2019-11-10",
      "flow": 0.08228730822873083,
      "Latitude": "40.8870077",
      "Longitude": "-73.8653065"
    },
    {
      "SegmentID": "116587",
      "RoadwayName": "East Gun Hill Road",
      "From": "Givan Avenue",
      "To": "Pearsall Avenue",
      "Direction": "EB",
      "Date": "2019-11-10",
      "flow": 0.03277545327754533,
      "Latitude": "40.8640107",
      "Longitude": "-73.8339775"
    },
    {
      "SegmentID": "116587",
      "RoadwayName": "East Gun Hill Road",
      "From": "Givan Avenue",
      "To": "Pearsall Avenue",
      "Direction": "WB",
      "Date": "2019-11-10",
      "flow": 0.0502092050209205,
      "Latitude": "40.8640107",
      "Longitude": "-73.8339775"
    },
    {
      "SegmentID": "178395",
      "RoadwayName": "East Gun Hill Road",
      "From": "Bronx River Parkway",
      "To": "Dead End",
      "Direction": "EB",
      "Date": "2019-11-10",
      "flow": 0.1401673640167364,
      "Latitude": "40.8640107",
      "Longitude": "-73.8339775"
    },
    {
      "SegmentID": "178395",
      "RoadwayName": "East Gun Hill Road",
      "From": "Bronx River Parkway",
      "To": "Dead End",
      "Direction": "WB",
      "Date": "2019-11-10",
      "flow": 0.25592747559274753,
      "Latitude": "40.8640107",
      "Longitude": "-73.8339775"
    },
    {
      "SegmentID": "78404",
      "RoadwayName": "East Tremont Avenue",
      "From": "Anthony Avenue",
      "To": "Dead end",
      "Direction": "EB",
      "Date": "2019-11-10",
      "flow": 0.08786610878661087,
      "Latitude": "40.8418573",
      "Longitude": "-73.8583296"
    },
    {
      "SegmentID": "78404",
      "RoadwayName": "East Tremont Avenue",
      "From": "Anthony Avenue",
      "To": "Dead End",
      "Direction": "WB",
      "Date": "2019-11-10",
      "flow": 0.1401673640167364,
      "Latitude": "40.8418573",
      "Longitude": "-73.8583296"
    },
    {
      "SegmentID": "93653",
      "RoadwayName": "East Tremont Avenue",
      "From": "Harding Avenue",
      "To": "Silver Beach Place",
      "Direction": "NB",
      "Date": "2019-11-10",
      "flow": 0.0020920502092050207,
      "Latitude": "40.8418573",
      "Longitude": "-73.8583296"
    },
    {
      "SegmentID": "93653",
      "RoadwayName": "East Tremont Avenue",
      "From": "Harding Avenue",
      "To": "Silver Beach Place",
      "Direction": "SB",
      "Date": "2019-11-10",
      "flow": 0.0020920502092050207,
      "Latitude": "40.8418573",
      "Longitude": "-73.8583296"
    },
    {
      "SegmentID": "251949",
      "RoadwayName": "Exterior Street",
      "From": "Dead End",
      "To": "Dead End",
      "Direction": "NB",
      "Date": "2019-11-10",
      "flow": 1,
      "Latitude": "40.8401745",
      "Longitude": "-73.82344175"
    },
    {
      "SegmentID": "251949",
      "RoadwayName": "Exterior Street",
      "From": "Dead End",
      "To": "Dead End",
      "Direction": "SB",
      "Date": "2019-11-10",
      "flow": 0.6603905160390516,
      "Latitude": "40.8401745",
      "Longitude": "-73.82344175"
    },
    {
      "SegmentID": "150536",
      "RoadwayName": "Francis Lewis Boulevard",
      "From": "Dead End",
      "To": "200 Street",
      "Direction": "WB",
      "Date": "2019-11-10",
      "flow": 0.009762900976290097,
      "Latitude": "40.7135593",
      "Longitude": "-73.753829"
    },
    {
      "SegmentID": "29565",
      "RoadwayName": "FRANKLIN AVENUE",
      "From": "Hancock Street",
      "To": "Fulton Street",
      "Direction": "SB",
      "Date": "2019-11-10",
      "flow": 0.10669456066945607,
      "Latitude": "40.6706813",
      "Longitude": "-73.9579734"
    },
    {
      "SegmentID": "29461",
      "RoadwayName": "Fulton Street",
      "From": "Classon Avenue",
      "To": "Claver Place",
      "Direction": "EB",
      "Date": "2019-11-10",
      "flow": 0.1304044630404463,
      "Latitude": "40.7101857",
      "Longitude": "-74.0076638"
    },
    {
      "SegmentID": "29461",
      "RoadwayName": "FULTON STREET",
      "From": "Classon Avenue",
      "To": "Claver Place",
      "Direction": "WB",
      "Date": "2019-11-10",
      "flow": 0.06485355648535565,
      "Latitude": "40.7101857",
      "Longitude": "-74.0076638"
    },
    {
      "SegmentID": "176284",
      "RoadwayName": "Grand Concourse",
      "From": "Concourse Line",
      "To": "Concourse Line",
      "Direction": "NB",
      "Date": "2019-11-10",
      "flow": 0.07182705718270571,
      "Latitude": "40.8510934",
      "Longitude": "-73.9046308"
    },
    {
      "SegmentID": "176284",
      "RoadwayName": "Grand Concourse",
      "From": "Concourse Line",
      "To": "Concourse Line",
      "Direction": "SB",
      "Date": "2019-11-10",
      "flow": 0.07391910739191074,
      "Latitude": "40.8510934",
      "Longitude": "-73.9046308"
    },
    {
      "SegmentID": "148196",
      "RoadwayName": "Grand Concourse",
      "From": "East 187 Street",
      "To": "Connector",
      "Direction": "SB",
      "Date": "2019-11-10",
      "flow": 0.0397489539748954,
      "Latitude": "40.8510934",
      "Longitude": "-73.9046308"
    },
    {
      "SegmentID": "148195",
      "RoadwayName": "Grand Concourse",
      "From": "East 187 Street",
      "To": "Connector",
      "Direction": "NB",
      "Date": "2019-11-10",
      "flow": 0.07531380753138076,
      "Latitude": "40.8510934",
      "Longitude": "-73.9046308"
    },
    {
      "SegmentID": "9008598",
      "RoadwayName": "Harrod Avenue",
      "From": "Dead End",
      "To": "Dead End",
      "Direction": "NB",
      "Date": "2019-11-10",
      "flow": 0.012552301255230125,
      "Latitude": "40.8401745",
      "Longitude": "-73.82344175"
    },
    {
      "SegmentID": "9008598",
      "RoadwayName": "Harrod Avenue",
      "From": "Dead End",
      "To": "Dead End",
      "Direction": "SB",
      "Date": "2019-11-10",
      "flow": 0.011854951185495118,
      "Latitude": "40.8401745",
      "Longitude": "-73.82344175"
    },
    {
      "SegmentID": "9009984",
      "RoadwayName": "Jerome Avenue",
      "From": "East 213 Street",
      "To": "Jerome Avenue Line",
      "Direction": "NB",
      "Date": "2019-11-10",
      "flow": 0.040446304044630406,
      "Latitude": "40.8665331",
      "Longitude": "-73.8981713"
    },
    {
      "SegmentID": "9009984",
      "RoadwayName": "Jerome Avenue",
      "From": "East 213 Street",
      "To": "Jerome Avenue Line",
      "Direction": "SB",
      "Date": "2019-11-10",
      "flow": 0.043235704323570434,
      "Latitude": "40.8665331",
      "Longitude": "-73.8981713"
    },
    {
      "SegmentID": "77328",
      "RoadwayName": "Longwood Avenue",
      "From": "Prospect Avenue",
      "To": "Hewitt Place",
      "Direction": "EB",
      "Date": "2019-11-10",
      "flow": 0.026499302649930265,
      "Latitude": "40.665414",
      "Longitude": "-73.992872"
    },
    {
      "SegmentID": "77328",
      "RoadwayName": "Longwood Avenue",
      "From": "Prospect Avenue",
      "To": "Hewitt Place",
      "Direction": "WB",
      "Date": "2019-11-10",
      "flow": 0.02580195258019526,
      "Latitude": "40.665414",
      "Longitude": "-73.992872"
    },
    {
      "SegmentID": "141740",
      "RoadwayName": "Mosholu Parkway",
      "From": "Dead End",
      "To": "Major Deegan Expwy Et 12 Nb",
      "Direction": "SB",
      "Date": "2019-11-10",
      "flow": 0.0599721059972106,
      "Latitude": "40.8792799",
      "Longitude": "-73.8852693"
    },
    {
      "SegmentID": "176737",
      "RoadwayName": "Mosholu Parkway",
      "From": "Dead End",
      "To": "Dead End",
      "Direction": "NB",
      "Date": "2019-11-10",
      "flow": 0.06206415620641562,
      "Latitude": "40.8792799",
      "Longitude": "-73.8852693"
    },
    {
      "SegmentID": "89614",
      "RoadwayName": "Nereid Avenue",
      "From": "Hill Avenue",
      "To": "Monticello Avenue",
      "Direction": "EB",
      "Date": "2019-11-10",
      "flow": 0.015341701534170154,
      "Latitude": "40.8935705",
      "Longitude": "-73.84011"
    },
    {
      "SegmentID": "89614",
      "RoadwayName": "Nereid Avenue",
      "From": "Hill Avenue",
      "To": "Monticello Avenue",
      "Direction": "WB",
      "Date": "2019-11-10",
      "flow": 0.011854951185495118,
      "Latitude": "40.8935705",
      "Longitude": "-73.84011"
    },
    {
      "SegmentID": "9008830",
      "RoadwayName": "Pelham Parkway",
      "From": "Dead End",
      "To": "Dead End",
      "Direction": "EB",
      "Date": "2019-11-10",
      "flow": 0.11506276150627615,
      "Latitude": "40.857229",
      "Longitude": "-73.8676281"
    },
    {
      "SegmentID": "9008826",
      "RoadwayName": "Pelham Parkway",
      "From": "Dead End",
      "To": "Dead End",
      "Direction": "WB",
      "Date": "2019-11-10",
      "flow": 0.0801952580195258,
      "Latitude": "40.857229",
      "Longitude": "-73.8676281"
    },
    {
      "SegmentID": "9003698",
      "RoadwayName": "Pelham Parkway North",
      "From": "Dead End",
      "To": "Dead End",
      "Direction": "WB",
      "Date": "2019-11-10",
      "flow": 0.00697350069735007,
      "Latitude": "40.8401745",
      "Longitude": "-73.82344175"
    },
    {
      "SegmentID": "87638",
      "RoadwayName": "Pelham Parkway South",
      "From": "Wallace Avenue",
      "To": "Barnes Avenue",
      "Direction": "EB",
      "Date": "2019-11-10",
      "flow": 0.0599721059972106,
      "Latitude": "40.8563458",
      "Longitude": "-73.8385504"
    },
    {
      "SegmentID": "194263",
      "RoadwayName": "Pelham Parkway",
      "From": "Boston Road",
      "To": "White Plains Road",
      "Direction": "EB",
      "Date": "2019-11-10",
      "flow": 0.14225941422594143,
      "Latitude": "40.857229",
      "Longitude": "-73.8676281"
    },
    {
      "SegmentID": "193983",
      "RoadwayName": "Pelham Parkway",
      "From": "Boston Road",
      "To": "White Plains Road",
      "Direction": "WB",
      "Date": "2019-11-10",
      "flow": 0.11506276150627615,
      "Latitude": "40.857229",
      "Longitude": "-73.8676281"
    },
    {
      "SegmentID": "178366",
      "RoadwayName": "Pelham Parkway North",
      "From": "Dead End",
      "To": "White Plains Road",
      "Direction": "WB",
      "Date": "2019-11-10",
      "flow": 0,
      "Latitude": "40.8401745",
      "Longitude": "-73.82344175"
    },
    {
      "SegmentID": "194327",
      "RoadwayName": "Pelham Parkway South",
      "From": "Bolton Street",
      "To": "White Plains Road",
      "Direction": "EB",
      "Date": "2019-11-10",
      "flow": 0.06415620641562064,
      "Latitude": "40.8563458",
      "Longitude": "-73.8385504"
    },
    {
      "SegmentID": "93887",
      "RoadwayName": "Pennyfield Avenue",
      "From": "Mullen Place",
      "To": "Harding Avenue",
      "Direction": "NB",
      "Date": "2019-11-10",
      "flow": 0.01882845188284519,
      "Latitude": "43.1560584",
      "Longitude": "-77.6332169"
    },
    {
      "SegmentID": "93887",
      "RoadwayName": "Pennyfield Avenue",
      "From": "Mullen Place",
      "To": "Harding Avenue",
      "Direction": "SB",
      "Date": "2019-11-10",
      "flow": 0.021617852161785217,
      "Latitude": "43.1560584",
      "Longitude": "-77.6332169"
    },
    {
      "SegmentID": "89600",
      "RoadwayName": "Pitman Avenue",
      "From": "Wilder Avenue",
      "To": "Murdock Avenue",
      "Direction": "EB",
      "Date": "2019-11-10",
      "flow": 0.02789400278940028,
      "Latitude": "40.89581",
      "Longitude": "-73.8428862"
    },
    {
      "SegmentID": "89600",
      "RoadwayName": "Pitman Avenue",
      "From": "Wilder Avenue",
      "To": "Murdock Avenue",
      "Direction": "WB",
      "Date": "2019-11-10",
      "flow": 0.024407252440725245,
      "Latitude": "40.89581",
      "Longitude": "-73.8428862"
    },
    {
      "SegmentID": "179513",
      "RoadwayName": "Randall Avenue",
      "From": "Dead End",
      "To": "Cross Bronx Expressway",
      "Direction": "NB",
      "Date": "2019-11-10",
      "flow": 0.14086471408647142,
      "Latitude": "40.8401745",
      "Longitude": "-73.82344175"
    },
    {
      "SegmentID": "179513",
      "RoadwayName": "Randall Avenue",
      "From": "Dead End",
      "To": "Cross Bronx Expressway",
      "Direction": "SB",
      "Date": "2019-11-10",
      "flow": 0.200836820083682,
      "Latitude": "40.8401745",
      "Longitude": "-73.82344175"
    },
    {
      "SegmentID": "109429",
      "RoadwayName": "Roosevelt Avenue",
      "From": "57 Street",
      "To": "58 Street",
      "Direction": "EB",
      "Date": "2019-11-10",
      "flow": 0.13807531380753138,
      "Latitude": "40.7582939",
      "Longitude": "-73.8342154"
    },
    {
      "SegmentID": "109429",
      "RoadwayName": "Roosevelt Avenue",
      "From": "57 Street",
      "To": "58 Street",
      "Direction": "WB",
      "Date": "2019-11-10",
      "flow": 0.12273361227336123,
      "Latitude": "40.7582939",
      "Longitude": "-73.8342154"
    },
    {
      "SegmentID": "146666",
      "RoadwayName": "Southern Boulevard",
      "From": "Dead End",
      "To": "East Fordham Road",
      "Direction": "NB",
      "Date": "2019-11-10",
      "flow": 0.0502092050209205,
      "Latitude": "40.8101526",
      "Longitude": "-73.9070982"
    },
    {
      "SegmentID": "154724",
      "RoadwayName": "Southern Boulevard",
      "From": "East Fordham Road",
      "To": "Dead End",
      "Direction": "SB",
      "Date": "2019-11-10",
      "flow": 0.06694560669456066,
      "Latitude": "40.8101526",
      "Longitude": "-73.9070982"
    },
    {
      "SegmentID": "9001821",
      "RoadwayName": "St Anns Avenue",
      "From": "Dead End",
      "To": "East 156 Street",
      "Direction": "NB",
      "Date": "2019-11-10",
      "flow": 0.03207810320781032,
      "Latitude": "40.59127905",
      "Longitude": "-74.09666133"
    },
    {
      "SegmentID": "9001821",
      "RoadwayName": "St Anns Avenue",
      "From": "Dead End",
      "To": "East 156 Street",
      "Direction": "SB",
      "Date": "2019-11-10",
      "flow": 0.022315202231520222,
      "Latitude": "40.59127905",
      "Longitude": "-74.09666133"
    },
    {
      "SegmentID": "178549",
      "RoadwayName": "Stillwell Avenue",
      "From": "Rhinelander Avenue",
      "To": "Pelham Parkway South",
      "Direction": "NB",
      "Date": "2019-11-10",
      "flow": 0.010460251046025104,
      "Latitude": "40.5870044",
      "Longitude": "-73.983419"
    },
    {
      "SegmentID": "178549",
      "RoadwayName": "Stillwell Avenue",
      "From": "Rhinelander Avenue",
      "To": "Pelham Parkway South",
      "Direction": "SB",
      "Date": "2019-11-10",
      "flow": 0.0020920502092050207,
      "Latitude": "40.5870044",
      "Longitude": "-73.983419"
    },
    {
      "SegmentID": "43033",
      "RoadwayName": "THROOP AVENUE",
      "From": "Jefferson Avenue",
      "To": "Hancock Street",
      "Direction": "NB",
      "Date": "2019-11-10",
      "flow": 0.05439330543933055,
      "Latitude": "40.8722356",
      "Longitude": "-73.8507951"
    },
    {
      "SegmentID": "36705",
      "RoadwayName": "VERNON BOULEVARD",
      "From": "46th Road",
      "To": "47th Avenue",
      "Direction": "SB",
      "Date": "2019-11-10",
      "flow": 0.030683403068340307,
      "Latitude": "40.7527826",
      "Longitude": "-73.7909966"
    },
    {
      "SegmentID": "113476",
      "RoadwayName": "Webster Avenue",
      "From": "Clay Avenue",
      "To": "East Mt Eden Avenue",
      "Direction": "NB",
      "Date": "2019-11-10",
      "flow": 0.1401673640167364,
      "Latitude": "40.8301832",
      "Longitude": "-73.9108058"
    },
    {
      "SegmentID": "113476",
      "RoadwayName": "Webster Avenue",
      "From": "Clay Avenue",
      "To": "East Mt Eden Avenue",
      "Direction": "SB",
      "Date": "2019-11-10",
      "flow": 0.16317991631799164,
      "Latitude": "40.8301832",
      "Longitude": "-73.9108058"
    },
    {
      "SegmentID": "176295",
      "RoadwayName": "Webster Avenue",
      "From": "East 189 Street",
      "To": "East Fordham Road",
      "Direction": "NB",
      "Date": "2019-11-10",
      "flow": 0.14295676429567644,
      "Latitude": "40.8301832",
      "Longitude": "-73.9108058"
    },
    {
      "SegmentID": "176295",
      "RoadwayName": "Webster Avenue",
      "From": "East 189 Street",
      "To": "East Fordham Road",
      "Direction": "SB",
      "Date": "2019-11-10",
      "flow": 0.09274755927475593,
      "Latitude": "40.8301832",
      "Longitude": "-73.9108058"
    },
    {
      "SegmentID": "107183",
      "RoadwayName": "Mosholu Parkway",
      "From": "Grand Concourse",
      "To": "Bike Path",
      "Direction": "NB",
      "Date": "2019-11-10",
      "flow": 0.042538354253835425,
      "Latitude": "40.8792799",
      "Longitude": "-73.8852693"
    },
    {
      "SegmentID": "107183",
      "RoadwayName": "Mosholu Parkway",
      "From": "Grand Concourse",
      "To": "Bike Path",
      "Direction": "SB",
      "Date": "2019-11-10",
      "flow": 0.05299860529986053,
      "Latitude": "40.8792799",
      "Longitude": "-73.8852693"
    },
    {
      "SegmentID": "89398",
      "RoadwayName": "White Plains Road",
      "From": "St Ouen Street",
      "To": "Penfield Street",
      "Direction": "NB",
      "Date": "2019-11-10",
      "flow": 0.060669456066945605,
      "Latitude": "40.8573681",
      "Longitude": "-73.8676146"
    },
    {
      "SegmentID": "89398",
      "RoadwayName": "White Plains Road",
      "From": "St Ouen Street",
      "To": "Penfield Street",
      "Direction": "SB",
      "Date": "2019-11-10",
      "flow": 0.08228730822873083,
      "Latitude": "40.8573681",
      "Longitude": "-73.8676146"
    }
  ],
  "4:00-5:00AM": [
    {
      "SegmentID": "155864",
      "RoadwayName": "11TH STREET",
      "From": "47th Avenue",
      "To": "47th Road",
      "Direction": "NB",
      "Date": "2019-11-10",
      "flow": 0.04551920341394026,
      "Latitude": "40.7505577",
      "Longitude": "-73.7917086"
    },
    {
      "SegmentID": "156973",
      "RoadwayName": "11TH STREET",
      "From": "47th Avenue",
      "To": "47th Road",
      "Direction": "SB",
      "Date": "2019-11-10",
      "flow": 0.07396870554765292,
      "Latitude": "40.7505577",
      "Longitude": "-73.7917086"
    },
    {
      "SegmentID": "152665",
      "RoadwayName": "ATLANTIC AVENUE",
      "From": "Classon Avenue",
      "To": "Franklin Avenue Shuttle Line",
      "Direction": "WB",
      "Date": "2019-11-10",
      "flow": 0.17425320056899005,
      "Latitude": "40.688873",
      "Longitude": "-73.96007"
    },
    {
      "SegmentID": "108866",
      "RoadwayName": "Bainbridge Avenue",
      "From": "East 213 Street",
      "To": "Jerome Avenue",
      "Direction": "NB",
      "Date": "2019-11-10",
      "flow": 0.0021337126600284497,
      "Latitude": "40.8665331",
      "Longitude": "-73.8981713"
    },
    {
      "SegmentID": "108866",
      "RoadwayName": "Bainbrige Avenue",
      "From": "East 213 Street",
      "To": "Jerome Avenue",
      "Direction": "SB",
      "Date": "2019-11-10",
      "flow": 0.013513513513513514,
      "Latitude": "40.8665331",
      "Longitude": "-73.8981713"
    },
    {
      "SegmentID": "88826",
      "RoadwayName": "Baychester Avenue",
      "From": "Tilotson Avenue",
      "To": "Dyre Avenue Line",
      "Direction": "NB",
      "Date": "2019-11-10",
      "flow": 0.08036984352773827,
      "Latitude": "40.8699949",
      "Longitude": "-73.8458916"
    },
    {
      "SegmentID": "88826",
      "RoadwayName": "Baychester Avenue",
      "From": "Tilotson Avenue",
      "To": "Dyre Avenue Line",
      "Direction": "SB",
      "Date": "2019-11-10",
      "flow": 0.08179231863442389,
      "Latitude": "40.8699949",
      "Longitude": "-73.8458916"
    },
    {
      "SegmentID": "88298",
      "RoadwayName": "Boston Road",
      "From": "Fish Avenue",
      "To": "Seymour Avenue",
      "Direction": "EB",
      "Date": "2019-11-10",
      "flow": 0.06116642958748222,
      "Latitude": "40.8673321",
      "Longitude": "-73.8600312"
    },
    {
      "SegmentID": "88298",
      "RoadwayName": "Boston Road",
      "From": "Fish Avenue",
      "To": "Seymour Avenue",
      "Direction": "WB",
      "Date": "2019-11-10",
      "flow": 0.08179231863442389,
      "Latitude": "40.8673321",
      "Longitude": "-73.8600312"
    },
    {
      "SegmentID": "146329",
      "RoadwayName": "Boston Road",
      "From": "Connector",
      "To": "Connector",
      "Direction": "WB",
      "Date": "2019-11-10",
      "flow": 0.024893314366998577,
      "Latitude": "40.8673321",
      "Longitude": "-73.8600312"
    },
    {
      "SegmentID": "146328",
      "RoadwayName": "Boston Road",
      "From": "Connector",
      "To": "Connector",
      "Direction": "EB",
      "Date": "2019-11-10",
      "flow": 0.04623044096728307,
      "Latitude": "40.8673321",
      "Longitude": "-73.8600312"
    },
    {
      "SegmentID": "81165",
      "RoadwayName": "Broadway",
      "From": "West 259 Street",
      "To": "West 260 Street",
      "Direction": "NB",
      "Date": "2019-11-10",
      "flow": 0.08819345661450925,
      "Latitude": "40.8028269",
      "Longitude": "-73.9675054"
    },
    {
      "SegmentID": "81165",
      "RoadwayName": "Broadway",
      "From": "West 259 Street",
      "To": "West 260 Street",
      "Direction": "SB",
      "Date": "2019-11-10",
      "flow": 0.09815078236130868,
      "Latitude": "40.8028269",
      "Longitude": "-73.9675054"
    },
    {
      "SegmentID": "134084",
      "RoadwayName": "Broadway",
      "From": "Dead End",
      "To": "Dead End",
      "Direction": "SB",
      "Date": "2019-11-10",
      "flow": 0.049786628733997154,
      "Latitude": "40.8028269",
      "Longitude": "-73.9675054"
    },
    {
      "SegmentID": "134083",
      "RoadwayName": "Broadway",
      "From": "Van Cortlandt Park South",
      "To": "Dead End",
      "Direction": "NB",
      "Date": "2019-11-10",
      "flow": 0.0561877667140825,
      "Latitude": "40.8028269",
      "Longitude": "-73.9675054"
    },
    {
      "SegmentID": "255657",
      "RoadwayName": "Broadway",
      "From": "Broadway/ 7 Avenue Line",
      "To": "Broadway/ 7 Avenue Line",
      "Direction": "SB",
      "Date": "2019-11-10",
      "flow": 0.01849217638691323,
      "Latitude": "40.8028269",
      "Longitude": "-73.9675054"
    },
    {
      "SegmentID": "88880",
      "RoadwayName": "Bronx Boulevard",
      "From": "Bronx River Greenway",
      "To": "Dead End",
      "Direction": "NB",
      "Date": "2019-11-10",
      "flow": 0.041963015647226175,
      "Latitude": "40.8870077",
      "Longitude": "-73.8653065"
    },
    {
      "SegmentID": "87447",
      "RoadwayName": "Bronx Park East",
      "From": "Maran Place",
      "To": "Lydig Avenue",
      "Direction": "NB",
      "Date": "2019-11-10",
      "flow": 0.06614509246088193,
      "Latitude": "40.8489744",
      "Longitude": "-73.8683841"
    },
    {
      "SegmentID": "87447",
      "RoadwayName": "Bronx Park East",
      "From": "Maran Place",
      "To": "Lydig Avenue",
      "Direction": "SB",
      "Date": "2019-11-10",
      "flow": 0.1337126600284495,
      "Latitude": "40.8489744",
      "Longitude": "-73.8683841"
    },
    {
      "SegmentID": "29843",
      "RoadwayName": "BROOKLYN AVENUE",
      "From": "St Johns Place",
      "To": "Lincoln Place",
      "Direction": "SB",
      "Date": "2019-11-10",
      "flow": 0.06685633001422475,
      "Latitude": "40.6313796",
      "Longitude": "-73.9416905"
    },
    {
      "SegmentID": "9003959",
      "RoadwayName": "Burke Avenue",
      "From": "Yates Avenue",
      "To": "Dead End",
      "Direction": "EB",
      "Date": "2019-11-10",
      "flow": 0.01849217638691323,
      "Latitude": "40.8714348",
      "Longitude": "-73.8671748"
    },
    {
      "SegmentID": "9003959",
      "RoadwayName": "Burke Avenue",
      "From": "Yates Avenue",
      "To": "Dead End",
      "Direction": "WB",
      "Date": "2019-11-10",
      "flow": 0.017069701280227598,
      "Latitude": "40.8714348",
      "Longitude": "-73.8671748"
    },
    {
      "SegmentID": "9002975",
      "RoadwayName": "Calhoun Avenue",
      "From": "Dead End",
      "To": "Dead End",
      "Direction": "NB",
      "Date": "2019-11-10",
      "flow": 0.001422475106685633,
      "Latitude": "40.8401745",
      "Longitude": "-73.82344175"
    },
    {
      "SegmentID": "9002975",
      "RoadwayName": "Calhoun Avenue",
      "From": "Dead End",
      "To": "Dead End",
      "Direction": "SB",
      "Date": "2019-11-10",
      "flow": 0.00995732574679943,
      "Latitude": "40.8401745",
      "Longitude": "-73.82344175"
    },
    {
      "SegmentID": "95712",
      "RoadwayName": "Conner Street",
      "From": "Hollers Avenue",
      "To": "Boston Road",
      "Direction": "NB",
      "Date": "2019-11-10",
      "flow": 0.10810810810810811,
      "Latitude": "40.8887386",
      "Longitude": "-73.8168994"
    },
    {
      "SegmentID": "95712",
      "RoadwayName": "Conner Street",
      "From": "Hollers Avenue",
      "To": "Boston Road",
      "Direction": "SB",
      "Date": "2019-11-10",
      "flow": 0.0689900426742532,
      "Latitude": "40.8887386",
      "Longitude": "-73.8168994"
    },
    {
      "SegmentID": "188574",
      "RoadwayName": "East 133 Street",
      "From": "Bruckner Boulevard",
      "To": "Bruckner Boulevard",
      "Direction": "EB",
      "Date": "2019-11-10",
      "flow": 0.06827880512091039,
      "Latitude": "40.8301747",
      "Longitude": "-73.8375135"
    },
    {
      "SegmentID": "174149",
      "RoadwayName": "East 161 Street",
      "From": "Connector",
      "To": "Dead end",
      "Direction": "EB",
      "Date": "2019-11-10",
      "flow": 0.04267425320056899,
      "Latitude": "40.7516976",
      "Longitude": "-73.9997739"
    },
    {
      "SegmentID": "174149",
      "RoadwayName": "East 161 Street",
      "From": "Connector",
      "To": "Dead end",
      "Direction": "WB",
      "Date": "2019-11-10",
      "flow": 0.09174964438122332,
      "Latitude": "40.7516976",
      "Longitude": "-73.9997739"
    },
    {
      "SegmentID": "147472",
      "RoadwayName": "East 161 Street",
      "From": "Grand Concourse",
      "To": "Dead End",
      "Direction": "WB",
      "Date": "2019-11-10",
      "flow": 0.05903271692745377,
      "Latitude": "40.8510934",
      "Longitude": "-73.9046308"
    },
    {
      "SegmentID": "147471",
      "RoadwayName": "East 161 Street",
      "From": "Grand Concourse",
      "To": "Dead End",
      "Direction": "EB",
      "Date": "2019-11-10",
      "flow": 0.06258890469416785,
      "Latitude": "40.8510934",
      "Longitude": "-73.9046308"
    },
    {
      "SegmentID": "77424",
      "RoadwayName": "East 163 Street",
      "From": "Rogers Place",
      "To": "Intervale Avenue",
      "Direction": "EB",
      "Date": "2019-11-10",
      "flow": 0.060455192034139404,
      "Latitude": "40.8237575",
      "Longitude": "-73.8976172"
    },
    {
      "SegmentID": "77424",
      "RoadwayName": "East 163 Street",
      "From": "Rogers Place",
      "To": "Intervale Avenue",
      "Direction": "WB",
      "Date": "2019-11-10",
      "flow": 0.06543385490753911,
      "Latitude": "40.8237575",
      "Longitude": "-73.8976172"
    },
    {
      "SegmentID": "174289",
      "RoadwayName": "East 167 Street",
      "From": "Dead End",
      "To": "Dead End",
      "Direction": "EB",
      "Date": "2019-11-10",
      "flow": 0.04551920341394026,
      "Latitude": "40.8401745",
      "Longitude": "-73.82344175"
    },
    {
      "SegmentID": "174289",
      "RoadwayName": "East 167 Street",
      "From": "Dead End",
      "To": "Dead End",
      "Direction": "WB",
      "Date": "2019-11-10",
      "flow": 0.03840682788051209,
      "Latitude": "40.8401745",
      "Longitude": "-73.82344175"
    },
    {
      "SegmentID": "116598",
      "RoadwayName": "East 222 Street",
      "From": "Wickham Avenue",
      "To": "Bruner Avenue",
      "Direction": "EB",
      "Date": "2019-11-10",
      "flow": 0.04480796586059744,
      "Latitude": "40.8607479",
      "Longitude": "-73.8352367"
    },
    {
      "SegmentID": "116598",
      "RoadwayName": "East 222 Street",
      "From": "Wickham Avenue",
      "To": "Bruner Avenue",
      "Direction": "WB",
      "Date": "2019-11-10",
      "flow": 0.04551920341394026,
      "Latitude": "40.8607479",
      "Longitude": "-73.8352367"
    },
    {
      "SegmentID": "89274",
      "RoadwayName": "East 241 Street",
      "From": "Bronx Boulevard",
      "To": "Carpenter Avenue",
      "Direction": "EB",
      "Date": "2019-11-10",
      "flow": 0.017780938833570414,
      "Latitude": "40.8870077",
      "Longitude": "-73.8653065"
    },
    {
      "SegmentID": "89274",
      "RoadwayName": "East 241 Street",
      "From": "Bronx Boulevard",
      "To": "Carpenter Avenue",
      "Direction": "WB",
      "Date": "2019-11-10",
      "flow": 0.08179231863442389,
      "Latitude": "40.8870077",
      "Longitude": "-73.8653065"
    },
    {
      "SegmentID": "116587",
      "RoadwayName": "East Gun Hill Road",
      "From": "Givan Avenue",
      "To": "Pearsall Avenue",
      "Direction": "EB",
      "Date": "2019-11-10",
      "flow": 0.041251778093883355,
      "Latitude": "40.8640107",
      "Longitude": "-73.8339775"
    },
    {
      "SegmentID": "116587",
      "RoadwayName": "East Gun Hill Road",
      "From": "Givan Avenue",
      "To": "Pearsall Avenue",
      "Direction": "WB",
      "Date": "2019-11-10",
      "flow": 0.0476529160739687,
      "Latitude": "40.8640107",
      "Longitude": "-73.8339775"
    },
    {
      "SegmentID": "178395",
      "RoadwayName": "East Gun Hill Road",
      "From": "Bronx River Parkway",
      "To": "Dead End",
      "Direction": "EB",
      "Date": "2019-11-10",
      "flow": 0.14082503556187767,
      "Latitude": "40.8640107",
      "Longitude": "-73.8339775"
    },
    {
      "SegmentID": "178395",
      "RoadwayName": "East Gun Hill Road",
      "From": "Bronx River Parkway",
      "To": "Dead End",
      "Direction": "WB",
      "Date": "2019-11-10",
      "flow": 0.27382645803698435,
      "Latitude": "40.8640107",
      "Longitude": "-73.8339775"
    },