{
  "1:00-2:00AM": [
    {
      "SegmentID": "158764",
      "RoadwayName": "ADAM C POWELL BOULEVARD",
      "From": "West 122nd Street",
      "To": "West 123rd Street",
      "Direction": "NB",
      "Date": "2020-11-11",
      "flow": 0.2116564417177914,
      "Latitude": "40.8122569",
      "Longitude": "-73.9621024"
    },
    {
      "SegmentID": "159196",
      "RoadwayName": "ADAM C POWELL BOULEVARD",
      "From": "West 122nd Street",
      "To": "West 123rd Street",
      "Direction": "SB",
      "Date": "2020-11-11",
      "flow": 0.10736196319018405,
      "Latitude": "40.8122569",
      "Longitude": "-73.9621024"
    },
    {
      "SegmentID": "159048",
      "RoadwayName": "ADAM C POWELL BOULEVARD",
      "From": "West 148th Street",
      "To": "West 149th Street",
      "Direction": "SB",
      "Date": "2020-11-11",
      "flow": 0.18098159509202455,
      "Latitude": "40.8272148",
      "Longitude": "-73.9463406"
    },
    {
      "SegmentID": "133984",
      "RoadwayName": "ADAM C POWELL BOULEVARD",
      "From": "West 148th Street",
      "To": "West 149th Street",
      "Direction": "NB",
      "Date": "2020-11-11",
      "flow": 0.34662576687116564,
      "Latitude": "40.8272148",
      "Longitude": "-73.9463406"
    },
    {
      "SegmentID": "38361",
      "RoadwayName": "AMSTERDAM AVENUE",
      "From": "West 118th Street",
      "To": "West 119th Street",
      "Direction": "NB",
      "Date": "2020-11-11",
      "flow": 0.34355828220858897,
      "Latitude": "40.8076281",
      "Longitude": "-73.9589165"
    },
    {
      "SegmentID": "38361",
      "RoadwayName": "AMSTERDAM AVENUE",
      "From": "West 118th Street",
      "To": "West 119th Street",
      "Direction": "SB",
      "Date": "2020-11-11",
      "flow": 0.18404907975460122,
      "Latitude": "40.8076281",
      "Longitude": "-73.9589165"
    },
    {
      "SegmentID": "39011",
      "RoadwayName": "AMSTERDAM AVENUE",
      "From": "West 147th Street",
      "To": "West 148th Street",
      "Direction": "NB",
      "Date": "2020-11-11",
      "flow": 0.5950920245398773,
      "Latitude": "40.8282447",
      "Longitude": "-73.9507349"
    },
    {
      "SegmentID": "39011",
      "RoadwayName": "AMSTERDAM AVENUE",
      "From": "West 147th Street",
      "To": "West 148th Street",
      "Direction": "SB",
      "Date": "2020-11-11",
      "flow": 0.25153374233128833,
      "Latitude": "40.8282447",
      "Longitude": "-73.9507349"
    },
    {
      "SegmentID": "152668",
      "RoadwayName": "BROADWAY",
      "From": "West 147th Street",
      "To": "West 148th Street",
      "Direction": "SB",
      "Date": "2020-11-11",
      "flow": 0.48773006134969327,
      "Latitude": "40.8020029",
      "Longitude": "-73.9679456"
    },
    {
      "SegmentID": "158602",
      "RoadwayName": "BROADWAY",
      "From": "West 147th Street",
      "To": "West 148th Street",
      "Direction": "NB",
      "Date": "2020-11-11",
      "flow": 0.3374233128834356,
      "Latitude": "40.8020029",
      "Longitude": "-73.9679456"
    },
    {
      "SegmentID": "72608",
      "RoadwayName": "BROADWAY",
      "From": "Cumming Street",
      "To": "Dyckman Street",
      "Direction": "EB",
      "Date": "2020-11-11",
      "flow": 0.4263803680981595,
      "Latitude": "40.8020029",
      "Longitude": "-73.9679456"
    },
    {
      "SegmentID": "72608",
      "RoadwayName": "BROADWAY",
      "From": "Cumming Street",
      "To": "Dyckman Street",
      "Direction": "WB",
      "Date": "2020-11-11",
      "flow": 0.2085889570552147,
      "Latitude": "40.8020029",
      "Longitude": "-73.9679456"
    },
    {
      "SegmentID": "31783",
      "RoadwayName": "BROADWAY",
      "From": "Leonard Street",
      "To": "Worth Street",
      "Direction": "SB",
      "Date": "2020-11-11",
      "flow": 1,
      "Latitude": "40.8020029",
      "Longitude": "-73.9679456"
    },
    {
      "SegmentID": "32364",
      "RoadwayName": "BROADWAY",
      "From": "Prince Street",
      "To": "Spring Street",
      "Direction": "SB",
      "Date": "2020-11-11",
      "flow": 0.4815950920245399,
      "Latitude": "40.8020029",
      "Longitude": "-73.9679456"
    },
    {
      "SegmentID": "162555",
      "RoadwayName": "CHERRY STREET",
      "From": "Market Street",
      "To": "Catherine Street",
      "Direction": "WB",
      "Date": "2020-11-11",
      "flow": 0.009202453987730062,
      "Latitude": "40.7123927",
      "Longitude": "-73.9781019"
    },
    {
      "SegmentID": "72596",
      "RoadwayName": "DYCKMAN STREET",
      "From": "Sherman Avenue",
      "To": "Vermilyea Avenue",
      "Direction": "NB",
      "Date": "2020-11-11",
      "flow": 0.2852760736196319,
      "Latitude": "40.8652769",
      "Longitude": "-73.9277986"
    },
    {
      "SegmentID": "72596",
      "RoadwayName": "DYCKMAN STREET",
      "From": "Sherman Avenue",
      "To": "Vermilyea Avenue",
      "Direction": "SB",
      "Date": "2020-11-11",
      "flow": 0.26380368098159507,
      "Latitude": "40.8652769",
      "Longitude": "-73.9277986"
    },
    {
      "SegmentID": "32651",
      "RoadwayName": "FORSYTH STREET",
      "From": "Grand Street",
      "To": "Broome Street",
      "Direction": "NB",
      "Date": "2020-11-11",
      "flow": 0.03067484662576687,
      "Latitude": "40.7132751",
      "Longitude": "-73.9776678"
    },
    {
      "SegmentID": "38619",
      "RoadwayName": "FREDERICK DOUGLASS BOULEVARD",
      "From": "West 123rd Street",
      "To": "West 124th Street",
      "Direction": "NB",
      "Date": "2020-11-11",
      "flow": 0.22699386503067484,
      "Latitude": "40.8112717",
      "Longitude": "-73.957805"
    },
    {
      "SegmentID": "38619",
      "RoadwayName": "FREDERICK DOUGLASS BOULEVARD",
      "From": "West 123rd Street",
      "To": "West 124th Street",
      "Direction": "SB",
      "Date": "2020-11-11",
      "flow": 0.17177914110429449,
      "Latitude": "40.8112717",
      "Longitude": "-73.957805"
    },
    {
      "SegmentID": "69154",
      "RoadwayName": "FREDERICK DOUGLASS BOULEVARD",
      "From": "West 147th Street",
      "To": "West 148th Street",
      "Direction": "NB",
      "Date": "2020-11-11",
      "flow": 0.294478527607362,
      "Latitude": "40.8282447",
      "Longitude": "-73.9507349"
    },
    {
      "SegmentID": "69154",
      "RoadwayName": "FREDERICK DOUGLASS BOULEVARD",
      "From": "West 147th Street",
      "To": "West 148th Street",
      "Direction": "SB",
      "Date": "2020-11-11",
      "flow": 0.29754601226993865,
      "Latitude": "40.8282447",
      "Longitude": "-73.9507349"
    },
    {
      "SegmentID": "31914",
      "RoadwayName": "HUDSON STREET",
      "From": "Charlton Street",
      "To": "King Street",
      "Direction": "NB",
      "Date": "2020-11-11",
      "flow": 0.19631901840490798,
      "Latitude": "40.726941",
      "Longitude": "-74.003278"
    },
    {
      "SegmentID": "110941",
      "RoadwayName": "LAFAYETTE STREET",
      "From": "Cleveland Place",
      "To": "Prince Street",
      "Direction": "NB",
      "Date": "2020-11-11",
      "flow": 0.2361963190184049,
      "Latitude": "40.7267105",
      "Longitude": "-73.9940763"
    },
    {
      "SegmentID": "38489",
      "RoadwayName": "MANHATTAN AVENUE",
      "From": "West 119th Street",
      "To": "West 120th Street",
      "Direction": "NB",
      "Date": "2020-11-11",
      "flow": 0.03067484662576687,
      "Latitude": "40.7214035",
      "Longitude": "-73.9490041"
    },
    {
      "SegmentID": "38489",
      "RoadwayName": "MANHATTAN AVENUE",
      "From": "West 119th Street",
      "To": "West 120 Street",
      "Direction": "SB",
      "Date": "2020-11-11",
      "flow": 0.05828220858895705,
      "Latitude": "40.7214035",
      "Longitude": "-73.9490041"
    },
    {
      "SegmentID": "38369",
      "RoadwayName": "MORNINGSIDE DRIVE",
      "From": "West 120th Street",
      "To": "West 121 Street",
      "Direction": "NB",
      "Date": "2020-11-11",
      "flow": 0.006134969325153374,
      "Latitude": "40.8113373",
      "Longitude": "-73.9639549"
    },
    {
      "SegmentID": "38369",
      "RoadwayName": "MORNINGSIDE DRIVE",
      "From": "West 120th Street",
      "To": "West 121st Street",
      "Direction": "SB",
      "Date": "2020-11-11",
      "flow": 0,
      "Latitude": "40.8113373",
      "Longitude": "-73.9639549"
    },
    {
      "SegmentID": "38839",
      "RoadwayName": "MT MORRIS PARK WEST",
      "From": "West 122nd Street",
      "To": "West 123 Street",
      "Direction": "SB",
      "Date": "2020-11-11",
      "flow": 0.0950920245398773,
      "Latitude": "40.8122569",
      "Longitude": "-73.9621024"
    },
    {
      "SegmentID": "164341",
      "RoadwayName": "NORFOLK STREET",
      "From": "Delancey Street",
      "To": "Rivington Street",
      "Direction": "NB",
      "Date": "2020-11-11",
      "flow": 0.015337423312883436,
      "Latitude": "40.5784139",
      "Longitude": "-73.9388723"
    },
    {
      "SegmentID": "9000265",
      "RoadwayName": "PITT STREET",
      "From": "Stanton Street",
      "To": "Rivington Street",
      "Direction": "NB",
      "Date": "2020-11-11",
      "flow": 0.09815950920245399,
      "Latitude": "40.7215865",
      "Longitude": "-73.9889254"
    },
    {
      "SegmentID": "38613",
      "RoadwayName": "ST NICHOLAS AVENUE",
      "From": "West 122nd Street",
      "To": "West 123rd Street",
      "Direction": "NB",
      "Date": "2020-11-11",
      "flow": 0.08588957055214724,
      "Latitude": "40.8241432",
      "Longitude": "-73.9446885"
    },
    {
      "SegmentID": "38613",
      "RoadwayName": "ST NICHOLAS AVENUE",
      "From": "West 122nd Street",
      "To": "West 123rd Street",
      "Direction": "SB",
      "Date": "2020-11-11",
      "flow": 0.03374233128834356,
      "Latitude": "40.8241432",
      "Longitude": "-73.9446885"
    },
    {
      "SegmentID": "70947",
      "RoadwayName": "WADSWORTH AVENUE",
      "From": "West 175th Street",
      "To": "West 176th Street",
      "Direction": "NB",
      "Date": "2020-11-11",
      "flow": 0.0705521472392638,
      "Latitude": "40.8479967",
      "Longitude": "-73.9146016"
    },
    {
      "SegmentID": "70947",
      "RoadwayName": "WADSWORTH AVENUE",
      "From": "West 175th Street",
      "To": "West 176th Street",
      "Direction": "SB",
      "Date": "2020-11-11",
      "flow": 0.027607361963190184,
      "Latitude": "40.8479967",
      "Longitude": "-73.9146016"
    },
    {
      "SegmentID": "32072",
      "RoadwayName": "WALKER STREET",
      "From": "Cortlandt Alley",
      "To": "Lafayette Street",
      "Direction": "EB",
      "Date": "2020-11-11",
      "flow": 0.03987730061349693,
      "Latitude": "40.6310789",
      "Longitude": "-74.1465042"
    },
    {
      "SegmentID": "38636",
      "RoadwayName": "WEST 125th STREET",
      "From": "Frederick Douglass Boulevard",
      "To": "St. Nicholas Avenue",
      "Direction": "EB",
      "Date": "2020-11-11",
      "flow": 0.3619631901840491,
      "Latitude": "40.8075177",
      "Longitude": "-73.9531044"
    },
    {
      "SegmentID": "38636",
      "RoadwayName": "WEST 125th STREET",
      "From": "Frederick Douglass Boulevard",
      "To": "St. Nicholas Avenue",
      "Direction": "WB",
      "Date": "2020-11-11",
      "flow": 0.2822085889570552,
      "Latitude": "40.8075177",
      "Longitude": "-73.9531044"
    },
    {
      "SegmentID": "38868",
      "RoadwayName": "WEST 135th STREET",
      "From": "Frederick Douglass Boulevard",
      "To": "Edgecombe Avenue",
      "Direction": "EB",
      "Date": "2020-11-11",
      "flow": 0.024539877300613498,
      "Latitude": "40.8075177",
      "Longitude": "-73.9531044"
    },
    {
      "SegmentID": "38868",
      "RoadwayName": "WEST 135 STREET",
      "From": "Frederick Douglass Boulevard",
      "To": "Edgecombe Avenue",
      "Direction": "WB",
      "Date": "2020-11-11",
      "flow": 0.08895705521472393,
      "Latitude": "40.8075177",
      "Longitude": "-73.9531044"
    },
    {
      "SegmentID": "106931",
      "RoadwayName": "WEST 155th STREET",
      "From": "Edgecombe Avenue",
      "To": "St. Nocholas Avenue",
      "Direction": "EB",
      "Date": "2020-11-11",
      "flow": 0.44785276073619634,
      "Latitude": "40.8302773",
      "Longitude": "-73.9402064"
    },
    {
      "SegmentID": "106931",
      "RoadwayName": "WEST 155th STREET",
      "From": "Edgecombe Avenue",
      "To": "St. Nocholas Avenue",
      "Direction": "WB",
      "Date": "2020-11-11",
      "flow": 0.5122699386503068,
      "Latitude": "40.8302773",
      "Longitude": "-73.9402064"
    },
    {
      "SegmentID": "70896",
      "RoadwayName": "WEST 167th STREET",
      "From": "Audubon Avenue",
      "To": "St. Nicholas Avenue",
      "Direction": "WB",
      "Date": "2020-11-11",
      "flow": 0.04294478527607362,
      "Latitude": "40.8473391",
      "Longitude": "-73.9333597"
    }
  ],
  "2:00-3:00AM": [
    {
      "SegmentID": "158764",
      "RoadwayName": "ADAM C POWELL BOULEVARD",
      "From": "West 122nd Street",
      "To": "West 123rd Street",
      "Direction": "NB",
      "Date": "2020-11-11",
      "flow": 0.34951456310679613,
      "Latitude": "40.8122569",
      "Longitude": "-73.9621024"
    },
    {
      "SegmentID": "159196",
      "RoadwayName": "ADAM C POWELL BOULEVARD",
      "From": "West 122nd Street",
      "To": "West 123rd Street",
      "Direction": "SB",
      "Date": "2020-11-11",
      "flow": 0.2524271844660194,
      "Latitude": "40.8122569",
      "Longitude": "-73.9621024"
    },
    {
      "SegmentID": "159048",
      "RoadwayName": "ADAM C POWELL BOULEVARD",
      "From": "West 148th Street",
      "To": "West 149th Street",
      "Direction": "SB",
      "Date": "2020-11-11",
      "flow": 0.2961165048543689,
      "Latitude": "40.8272148",
      "Longitude": "-73.9463406"
    },
    {
      "SegmentID": "133984",
      "RoadwayName": "ADAM C POWELL BOULEVARD",
      "From": "West 148th Street",
      "To": "West 149th Street",
      "Direction": "NB",
      "Date": "2020-11-11",
      "flow": 0.39805825242718446,
      "Latitude": "40.8272148",
      "Longitude": "-73.9463406"
    },
    {
      "SegmentID": "38361",
      "RoadwayName": "AMSTERDAM AVENUE",
      "From": "West 118th Street",
      "To": "West 119th Street",
      "Direction": "NB",
      "Date": "2020-11-11",
      "flow": 0.4563106796116505,
      "Latitude": "40.8076281",
      "Longitude": "-73.9589165"
    },
    {
      "SegmentID": "38361",
      "RoadwayName": "AMSTERDAM AVENUE",
      "From": "West 118th Street",
      "To": "West 119th Street",
      "Direction": "SB",
      "Date": "2020-11-11",
      "flow": 0.1407766990291262,
      "Latitude": "40.8076281",
      "Longitude": "-73.9589165"
    },
    {
      "SegmentID": "39011",
      "RoadwayName": "AMSTERDAM AVENUE",
      "From": "West 147th Street",
      "To": "West 148th Street",
      "Direction": "NB",
      "Date": "2020-11-11",
      "flow": 0.5145631067961165,
      "Latitude": "40.8282447",
      "Longitude": "-73.9507349"
    },
    {
      "SegmentID": "39011",
      "RoadwayName": "AMSTERDAM AVENUE",
      "From": "West 147th Street",
      "To": "West 148th Street",
      "Direction": "SB",
      "Date": "2020-11-11",
      "flow": 0.3106796116504854,
      "Latitude": "40.8282447",
      "Longitude": "-73.9507349"
    },
    {
      "SegmentID": "152668",
      "RoadwayName": "BROADWAY",
      "From": "West 147th Street",
      "To": "West 148th Street",
      "Direction": "SB",
      "Date": "2020-11-11",
      "flow": 0.3932038834951456,
      "Latitude": "40.8020029",
      "Longitude": "-73.9679456"
    },
    {
      "SegmentID": "158602",
      "RoadwayName": "BROADWAY",
      "From": "West 147th Street",
      "To": "West 148th Street",
      "Direction": "NB",
      "Date": "2020-11-11",
      "flow": 0.3640776699029126,
      "Latitude": "40.8020029",
      "Longitude": "-73.9679456"
    },
    {
      "SegmentID": "72608",
      "RoadwayName": "BROADWAY",
      "From": "Cumming Street",
      "To": "Dyckman Street",
      "Direction": "EB",
      "Date": "2020-11-11",
      "flow": 0.5145631067961165,
      "Latitude": "40.8020029",
      "Longitude": "-73.9679456"
    },
    {
      "SegmentID": "72608",
      "RoadwayName": "BROADWAY",
      "From": "Cumming Street",
      "To": "Dyckman Street",
      "Direction": "WB",
      "Date": "2020-11-11",
      "flow": 0.3446601941747573,
      "Latitude": "40.8020029",
      "Longitude": "-73.9679456"
    },
    {
      "SegmentID": "31783",
      "RoadwayName": "BROADWAY",
      "From": "Leonard Street",
      "To": "Worth Street",
      "Direction": "SB",
      "Date": "2020-11-11",
      "flow": 1,
      "Latitude": "40.8020029",
      "Longitude": "-73.9679456"
    },
    {
      "SegmentID": "32364",
      "RoadwayName": "BROADWAY",
      "From": "Prince Street",
      "To": "Spring Street",
      "Direction": "SB",
      "Date": "2020-11-11",
      "flow": 0.4854368932038835,
      "Latitude": "40.8020029",
      "Longitude": "-73.9679456"
    },
    {
      "SegmentID": "162555",
      "RoadwayName": "CHERRY STREET",
      "From": "Market Street",
      "To": "Catherine Street",
      "Direction": "WB",
      "Date": "2020-11-11",
      "flow": 0,
      "Latitude": "40.7123927",
      "Longitude": "-73.9781019"
    },
    {
      "SegmentID": "72596",
      "RoadwayName": "DYCKMAN STREET",
      "From": "Sherman Avenue",
      "To": "Vermilyea Avenue",
      "Direction": "NB",
      "Date": "2020-11-11",
      "flow": 0.4223300970873786,
      "Latitude": "40.8652769",
      "Longitude": "-73.9277986"
    },
    {
      "SegmentID": "72596",
      "RoadwayName": "DYCKMAN STREET",
      "From": "Sherman Avenue",
      "To": "Vermilyea Avenue",
      "Direction": "SB",
      "Date": "2020-11-11",
      "flow": 0.2815533980582524,
      "Latitude": "40.8652769",
      "Longitude": "-73.9277986"
    },
    {
      "SegmentID": "32651",
      "RoadwayName": "FORSYTH STREET",
      "From": "Grand Street",
      "To": "Broome Street",
      "Direction": "NB",
      "Date": "2020-11-11",
      "flow": 0.1262135922330097,
      "Latitude": "40.7132751",
      "Longitude": "-73.9776678"
    },
    {
      "SegmentID": "38619",
      "RoadwayName": "FREDERICK DOUGLASS BOULEVARD",
      "From": "West 123rd Street",
      "To": "West 124th Street",
      "Direction": "NB",
      "Date": "2020-11-11",
      "flow": 0.3058252427184466,
      "Latitude": "40.8112717",
      "Longitude": "-73.957805"
    },
    {
      "SegmentID": "38619",
      "RoadwayName": "FREDERICK DOUGLASS BOULEVARD",
      "From": "West 123rd Street",
      "To": "West 124th Street",
      "Direction": "SB",
      "Date": "2020-11-11",
      "flow": 0.1941747572815534,
      "Latitude": "40.8112717",
      "Longitude": "-73.957805"
    },
    {
      "SegmentID": "69154",
      "RoadwayName": "FREDERICK DOUGLASS BOULEVARD",
      "From": "West 147th Street",
      "To": "West 148th Street",
      "Direction": "NB",
      "Date": "2020-11-11",
      "flow": 0.4029126213592233,
      "Latitude": "40.8282447",
      "Longitude": "-73.9507349"
    },
    {
      "SegmentID": "69154",
      "RoadwayName": "FREDERICK DOUGLASS BOULEVARD",
      "From": "West 147th Street",
      "To": "West 148th Street",
      "Direction": "SB",
      "Date": "2020-11-11",
      "flow": 0.41262135922330095,
      "Latitude": "40.8282447",
      "Longitude": "-73.9507349"
    },
    {
      "SegmentID": "31914",
      "RoadwayName": "HUDSON STREET",
      "From": "Charlton Street",
      "To": "King Street",
      "Direction": "NB",
      "Date": "2020-11-11",
      "flow": 0.23300970873786409,
      "Latitude": "40.726941",
      "Longitude": "-74.003278"
    },
    {
      "SegmentID": "110941",
      "RoadwayName": "LAFAYETTE STREET",
      "From": "Cleveland Place",
      "To": "Prince Street",
      "Direction": "NB",
      "Date": "2020-11-11",
      "flow": 0.4029126213592233,
      "Latitude": "40.7267105",
      "Longitude": "-73.9940763"
    },
    {
      "SegmentID": "38489",
      "RoadwayName": "MANHATTAN AVENUE",
      "From": "West 119th Street",
      "To": "West 120th Street",
      "Direction": "NB",
      "Date": "2020-11-11",
      "flow": 0.07281553398058252,
      "Latitude": "40.7214035",
      "Longitude": "-73.9490041"
    },
    {
      "SegmentID": "38489",
      "RoadwayName": "MANHATTAN AVENUE",
      "From": "West 119th Street",
      "To": "West 120 Street",
      "Direction": "SB",
      "Date": "2020-11-11",
      "flow": 0.09223300970873786,
      "Latitude": "40.7214035",
      "Longitude": "-73.9490041"
    },
    {
      "SegmentID": "38369",
      "RoadwayName": "MORNINGSIDE DRIVE",
      "From": "West 120th Street",
      "To": "West 121 Street",
      "Direction": "NB",
      "Date": "2020-11-11",
      "flow": 0,
      "Latitude": "40.8113373",
      "Longitude": "-73.9639549"
    },
    {
      "SegmentID": "38369",
      "RoadwayName": "MORNINGSIDE DRIVE",
      "From": "West 120th Street",
      "To": "West 121st Street",
      "Direction": "SB",
      "Date": "2020-11-11",
      "flow": 0.019417475728155338,
      "Latitude": "40.8113373",
      "Longitude": "-73.9639549"
    },
    {
      "SegmentID": "38839",
      "RoadwayName": "MT MORRIS PARK WEST",
      "From": "West 122nd Street",
      "To": "West 123 Street",
      "Direction": "SB",
      "Date": "2020-11-11",
      "flow": 0.1262135922330097,
      "Latitude": "40.8122569",
      "Longitude": "-73.9621024"
    },
    {
      "SegmentID": "164341",
      "RoadwayName": "NORFOLK STREET",
      "From": "Delancey Street",
      "To": "Rivington Street",
      "Direction": "NB",
      "Date": "2020-11-11",
      "flow": 0.04854368932038835,
      "Latitude": "40.5784139",
      "Longitude": "-73.9388723"
    },
    {
      "SegmentID": "9000265",
      "RoadwayName": "PITT STREET",
      "From": "Stanton Street",
      "To": "Rivington Street",
      "Direction": "NB",
      "Date": "2020-11-11",
      "flow": 0.06310679611650485,
      "Latitude": "40.7215865",
      "Longitude": "-73.9889254"
    },
    {
      "SegmentID": "38613",
      "RoadwayName": "ST NICHOLAS AVENUE",
      "From": "West 122nd Street",
      "To": "West 123rd Street",
      "Direction": "NB",
      "Date": "2020-11-11",
      "flow": 0.08737864077669903,
      "Latitude": "40.8241432",
      "Longitude": "-73.9446885"
    },
    {
      "SegmentID": "38613",
      "RoadwayName": "ST NICHOLAS AVENUE",
      "From": "West 122nd Street",
      "To": "West 123rd Street",
      "Direction": "SB",
      "Date": "2020-11-11",
      "flow": 0.08737864077669903,
      "Latitude": "40.8241432",
      "Longitude": "-73.9446885"
    },
    {
      "SegmentID": "70947",
      "RoadwayName": "WADSWORTH AVENUE",
      "From": "West 175th Street",
      "To": "West 176th Street",
      "Direction": "NB",
      "Date": "2020-11-11",
      "flow": 0.05825242718446602,
      "Latitude": "40.8479967",
      "Longitude": "-73.9146016"
    },
    {
      "SegmentID": "70947",
      "RoadwayName": "WADSWORTH AVENUE",
      "From": "West 175th Street",
      "To": "West 176th Street",
      "Direction": "SB",
      "Date": "2020-11-11",
      "flow": 0.07281553398058252,
      "Latitude": "40.8479967",
      "Longitude": "-73.9146016"
    },
    {
      "SegmentID": "32072",
      "RoadwayName": "WALKER STREET",
      "From": "Cortlandt Alley",
      "To": "Lafayette Street",
      "Direction": "EB",
      "Date": "2020-11-11",
      "flow": 0.09223300970873786,
      "Latitude": "40.6310789",
      "Longitude": "-74.1465042"
    },
    {
      "SegmentID": "38636",
      "RoadwayName": "WEST 125th STREET",
      "From": "Frederick Douglass Boulevard",
      "To": "St. Nicholas Avenue",
      "Direction": "EB",
      "Date": "2020-11-11",
      "flow": 0.48058252427184467,
      "Latitude": "40.8075177",
      "Longitude": "-73.9531044"
    },
    {
      "SegmentID": "38636",
      "RoadwayName": "WEST 125th STREET",
      "From": "Frederick Douglass Boulevard",
      "To": "St. Nicholas Avenue",
      "Direction": "WB",
      "Date": "2020-11-11",
      "flow": 0.36893203883495146,
      "Latitude": "40.8075177",
      "Longitude": "-73.9531044"
    },
    {
      "SegmentID": "38868",
      "RoadwayName": "WEST 135th STREET",
      "From": "Frederick Douglass Boulevard",
      "To": "Edgecombe Avenue",
      "Direction": "EB",
      "Date": "2020-11-11",
      "flow": 0.038834951456310676,
      "Latitude": "40.8075177",
      "Longitude": "-73.9531044"
    },
    {
      "SegmentID": "38868",
      "RoadwayName": "WEST 135 STREET",
      "From": "Frederick Douglass Boulevard",
      "To": "Edgecombe Avenue",
      "Direction": "WB",
      "Date": "2020-11-11",
      "flow": 0.09223300970873786,
      "Latitude": "40.8075177",
      "Longitude": "-73.9531044"
    },
    {
      "SegmentID": "106931",
      "RoadwayName": "WEST 155th STREET",
      "From": "Edgecombe Avenue",
      "To": "St. Nocholas Avenue",
      "Direction": "EB",
      "Date": "2020-11-11",
      "flow": 0.48058252427184467,
      "Latitude": "40.8302773",
      "Longitude": "-73.9402064"
    },
    {
      "SegmentID": "106931",
      "RoadwayName": "WEST 155th STREET",
      "From": "Edgecombe Avenue",
      "To": "St. Nocholas Avenue",
      "Direction": "WB",
      "Date": "2020-11-11",
      "flow": 0.49029126213592233,
      "Latitude": "40.8302773",
      "Longitude": "-73.9402064"
    },
    {
      "SegmentID": "70896",
      "RoadwayName": "WEST 167th STREET",
      "From": "Audubon Avenue",
      "To": "St. Nicholas Avenue",
      "Direction": "WB",
      "Date": "2020-11-11",
      "flow": 0.04854368932038835,
      "Latitude": "40.8473391",
      "Longitude": "-73.9333597"
    }
  ],
  "3:00-4:00AM": [
    {
      "SegmentID": "158764",
      "RoadwayName": "ADAM C POWELL BOULEVARD",
      "From": "West 122nd Street",
      "To": "West 123rd Street",
      "Direction": "NB",
      "Date": "2020-11-11",
      "flow": 0.2785714285714286,
      "Latitude": "40.8122569",
      "Longitude": "-73.9621024"
    },
    {
      "SegmentID": "159196",
      "RoadwayName": "ADAM C POWELL BOULEVARD",
      "From": "West 122nd Street",
      "To": "West 123rd Street",
      "Direction": "SB",
      "Date": "2020-11-11",
      "flow": 0.2785714285714286,
      "Latitude": "40.8122569",
      "Longitude": "-73.9621024"
    },
    {
      "SegmentID": "159048",
      "RoadwayName": "ADAM C POWELL BOULEVARD",
      "From": "West 148th Street",
      "To": "West 149th Street",
      "Direction": "SB",
      "Date": "2020-11-11",
      "flow": 0.34285714285714286,
      "Latitude": "40.8272148",
      "Longitude": "-73.9463406"
    },
    {
      "SegmentID": "133984",
      "RoadwayName": "ADAM C POWELL BOULEVARD",
      "From": "West 148th Street",
      "To": "West 149th Street",
      "Direction": "NB",
      "Date": "2020-11-11",
      "flow": 0.45,
      "Latitude": "40.8272148",
      "Longitude": "-73.9463406"
    },
    {
      "SegmentID": "38361",
      "RoadwayName": "AMSTERDAM AVENUE",
      "From": "West 118th Street",
      "To": "West 119th Street",
      "Direction": "NB",
      "Date": "2020-11-11",
      "flow": 0.4714285714285714,
      "Latitude": "40.8076281",
      "Longitude": "-73.9589165"
    },
    {
      "SegmentID": "38361",
      "RoadwayName": "AMSTERDAM AVENUE",
      "From": "West 118th Street",
      "To": "West 119th Street",
      "Direction": "SB",
      "Date": "2020-11-11",
      "flow": 0.17857142857142858,
      "Latitude": "40.8076281",
      "Longitude": "-73.9589165"
    },
    {
      "SegmentID": "39011",
      "RoadwayName": "AMSTERDAM AVENUE",
      "From": "West 147th Street",
      "To": "West 148th Street",
      "Direction": "NB",
      "Date": "2020-11-11",
      "flow": 0.5428571428571428,
      "Latitude": "40.8282447",
      "Longitude": "-73.9507349"
    },
    {
      "SegmentID": "39011",
      "RoadwayName": "AMSTERDAM AVENUE",
      "From": "West 147th Street",
      "To": "West 148th Street",
      "Direction": "SB",
      "Date": "2020-11-11",
      "flow": 0.37142857142857144,
      "Latitude": "40.8282447",
      "Longitude": "-73.9507349"
    },
    {
      "SegmentID": "152668",
      "RoadwayName": "BROADWAY",
      "From": "West 147th Street",
      "To": "West 148th Street",
      "Direction": "SB",
      "Date": "2020-11-11",
      "flow": 0.5785714285714286,
      "Latitude": "40.8020029",
      "Longitude": "-73.9679456"
    },
    {
      "SegmentID": "158602",
      "RoadwayName": "BROADWAY",
      "From": "West 147th Street",
      "To": "West 148th Street",
      "Direction": "NB",
      "Date": "2020-11-11",
      "flow": 0.32857142857142857,
      "Latitude": "40.8020029",
      "Longitude": "-73.9679456"
    },
    {
      "SegmentID": "72608",
      "RoadwayName": "BROADWAY",
      "From": "Cumming Street",
      "To": "Dyckman Street",
      "Direction": "EB",
      "Date": "2020-11-11",
      "flow": 0.6,
      "Latitude": "40.8020029",
      "Longitude": "-73.9679456"
    },
    {
      "SegmentID": "72608",
      "RoadwayName": "BROADWAY",
      "From": "Cumming Street",
      "To": "Dyckman Street",
      "Direction": "WB",
      "Date": "2020-11-11",
      "flow": 0.40714285714285714,
      "Latitude": "40.8020029",
      "Longitude": "-73.9679456"
    },
    {
      "SegmentID": "31783",
      "RoadwayName": "BROADWAY",
      "From": "Leonard Street",
      "To": "Worth Street",
      "Direction": "SB",
      "Date": "2020-11-11",
      "flow": 1,
      "Latitude": "40.8020029",
      "Longitude": "-73.9679456"
    },
    {
      "SegmentID": "32364",
      "RoadwayName": "BROADWAY",
      "From": "Prince Street",
      "To": "Spring Street",
      "Direction": "SB",
      "Date": "2020-11-11",
      "flow": 0.6142857142857143,
      "Latitude": "40.8020029",
      "Longitude": "-73.9679456"
    },
    {
      "SegmentID": "162555",
      "RoadwayName": "CHERRY STREET",
      "From": "Market Street",
      "To": "Catherine Street",
      "Direction": "WB",
      "Date": "2020-11-11",
      "flow": 0.03571428571428571,
      "Latitude": "40.7123927",
      "Longitude": "-73.9781019"
    },
    {
      "SegmentID": "72596",
      "RoadwayName": "DYCKMAN STREET",
      "From": "Sherman Avenue",
      "To": "Vermilyea Avenue",
      "Direction": "NB",
      "Date": "2020-11-11",
      "flow": 0.34285714285714286,
      "Latitude": "40.8652769",
      "Longitude": "-73.9277986"
    },
    {
      "SegmentID": "72596",
      "RoadwayName": "DYCKMAN STREET",
      "From": "Sherman Avenue",
      "To": "Vermilyea Avenue",
      "Direction": "SB",
      "Date": "2020-11-11",
      "flow": 0.44285714285714284,
      "Latitude": "40.8652769",
      "Longitude": "-73.9277986"
    },
    {
      "SegmentID": "32651",
      "RoadwayName": "FORSYTH STREET",
      "From": "Grand Street",
      "To": "Broome Street",
      "Direction": "NB",
      "Date": "2020-11-11",
      "flow": 0.007142857142857143,
      "Latitude": "40.7132751",
      "Longitude": "-73.9776678"
    },
    {
      "SegmentID": "38619",
      "RoadwayName": "FREDERICK DOUGLASS BOULEVARD",
      "From": "West 123rd Street",
      "To": "West 124th Street",
      "Direction": "NB",
      "Date": "2020-11-11",
      "flow": 0.2357142857142857,
      "Latitude": "40.8112717",
      "Longitude": "-73.957805"
    },
    {
      "SegmentID": "38619",
      "RoadwayName": "FREDERICK DOUGLASS BOULEVARD",
      "From": "West 123rd Street",
      "To": "West 124th Street",
      "Direction": "SB",
      "Date": "2020-11-11",
      "flow": 0.25,
      "Latitude": "40.8112717",
      "Longitude": "-73.957805"
    },
    {
      "SegmentID": "69154",
      "RoadwayName": "FREDERICK DOUGLASS BOULEVARD",
      "From": "West 147th Street",
      "To": "West 148th Street",
      "Direction": "NB",
      "Date": "2020-11-11",
      "flow": 0.4,
      "Latitude": "40.8282447",
      "Longitude": "-73.9507349"
    },
    {
      "SegmentID": "69154",
      "RoadwayName": "FREDERICK DOUGLASS BOULEVARD",
      "From": "West 147th Street",
      "To": "West 148th Street",
      "Direction": "SB",
      "Date": "2020-11-11",
      "flow": 0.3357142857142857,
      "Latitude": "40.8282447",
      "Longitude": "-73.9507349"
    },
    {
      "SegmentID": "31914",
      "RoadwayName": "HUDSON STREET",
      "From": "Charlton Street",
      "To": "King Street",
      "Direction": "NB",
      "Date": "2020-11-11",
      "flow": 0.3357142857142857,
      "Latitude": "40.726941",
      "Longitude": "-74.003278"
    },
    {
      "SegmentID": "110941",
      "RoadwayName": "LAFAYETTE STREET",
      "From": "Cleveland Place",
      "To": "Prince Street",
      "Direction": "NB",
      "Date": "2020-11-11",
      "flow": 0.2357142857142857,
      "Latitude": "40.7267105",
      "Longitude": "-73.9940763"
    },
    {
      "SegmentID": "38489",
      "RoadwayName": "MANHATTAN AVENUE",
      "From": "West 119th Street",
      "To": "West 120th Street",
      "Direction": "NB",
      "Date": "2020-11-11",
      "flow": 0.014285714285714285,
      "Latitude": "40.7214035",
      "Longitude": "-73.9490041"
    },
    {
      "SegmentID": "38489",
      "RoadwayName": "MANHATTAN AVENUE",
      "From": "West 119th Street",
      "To": "West 120 Street",
      "Direction": "SB",
      "Date": "2020-11-11",
      "flow": 0.10714285714285714,
      "Latitude": "40.7214035",
      "Longitude": "-73.9490041"
    },
    {
      "SegmentID": "38369",
      "RoadwayName": "MORNINGSIDE DRIVE",
      "From": "West 120th Street",
      "To": "West 121 Street",
      "Direction": "NB",
      "Date": "2020-11-11",
      "flow": 0.014285714285714285,
      "Latitude": "40.8113373",
      "Longitude": "-73.9639549"
    },
    {
      "SegmentID": "38369",
      "RoadwayName": "MORNINGSIDE DRIVE",
      "From": "West 120th Street",
      "To": "West 121st Street",
      "Direction": "SB",
      "Date": "2020-11-11",
      "flow": 0,
      "Latitude": "40.8113373",
      "Longitude": "-73.9639549"
    },
    {
      "SegmentID": "38839",
      "RoadwayName": "MT MORRIS PARK WEST",
      "From": "West 122nd Street",
      "To": "West 123 Street",
      "Direction": "SB",
      "Date": "2020-11-11",
      "flow": 0.11428571428571428,
      "Latitude": "40.8122569",
      "Longitude": "-73.9621024"
    },
    {
      "SegmentID": "164341",
      "RoadwayName": "NORFOLK STREET",
      "From": "Delancey Street",
      "To": "Rivington Street",
      "Direction": "NB",
      "Date": "2020-11-11",
      "flow": 0.12142857142857143,
      "Latitude": "40.5784139",
      "Longitude": "-73.9388723"
    },
    {
      "SegmentID": "9000265",
      "RoadwayName": "PITT STREET",
      "From": "Stanton Street",
      "To": "Rivington Street",
      "Direction": "NB",
      "Date": "2020-11-11",
      "flow": 0.03571428571428571,
      "Latitude": "40.7215865",
      "Longitude": "-73.9889254"
    },
    {
      "SegmentID": "38613",
      "RoadwayName": "ST NICHOLAS AVENUE",
      "From": "West 122nd Street",
      "To": "West 123rd Street",
      "Direction": "NB",
      "Date": "2020-11-11",
      "flow": 0.05,
      "Latitude": "40.8241432",
      "Longitude": "-73.9446885"
    },
    {
      "SegmentID": "38613",
      "RoadwayName": "ST NICHOLAS AVENUE",
      "From": "West 122nd Street",
      "To": "West 123rd Street",
      "Direction": "SB",
      "Date": "2020-11-11",
      "flow": 0.03571428571428571,
      "Latitude": "40.8241432",
      "Longitude": "-73.9446885"
    },
    {
      "SegmentID": "70947",
      "RoadwayName": "WADSWORTH AVENUE",
      "From": "West 175th Street",
      "To": "West 176th Street",
      "Direction": "NB",
      "Date": "2020-11-11",
      "flow": 0.07142857142857142,
      "Latitude": "40.8479967",
      "Longitude": "-73.9146016"
    },
    {
      "SegmentID": "70947",
      "RoadwayName": "WADSWORTH AVENUE",
      "From": "West 175th Street",
      "To": "West 176th Street",
      "Direction": "SB",
      "Date": "2020-11-11",
      "flow": 0.14285714285714285,
      "Latitude": "40.8479967",
      "Longitude": "-73.9146016"
    },
    {
      "SegmentID": "32072",
      "RoadwayName": "WALKER STREET",
      "From": "Cortlandt Alley",
      "To": "Lafayette Street",
      "Direction": "EB",
      "Date": "2020-11-11",
      "flow": 0.014285714285714285,
      "Latitude": "40.6310789",
      "Longitude": "-74.1465042"
    },
    {
      "SegmentID": "38636",
      "RoadwayName": "WEST 125th STREET",
      "From": "Frederick Douglass Boulevard",
      "To": "St. Nicholas Avenue",
      "Direction": "EB",
      "Date": "2020-11-11",
      "flow": 0.7,
      "Latitude": "40.8075177",
      "Longitude": "-73.9531044"
    },
    {
      "SegmentID": "38636",
      "RoadwayName": "WEST 125th STREET",
      "From": "Frederick Douglass Boulevard",
      "To": "St. Nicholas Avenue",
      "Direction": "WB",
      "Date": "2020-11-11",
      "flow": 0.5285714285714286,
      "Latitude": "40.8075177",
      "Longitude": "-73.9531044"
    },
    {
      "SegmentID": "38868",
      "RoadwayName": "WEST 135th STREET",
      "From": "Frederick Douglass Boulevard",
      "To": "Edgecombe Avenue",
      "Direction": "EB",
      "Date": "2020-11-11",
      "flow": 0.06428571428571428,
      "Latitude": "40.8075177",
      "Longitude": "-73.9531044"
    },
    {
      "SegmentID": "38868",
      "RoadwayName": "WEST 135 STREET",
      "From": "Frederick Douglass Boulevard",
      "To": "Edgecombe Avenue",
      "Direction": "WB",
      "Date": "2020-11-11",
      "flow": 0.10714285714285714,
      "Latitude": "40.8075177",
      "Longitude": "-73.9531044"
    },
    {
      "SegmentID": "106931",
      "RoadwayName": "WEST 155th STREET",
      "From": "Edgecombe Avenue",
      "To": "St. Nocholas Avenue",
      "Direction": "EB",
      "Date": "2020-11-11",
      "flow": 0.5071428571428571,
      "Latitude": "40.8302773",
      "Longitude": "-73.9402064"
    },
    {
      "SegmentID": "106931",
      "RoadwayName": "WEST 155th STREET",
      "From": "Edgecombe Avenue",
      "To": "St. Nocholas Avenue",
      "Direction": "WB",
      "Date": "2020-11-11",
      "flow": 0.6071428571428571,
      "Latitude": "40.8302773",
      "Longitude": "-73.9402064"
    },
    {
      "SegmentID": "70896",
      "RoadwayName": "WEST 167th STREET",
      "From": "Audubon Avenue",
      "To": "St. Nicholas Avenue",
      "Direction": "WB",
      "Date": "2020-11-11",
      "flow": 0.014285714285714285,
      "Latitude": "40.8473391",
      "Longitude": "-73.9333597"
    }
  ],
  "4:00-5:00AM": [
    {
      "SegmentID": "158764",
      "RoadwayName": "ADAM C POWELL BOULEVARD",
      "From": "West 122nd Street",
      "To": "West 123rd Street",
      "Direction": "NB",
      "Date": "2020-11-11",
      "flow": 0.18994413407821228,
      "Latitude": "40.8122569",
      "Longitude": "-73.9621024"
    },
    {
      "SegmentID": "159196",
      "RoadwayName": "ADAM C POWELL BOULEVARD",
      "From": "West 122nd Street",
      "To": "West 123rd Street",
      "Direction": "SB",
      "Date": "2020-11-11",
      "flow": 0.3575418994413408,
      "Latitude": "40.8122569",
      "Longitude": "-73.9621024"
    },
    {
      "SegmentID": "159048",
      "RoadwayName": "ADAM C POWELL BOULEVARD",
      "From": "West 148th Street",
      "To": "West 149th Street",
      "Direction": "SB",
      "Date": "2020-11-11",
      "flow": 0.27932960893854747,
      "Latitude": "40.8272148",
      "Longitude": "-73.9463406"
    },
    {
      "SegmentID": "133984",
      "RoadwayName": "ADAM C POWELL BOULEVARD",
      "From": "West 148th Street",
      "To": "West 149th Street",
      "Direction": "NB",
      "Date": "2020-11-11",
      "flow": 0.2849162011173184,
      "Latitude": "40.8272148",
      "Longitude": "-73.9463406"
    },
    {
      "SegmentID": "38361",
      "RoadwayName": "AMSTERDAM AVENUE",
      "From": "West 118th Street",
      "To": "West 119th Street",
      "Direction": "NB",
      "Date": "2020-11-11",
      "flow": 0.5307262569832403,
      "Latitude": "40.8076281",
      "Longitude": "-73.9589165"
    },
    {
      "SegmentID": "38361",
      "RoadwayName": "AMSTERDAM AVENUE",
      "From": "West 118th Street",
      "To": "West 119th Street",
      "Direction": "SB",
      "Date": "2020-11-11",
      "flow": 0.29608938547486036,
      "Latitude": "40.8076281",
      "Longitude": "-73.9589165"
    },
    {
      "SegmentID": "39011",
      "RoadwayName": "AMSTERDAM AVENUE",
      "From": "West 147th Street",
      "To": "West 148th Street",
      "Direction": "NB",
      "Date": "2020-11-11",
      "flow": 0.5251396648044693,
      "Latitude": "40.8282447",
      "Longitude": "-73.9507349"
    },
    {
      "SegmentID": "39011",
      "RoadwayName": "AMSTERDAM AVENUE",
      "From": "West 147th Street",
      "To": "West 148th Street",
      "Direction": "SB",
      "Date": "2020-11-11",
      "flow": 0.3016759776536313,
      "Latitude": "40.8282447",
      "Longitude": "-73.9507349"
    },
    {
      "SegmentID": "152668",
      "RoadwayName": "BROADWAY",
      "From": "West 147th Street",
      "To": "West 148th Street",
      "Direction": "SB",
      "Date": "2020-11-11",
      "flow": 0.664804469273743,
      "Latitude": "40.8020029",
      "Longitude": "-73.9679456"
    },
    {
      "SegmentID": "158602",
      "RoadwayName": "BROADWAY",
      "From": "West 147th Street",
      "To": "West 148th Street",
      "Direction": "NB",
      "Date": "2020-11-11",
      "flow": 0.4301675977653631,
      "Latitude": "40.8020029",
      "Longitude": "-73.9679456"
    },
    {
      "SegmentID": "72608",
      "RoadwayName": "BROADWAY",
      "From": "Cumming Street",
      "To": "Dyckman Street",
      "Direction": "EB",
      "Date": "2020-11-11",
      "flow": 0.7150837988826816,
      "Latitude": "40.8020029",
      "Longitude": "-73.9679456"
    },
    {
      "SegmentID": "72608",
      "RoadwayName": "BROADWAY",
      "From": "Cumming Street",
      "To": "Dyckman Street",
      "Direction": "WB",
      "Date": "2020-11-11",
      "flow": 0.5195530726256983,
      "Latitude": "40.8020029",
      "Longitude": "-73.9679456"
    },
    {
      "SegmentID": "31783",
      "RoadwayName": "BROADWAY",
      "From": "Leonard Street",
      "To": "Worth Street",
      "Direction": "SB",
      "Date": "2020-11-11",
      "flow": 1,
      "Latitude": "40.8020029",
      "Longitude": "-73.9679456"
    },
    {
      "SegmentID": "32364",
      "RoadwayName": "BROADWAY",
      "From": "Prince Street",
      "To": "Spring Street",
      "Direction": "SB",
      "Date": "2020-11-11",
      "flow": 0.5139664804469274,
      "Latitude": "40.8020029",
      "Longitude": "-73.9679456"
    },
    {
      "SegmentID": "162555",
      "RoadwayName": "CHERRY STREET",
      "From": "Market Street",
      "To": "Catherine Street",
      "Direction": "WB",
      "Date": "2020-11-11",
      "flow": 0,
      "Latitude": "40.7123927",
      "Longitude": "-73.9781019"
    },
    {
      "SegmentID": "72596",
      "RoadwayName": "DYCKMAN STREET",
      "From": "Sherman Avenue",
      "To": "Vermilyea Avenue",
      "Direction": "NB",
      "Date": "2020-11-11",
      "flow": 0.22346368715083798,
      "Latitude": "40.8652769",
      "Longitude": "-73.9277986"
    },
    {
      "SegmentID": "72596",
      "RoadwayName": "DYCKMAN STREET",
      "From": "Sherman Avenue",
      "To": "Vermilyea Avenue",
      "Direction": "SB",
      "Date": "2020-11-11",
      "flow": 0.30726256983240224,
      "Latitude": "40.8652769",
      "Longitude": "-73.9277986"
    },
    {
      "SegmentID": "32651",
      "RoadwayName": "FORSYTH STREET",
      "From": "Grand Street",
      "To": "Broome Street",
      "Direction": "NB",
      "Date": "2020-11-11",
      "flow": 0.061452513966480445,
      "Latitude": "40.7132751",
      "Longitude": "-73.9776678"
    },
    {
      "SegmentID": "38619",
      "RoadwayName": "FREDERICK DOUGLASS BOULEVARD",
      "From": "West 123rd Street",
      "To": "West 124th Street",
      "Direction": "NB",
      "Date": "2020-11-11",
      "flow": 0.21787709497206703,
      "Latitude": "40.8112717",
      "Longitude": "-73.957805"
    },
    {
      "SegmentID": "38619",
      "RoadwayName": "FREDERICK DOUGLASS BOULEVARD",
      "From": "West 123rd Street",
      "To": "West 124th Street",
      "Direction": "SB",
      "Date": "2020-11-11",
      "flow": 0.15083798882681565,
      "Latitude": "40.8112717",
      "Longitude": "-73.957805"
    },
    {
      "SegmentID": "69154",
      "RoadwayName": "FREDERICK DOUGLASS BOULEVARD",
      "From": "West 147th Street",
      "To": "West 148th Street",
      "Direction": "NB",
      "Date": "2020-11-11",
      "flow": 0.29608938547486036,
      "Latitude": "40.8282447",
      "Longitude": "-73.9507349"
    },
    {
      "SegmentID": "69154",
      "RoadwayName": "FREDERICK DOUGLASS BOULEVARD",
      "From": "West 147th Street",
      "To": "West 148th Street",
      "Direction": "SB",
      "Date": "2020-11-11",
      "flow": 0.3687150837988827,
      "Latitude": "40.8282447",
      "Longitude": "-73.9507349"
    },
    {
      "SegmentID": "31914",
      "RoadwayName": "HUDSON STREET",
      "From": "Charlton Street",
      "To": "King Street",
      "Direction": "NB",
      "Date": "2020-11-11",
      "flow": 0.2849162011173184,
      "Latitude": "40.726941",
      "Longitude": "-74.003278"
    },
    {
      "SegmentID": "110941",
      "RoadwayName": "LAFAYETTE STREET",
      "From": "Cleveland Place",
      "To": "Prince Street",
      "Direction": "NB",
      "Date": "2020-11-11",
      "flow": 0.41899441340782123,
      "Latitude": "40.7267105",
      "Longitude": "-73.9940763"
    },
    {
      "SegmentID": "38489",
      "RoadwayName": "MANHATTAN AVENUE",
      "From": "West 119th Street",
      "To": "West 120th Street",
      "Direction": "NB",
      "Date": "2020-11-11",
      "flow": 0.0782122905027933,
      "Latitude": "40.7214035",
      "Longitude": "-73.9490041"
    },
    {
      "SegmentID": "38489",
      "RoadwayName": "MANHATTAN AVENUE",
      "From": "West 119th Street",
      "To": "West 120 Street",
      "Direction": "SB",
      "Date": "2020-11-11",
      "flow": 0.0782122905027933,
      "Latitude": "40.7214035",
      "Longitude": "-73.9490041"
    },
    {
      "SegmentID": "38369",
      "RoadwayName": "MORNINGSIDE DRIVE",
      "From": "West 120th Street",
      "To": "West 121 Street",
      "Direction": "NB",
      "Date": "2020-11-11",
      "flow": 0,
      "Latitude": "40.8113373",
      "Longitude": "-73.9639549"
    },
    {
      "SegmentID": "38369",
      "RoadwayName": "MORNINGSIDE DRIVE",
      "From": "West 120th Street",
      "To": "West 121st Street",
      "Direction": "SB",
      "Date": "2020-11-11",
      "flow": 0.01675977653631285,
      "Latitude": "40.8113373",
      "Longitude": "-73.9639549"
    },
    {
      "SegmentID": "38839",
      "RoadwayName": "MT MORRIS PARK WEST",
      "From": "West 122nd Street",
      "To": "West 123 Street",
      "Direction": "SB",
      "Date": "2020-11-11",
      "flow": 0.25139664804469275,
      "Latitude": "40.8122569",
      "Longitude": "-73.9621024"
    },
    {
      "SegmentID": "164341",
      "RoadwayName": "NORFOLK STREET",
      "From": "Delancey Street",
      "To": "Rivington Street",
      "Direction": "NB",
      "Date": "2020-11-11",
      "flow": 0.061452513966480445,
      "Latitude": "40.5784139",
      "Longitude": "-73.9388723"
    },
    {
      "SegmentID": "9000265",
      "RoadwayName": "PITT STREET",
      "From": "Stanton Street",
      "To": "Rivington Street",
      "Direction": "NB",
      "Date": "2020-11-11",
      "flow": 0.11731843575418995,
      "Latitude": "40.7215865",
      "Longitude": "-73.9889254"
    },
    {
      "SegmentID": "38613",
      "RoadwayName": "ST NICHOLAS AVENUE",
      "From": "West 122nd Street",
      "To": "West 123rd Street",
      "Direction": "NB",
      "Date": "2020-11-11",
      "flow": 0.11173184357541899,
      "Latitude": "40.8241432",
      "Longitude": "-73.9446885"
    },
    {
      "SegmentID": "38613",
      "RoadwayName": "ST NICHOLAS AVENUE",
      "From": "West 122nd Street",
      "To": "West 123rd Street",
      "Direction": "SB",
      "Date": "2020-11-11",
      "flow": 0.0782122905027933,
      "Latitude": "40.8241432",
      "Longitude": "-73.9446885"
    },
    {
      "SegmentID": "70947",
      "RoadwayName": "WADSWORTH AVENUE",
      "From": "West 175th Street",
      "To": "West 176th Street",
      "Direction": "NB",
      "Date": "2020-11-11",
      "flow": 0.055865921787709494,
      "Latitude": "40.8479967",
      "Longitude": "-73.9146016"
    },
    {
      "SegmentID": "70947",
      "RoadwayName": "WADSWORTH AVENUE",
      "From": "West 175th Street",
      "To": "West 176th Street",
      "Direction": "SB",
      "Date": "2020-11-11",
      "flow": 0.03910614525139665,
      "Latitude": "40.8479967",
      "Longitude": "-73.9146016"
    },
    {
      "SegmentID": "32072",
      "RoadwayName": "WALKER STREET",
      "From": "Cortlandt Alley",
      "To": "Lafayette Street",
      "Direction": "EB",
      "Date": "2020-11-11",
      "flow": 0.11731843575418995,
      "Latitude": "40.6310789",
      "Longitude": "-74.1465042"
    },
    {
      "SegmentID": "38636",
      "RoadwayName": "WEST 125th STREET",
      "From": "Frederick Douglass Boulevard",
      "To": "St. Nicholas Avenue",
      "Direction": "EB",
      "Date": "2020-11-11",
      "flow": 0.6089385474860335,
      "Latitude": "40.8075177",
      "Longitude": "-73.9531044"
    },
    {
      "SegmentID": "38636",
      "RoadwayName": "WEST 125th STREET",
      "From": "Frederick Douglass Boulevard",
      "To": "St. Nicholas Avenue",
      "Direction": "WB",
      "Date": "2020-11-11",
      "flow": 0.4860335195530726,
      "Latitude": "40.8075177",
      "Longitude": "-73.9531044"
    },
    {
      "SegmentID": "38868",
      "RoadwayName": "WEST 135th STREET",
      "From": "Frederick Douglass Boulevard",
      "To": "Edgecombe Avenue",
      "Direction": "EB",
      "Date": "2020-11-11",
      "flow": 0.0335195530726257,
      "Latitude": "40.8075177",
      "Longitude": "-73.9531044"
    },
    {
      "SegmentID": "38868",
      "RoadwayName": "WEST 135 STREET",
      "From": "Frederick Douglass Boulevard",
      "To": "Edgecombe Avenue",
      "Direction": "WB",
      "Date": "2020-11-11",
      "flow": 0.16201117318435754,
      "Latitude": "40.8075177",
      "Longitude": "-73.9531044"
    },
    {
      "SegmentID": "106931",
      "RoadwayName": "WEST 155th STREET",
      "From": "Edgecombe Avenue",
      "To": "St. Nocholas Avenue",
      "Direction": "EB",
      "Date": "2020-11-11",
      "flow": 0.5027932960893855,
      "Latitude": "40.8302773",
      "Longitude": "-73.9402064"
    },
    {
      "SegmentID": "106931",
      "RoadwayName": "WEST 155th STREET",
      "From": "Edgecombe Avenue",
      "To": "St. Nocholas Avenue",
      "Direction": "WB",
      "Date": "2020-11-11",
      "flow": 0.7262569832402235,
      "Latitude": "40.8302773",
      "Longitude": "-73.9402064"
    },
    {
      "SegmentID": "70896",
      "RoadwayName": "WEST 167th STREET",
      "From": "Audubon Avenue",
      "To": "St. Nicholas Avenue",
      "Direction": "WB",
      "Date": "2020-11-11",
      "flow": 0.05027932960893855,
      "Latitude": "40.8473391",
      "Longitude": "-73.9333597"
    }
  ],
  "5:00-6:00AM": [
    {
      "SegmentID": "158764",
      "RoadwayName": "ADAM C POWELL BOULEVARD",
      "From": "West 122nd Street",
      "To": "West 123rd Street",
      "Direction": "NB",
      "Date": "2020-11-11",
      "flow": 0.13271604938271606,
      "Latitude": "40.8122569",
      "Longitude": "-73.9621024"
    },
    {
      "SegmentID": "159196",
      "RoadwayName": "ADAM C POWELL BOULEVARD",
      "From": "West 122nd Street",
      "To": "West 123rd Street",
      "Direction": "SB",
      "Date": "2020-11-11",
      "flow": 0.5185185185185185,
      "Latitude": "40.8122569",
      "Longitude": "-73.9621024"
    },
    {
      "SegmentID": "159048",
      "RoadwayName": "ADAM C POWELL BOULEVARD",
      "From": "West 148th Street",
      "To": "West 149th Street",
      "Direction": "SB",
      "Date": "2020-11-11",
      "flow": 0.3487654320987654,
      "Latitude": "40.8272148",
      "Longitude": "-73.9463406"
    },
    {
      "SegmentID": "133984",
      "RoadwayName": "ADAM C POWELL BOULEVARD",
      "From": "West 148th Street",
      "To": "West 149th Street",
      "Direction": "NB",
      "Date": "2020-11-11",
      "flow": 0.21604938271604937,
      "Latitude": "40.8272148",
      "Longitude": "-73.9463406"
    },
    {
      "SegmentID": "38361",
      "RoadwayName": "AMSTERDAM AVENUE",
      "From": "West 118th Street",
      "To": "West 119th Street",
      "Direction": "NB",
      "Date": "2020-11-11",
      "flow": 0.2808641975308642,
      "Latitude": "40.8076281",
      "Longitude": "-73.9589165"
    },
    {
      "SegmentID": "38361",
      "RoadwayName": "AMSTERDAM AVENUE",
      "From": "West 118th Street",
      "To": "West 119th Street",
      "Direction": "SB",
      "Date": "2020-11-11",
      "flow": 0.2962962962962963,
      "Latitude": "40.8076281",
      "Longitude": "-73.9589165"
    },
    {
      "SegmentID": "39011",
      "RoadwayName": "AMSTERDAM AVENUE",
      "From": "West 147th Street",
      "To": "West 148th Street",
      "Direction": "NB",
      "Date": "2020-11-11",
      "flow": 0.38271604938271603,
      "Latitude": "40.8282447",
      "Longitude": "-73.9507349"
    },
    {
      "SegmentID": "39011",
      "RoadwayName": "AMSTERDAM AVENUE",
      "From": "West 147th Street",
      "To": "West 148th Street",
      "Direction": "SB",
      "Date": "2020-11-11",
      "flow": 0.36419753086419754,
      "Latitude": "40.8282447",
      "Longitude": "-73.9507349"
    },
    {
      "SegmentID": "152668",
      "RoadwayName": "BROADWAY",
      "From": "West 147th Street",
      "To": "West 148th Street",
      "Direction": "SB",
      "Date": "2020-11-11",
      "flow": 0.7654320987654321,
      "Latitude": "40.8020029",
      "Longitude": "-73.9679456"
    },
    {
      "SegmentID": "158602",
      "RoadwayName": "BROADWAY",
      "From": "West 147th Street",
      "To": "West 148th Street",
      "Direction": "NB",
      "Date": "2020-11-11",
      "flow": 0.19444444444444445,
      "Latitude": "40.8020029",
      "Longitude": "-73.9679456"
    },
    {
      "SegmentID": "72608",
      "RoadwayName": "BROADWAY",
      "From": "Cumming Street",
      "To": "Dyckman Street",
      "Direction": "EB",
      "Date": "2020-11-11",
      "flow": 0.48148148148148145,
      "Latitude": "40.8020029",
      "Longitude": "-73.9679456"
    },
    {
      "SegmentID": "72608",
      "RoadwayName": "BROADWAY",
      "From": "Cumming Street",
      "To": "Dyckman Street",
      "Direction": "WB",
      "Date": "2020-11-11",
      "flow": 0.7160493827160493,
      "Latitude": "40.8020029",
      "Longitude": "-73.9679456"
    },
    {
      "SegmentID": "31783",
      "RoadwayName": "BROADWAY",
      "From": "Leonard Street",
      "To": "Worth Street",
      "Direction": "SB",
      "Date": "2020-11-11",
      "flow": 0.845679012345679,
      "Latitude": "40.8020029",
      "Longitude": "-73.9679456"
    },
    {
      "SegmentID": "32364",
      "RoadwayName": "BROADWAY",
      "From": "Prince Street",
      "To": "Spring Street",
      "Direction": "SB",
      "Date": "2020-11-11",
      "flow": 0.5061728395061729,
      "Latitude": "40.8020029",
      "Longitude": "-73.9679456"
    },
    {
      "SegmentID": "162555",
      "RoadwayName": "CHERRY STREET",
      "From": "Market Street",
      "To": "Catherine Street",
      "Direction": "WB",
      "Date": "2020-11-11",
      "flow": 0.021604938271604937,
      "Latitude": "40.7123927",
      "Longitude": "-73.9781019"
    },
    {
      "SegmentID": "72596",
      "RoadwayName": "DYCKMAN STREET",
      "From": "Sherman Avenue",
      "To": "Vermilyea Avenue",
      "Direction": "NB",
      "Date": "2020-11-11",
      "flow": 0.11419753086419752,
      "Latitude": "40.8652769",
      "Longitude": "-73.9277986"
    },
    {
      "SegmentID": "72596",
      "RoadwayName": "DYCKMAN STREET",
      "From": "Sherman Avenue",
      "To": "Vermilyea Avenue",
      "Direction": "SB",
      "Date": "2020-11-11",
      "flow": 0.1419753086419753,
      "Latitude": "40.8652769",
      "Longitude": "-73.9277986"
    },
    {
      "SegmentID": "32651",
      "RoadwayName": "FORSYTH STREET",
      "From": "Grand Street",
      "To": "Broome Street",
      "Direction": "NB",
      "Date": "2020-11-11",
      "flow": 0.09259259259259259,
      "Latitude": "40.7132751",
      "Longitude": "-73.9776678"
    },
    {
      "SegmentID": "38619",
      "RoadwayName": "FREDERICK DOUGLASS BOULEVARD",
      "From": "West 123rd Street",
      "To": "West 124th Street",
      "Direction": "NB",
      "Date": "2020-11-11",
      "flow": 0.09567901234567901,
      "Latitude": "40.8112717",
      "Longitude": "-73.957805"
    },
    {
      "SegmentID": "38619",
      "RoadwayName": "FREDERICK DOUGLASS BOULEVARD",
      "From": "West 123rd Street",
      "To": "West 124th Street",
      "Direction": "SB",
      "Date": "2020-11-11",
      "flow": 0.1882716049382716,
      "Latitude": "40.8112717",
      "Longitude": "-73.957805"
    },
    {
      "SegmentID": "69154",
      "RoadwayName": "FREDERICK DOUGLASS BOULEVARD",
      "From": "West 147th Street",
      "To": "West 148th Street",
      "Direction": "NB",
      "Date": "2020-11-11",
      "flow": 0.18209876543209877,
      "Latitude": "40.8282447",
      "Longitude": "-73.9507349"
    },
    {
      "SegmentID": "69154",
      "RoadwayName": "FREDERICK DOUGLASS BOULEVARD",
      "From": "West 147th Street",
      "To": "West 148th Street",
      "Direction": "SB",
      "Date": "2020-11-11",
      "flow": 0.4228395061728395,
      "Latitude": "40.8282447",
      "Longitude": "-73.9507349"
    },
    {
      "SegmentID": "31914",
      "RoadwayName": "HUDSON STREET",
      "From": "Charlton Street",
      "To": "King Street",
      "Direction": "NB",
      "Date": "2020-11-11",
      "flow": 1,
      "Latitude": "40.726941",
      "Longitude": "-74.003278"
    },
    {
      "SegmentID": "110941",
      "RoadwayName": "LAFAYETTE STREET",
      "From": "Cleveland Place",
      "To": "Prince Street",
      "Direction": "NB",
      "Date": "2020-11-11",
      "flow": 0.25,
      "Latitude": "40.7267105",
      "Longitude": "-73.9940763"
    },
    {
      "SegmentID": "38489",
      "RoadwayName": "MANHATTAN AVENUE",
      "From": "West 119th Street",
      "To": "West 120th Street",
      "Direction": "NB",
      "Date": "2020-11-11",
      "flow": 0.015432098765432098,
      "Latitude": "40.7214035",
      "Longitude": "-73.9490041"
    },
    {
      "SegmentID": "38489",
      "RoadwayName": "MANHATTAN AVENUE",
      "From": "West 119th Street",
      "To": "West 120 Street",
      "Direction": "SB",
      "Date": "2020-11-11",
      "flow": 0.07407407407407407,
      "Latitude": "40.7214035",
      "Longitude": "-73.9490041"
    },
    {
      "SegmentID": "38369",
      "RoadwayName": "MORNINGSIDE DRIVE",
      "From": "West 120th Street",
      "To": "West 121 Street",
      "Direction": "NB",
      "Date": "2020-11-11",
      "flow": 0.024691358024691357,
      "Latitude": "40.8113373",
      "Longitude": "-73.9639549"
    },
    {
      "SegmentID": "38369",
      "RoadwayName": "MORNINGSIDE DRIVE",
      "From": "West 120th Street",
      "To": "West 121st Street",
      "Direction": "SB",
      "Date": "2020-11-11",
      "flow": 0.04938271604938271,
      "Latitude": "40.8113373",
      "Longitude": "-73.9639549"
    },
    {
      "SegmentID": "38839",
      "RoadwayName": "MT MORRIS PARK WEST",
      "From": "West 122nd Street",
      "To": "West 123 Street",
      "Direction": "SB",
      "Date": "2020-11-11",
      "flow": 0.8148148148148148,
      "Latitude": "40.8122569",
      "Longitude": "-73.9621024"
    },
    {
      "SegmentID": "164341",
      "RoadwayName": "NORFOLK STREET",
      "From": "Delancey Street",
      "To": "Rivington Street",
      "Direction": "NB",
      "Date": "2020-11-11",
      "flow": 0.043209876543209874,
      "Latitude": "40.5784139",
      "Longitude": "-73.9388723"
    },
    {
      "SegmentID": "9000265",
      "RoadwayName": "PITT STREET",
      "From": "Stanton Street",
      "To": "Rivington Street",
      "Direction": "NB",
      "Date": "2020-11-11",
      "flow": 0.10185185185185185,
      "Latitude": "40.7215865",
      "Longitude": "-73.9889254"
    },
    {
      "SegmentID": "38613",
      "RoadwayName": "ST NICHOLAS AVENUE",
      "From": "West 122nd Street",
      "To": "West 123rd Street",
      "Direction": "NB",
      "Date": "2020-11-11",
      "flow": 0.040123456790123455,
      "Latitude": "40.8241432",
      "Longitude": "-73.9446885"
    },
    {
      "SegmentID": "38613",
      "RoadwayName": "ST NICHOLAS AVENUE",
      "From": "West 122nd Street",
      "To": "West 123rd Street",
      "Direction": "SB",
      "Date": "2020-11-11",
      "flow": 0.05864197530864197,
      "Latitude": "40.8241432",
      "Longitude": "-73.9446885"
    },
    {
      "SegmentID": "70947",
      "RoadwayName": "WADSWORTH AVENUE",
      "From": "West 175th Street",
      "To": "West 176th Street",
      "Direction": "NB",
      "Date": "2020-11-11",
      "flow": 0.037037037037037035,
      "Latitude": "40.8479967",
      "Longitude": "-73.9146016"
    },
    {
      "SegmentID": "70947",
      "RoadwayName": "WADSWORTH AVENUE",
      "From": "West 175th Street",
      "To": "West 176th Street",
      "Direction": "SB",
      "Date": "2020-11-11",
      "flow": 0,
      "Latitude": "40.8479967",
      "Longitude": "-73.9146016"
    },
    {
      "SegmentID": "32072",
      "RoadwayName": "WALKER STREET",
      "From": "Cortlandt Alley",
      "To": "Lafayette Street",
      "Direction": "EB",
      "Date": "2020-11-11",
      "flow": 0.6080246913580247,
      "Latitude": "40.6310789",
      "Longitude": "-74.1465042"
    },
    {
      "SegmentID": "38636",
      "RoadwayName": "WEST 125th STREET",
      "From": "Frederick Douglass Boulevard",
      "To": "St. Nicholas Avenue",
      "Direction": "EB",
      "Date": "2020-11-11",
      "flow": 0.5185185185185185,
      "Latitude": "40.8075177",
      "Longitude": "-73.9531044"
    },
    {
      "SegmentID": "38636",
      "RoadwayName": "WEST 125th STREET",
      "From": "Frederick Douglass Boulevard",
      "To": "St. Nicholas Avenue",
      "Direction": "WB",
      "Date": "2020-11-11",
      "flow": 0.5123456790123457,
      "Latitude": "40.8075177",
      "Longitude": "-73.9531044"
    },
    {
      "SegmentID": "38868",
      "RoadwayName": "WEST 135th STREET",
      "From": "Frederick Douglass Boulevard",
      "To": "Edgecombe Avenue",
      "Direction": "EB",
      "Date": "2020-11-11",
      "flow": 0.05864197530864197,
      "Latitude": "40.8075177",
      "Longitude": "-73.9531044"
    },
    {
      "SegmentID": "38868",
      "RoadwayName": "WEST 135 STREET",
      "From": "Frederick Douglass Boulevard",
      "To": "Edgecombe Avenue",
      "Direction": "WB",
      "Date": "2020-11-11",
      "flow": 0.15432098765432098,
      "Latitude": "40.8075177",
      "Longitude": "-73.9531044"
    },
    {
      "SegmentID": "106931",
      "RoadwayName": "WEST 155th STREET",
      "From": "Edgecombe Avenue",
      "To": "St. Nocholas Avenue",
      "Direction": "EB",
      "Date": "2020-11-11",
      "flow": 0.4845679012345679,
      "Latitude": "40.8302773",
      "Longitude": "-73.9402064"
    },
    {
      "SegmentID": "106931",
      "RoadwayName": "WEST 155th STREET",
      "From": "Edgecombe Avenue",
      "To": "St. Nocholas Avenue",
      "Direction": "WB",
      "Date": "2020-11-11",
      "flow": 0.7777777777777778,
      "Latitude": "40.8302773",
      "Longitude": "-73.9402064"
    },
    {
      "SegmentID": "70896",
      "RoadwayName": "WEST 167th STREET",
      "From": "Audubon Avenue",
      "To": "St. Nicholas Avenue",
      "Direction": "WB",
      "Date": "2020-11-11",
      "flow": 0.021604938271604937,
      "Latitude": "40.8473391",
      "Longitude": "-73.9333597"
    }
  ],
  "6:00-7:00AM": [
    {
      "SegmentID": "158764",
      "RoadwayName": "ADAM C POWELL BOULEVARD",
      "From": "West 122nd Street",
      "To": "West 123rd Street",
      "Direction": "NB",
      "Date": "2020-11-11",
      "flow": 0.10566037735849057,
      "Latitude": "40.8122569",
      "Longitude": "-73.9621024"
    },
    {
      "SegmentID": "159196",
      "RoadwayName": "ADAM C POWELL BOULEVARD",
      "From": "West 122nd Street",
      "To": "West 123rd Street",
      "Direction": "SB",
      "Date": "2020-11-11",
      "flow": 0.8471698113207548,
      "Latitude": "40.8122569",
      "Longitude": "-73.9621024"
    },
    {
      "SegmentID": "159048",
      "RoadwayName": "ADAM C POWELL BOULEVARD",
      "From": "West 148th Street",
      "To": "West 149th Street",
      "Direction": "SB",
      "Date": "2020-11-11",
      "flow": 0.4528301886792453,
      "Latitude": "40.8272148",
      "Longitude": "-73.9463406"
    },
    {
      "SegmentID": "133984",
      "RoadwayName": "ADAM C POWELL BOULEVARD",
      "From": "West 148th Street",
      "To": "West 149th Street",
      "Direction": "NB",
      "Date": "2020-11-11",
      "flow": 0.17735849056603772,
      "Latitude": "40.8272148",
      "Longitude": "-73.9463406"
    },
    {
      "SegmentID": "38361",
      "RoadwayName": "AMSTERDAM AVENUE",
      "From": "West 118th Street",
      "To": "West 119th Street",
      "Direction": "NB",
      "Date": "2020-11-11",
      "flow": 0.3,
      "Latitude": "40.8076281",
      "Longitude": "-73.9589165"
    },
    {
      "SegmentID": "38361",
      "RoadwayName": "AMSTERDAM AVENUE",
      "From": "West 118th Street",
      "To": "West 119th Street",
      "Direction": "SB",
      "Date": "2020-11-11",
      "flow": 0.37169811320754714,
      "Latitude": "40.8076281",
      "Longitude": "-73.9589165"
    },
    {
      "SegmentID": "39011",
      "RoadwayName": "AMSTERDAM AVENUE",
      "From": "West 147th Street",
      "To": "West 148th Street",
      "Direction": "NB",
      "Date": "2020-11-11",
      "flow": 0.2849056603773585,
      "Latitude": "40.8282447",
      "Longitude": "-73.9507349"
    },
    {
      "SegmentID": "39011",
      "RoadwayName": "AMSTERDAM AVENUE",
      "From": "West 147th Street",
      "To": "West 148th Street",
      "Direction": "SB",
      "Date": "2020-11-11",
      "flow": 0.4490566037735849,
      "Latitude": "40.8282447",
      "Longitude": "-73.9507349"
    },
    {
      "SegmentID": "152668",
      "RoadwayName": "BROADWAY",
      "From": "West 147th Street",
      "To": "West 148th Street",
      "Direction": "SB",
      "Date": "2020-11-11",
      "flow": 0.7603773584905661,
      "Latitude": "40.8020029",
      "Longitude": "-73.9679456"
    },
    {
      "SegmentID": "158602",
      "RoadwayName": "BROADWAY",
      "From": "West 147th Street",
      "To": "West 148th Street",
      "Direction": "NB",
      "Date": "2020-11-11",
      "flow": 0.16981132075471697,
      "Latitude": "40.8020029",
      "Longitude": "-73.9679456"
    },
    {
      "SegmentID": "72608",
      "RoadwayName": "BROADWAY",
      "From": "Cumming Street",
      "To": "Dyckman Street",
      "Direction": "EB",
      "Date": "2020-11-11",
      "flow": 0.41509433962264153,
      "Latitude": "40.8020029",
      "Longitude": "-73.9679456"
    },
    {
      "SegmentID": "72608",
      "RoadwayName": "BROADWAY",
      "From": "Cumming Street",
      "To": "Dyckman Street",
      "Direction": "WB",
      "Date": "2020-11-11",
      "flow": 0.8226415094339623,
      "Latitude": "40.8020029",
      "Longitude": "-73.9679456"
    },
    {
      "SegmentID": "31783",
      "RoadwayName": "BROADWAY",
      "From": "Leonard Street",
      "To": "Worth Street",
      "Direction": "SB",
      "Date": "2020-11-11",
      "flow": 0.6981132075471698,
      "Latitude": "40.8020029",
      "Longitude": "-73.9679456"
    },
    {
      "SegmentID": "32364",
      "RoadwayName": "BROADWAY",
      "From": "Prince Street",
      "To": "Spring Street",
      "Direction": "SB",
      "Date": "2020-11-11",
      "flow": 0.6132075471698113,
      "Latitude": "40.8020029",
      "Longitude": "-73.9679456"
    },
    {
      "SegmentID": "162555",
      "RoadwayName": "CHERRY STREET",
      "From": "Market Street",
      "To": "Catherine Street",
      "Direction": "WB",
      "Date": "2020-11-11",
      "flow": 0.009433962264150943,
      "Latitude": "40.7123927",
      "Longitude": "-73.9781019"
    },
    {
      "SegmentID": "72596",
      "RoadwayName": "DYCKMAN STREET",
      "From": "Sherman Avenue",
      "To": "Vermilyea Avenue",
      "Direction": "NB",
      "Date": "2020-11-11",
      "flow": 0.07735849056603773,
      "Latitude": "40.8652769",
      "Longitude": "-73.9277986"
    },
    {
      "SegmentID": "72596",
      "RoadwayName": "DYCKMAN STREET",
      "From": "Sherman Avenue",
      "To": "Vermilyea Avenue",
      "Direction": "SB",
      "Date": "2020-11-11",
      "flow": 0.14150943396226415,
      "Latitude": "40.8652769",
      "Longitude": "-73.9277986"
    },
    {
      "SegmentID": "32651",
      "RoadwayName": "FORSYTH STREET",
      "From": "Grand Street",
      "To": "Broome Street",
      "Direction": "NB",
      "Date": "2020-11-11",
      "flow": 0.08867924528301886,
      "Latitude": "40.7132751",
      "Longitude": "-73.9776678"
    },
    {
      "SegmentID": "38619",
      "RoadwayName": "FREDERICK DOUGLASS BOULEVARD",
      "From": "West 123rd Street",
      "To": "West 124th Street",
      "Direction": "NB",
      "Date": "2020-11-11",
      "flow": 0.13018867924528302,
      "Latitude": "40.8112717",
      "Longitude": "-73.957805"
    },
    {
      "SegmentID": "38619",
      "RoadwayName": "FREDERICK DOUGLASS BOULEVARD",
      "From": "West 123rd Street",
      "To": "West 124th Street",
      "Direction": "SB",
      "Date": "2020-11-11",
      "flow": 0.22264150943396227,
      "Latitude": "40.8112717",
      "Longitude": "-73.957805"
    },
    {
      "SegmentID": "69154",
      "RoadwayName": "FREDERICK DOUGLASS BOULEVARD",
      "From": "West 147th Street",
      "To": "West 148th Street",
      "Direction": "NB",
      "Date": "2020-11-11",
      "flow": 0.19245283018867926,
      "Latitude": "40.8282447",
      "Longitude": "-73.9507349"
    },
    {
      "SegmentID": "69154",
      "RoadwayName": "FREDERICK DOUGLASS BOULEVARD",
      "From": "West 147th Street",
      "To": "West 148th Street",
      "Direction": "SB",
      "Date": "2020-11-11",
      "flow": 0.5528301886792453,
      "Latitude": "40.8282447",
      "Longitude": "-73.9507349"
    },
    {
      "SegmentID": "31914",
      "RoadwayName": "HUDSON STREET",
      "From": "Charlton Street",
      "To": "King Street",
      "Direction": "NB",
      "Date": "2020-11-11",
      "flow": 1,
      "Latitude": "40.726941",
      "Longitude": "-74.003278"
    },
    {
      "SegmentID": "110941",
      "RoadwayName": "LAFAYETTE STREET",
      "From": "Cleveland Place",
      "To": "Prince Street",
      "Direction": "NB",
      "Date": "2020-11-11",
      "flow": 0.2528301886792453,
      "Latitude": "40.7267105",
      "Longitude": "-73.9940763"
    },
    {
      "SegmentID": "38489",
      "RoadwayName": "MANHATTAN AVENUE",
      "From": "West 119th Street",
      "To": "West 120th Street",
      "Direction": "NB",
      "Date": "2020-11-11",
      "flow": 0.013207547169811321,
      "Latitude": "40.7214035",
      "Longitude": "-73.9490041"
    },
    {
      "SegmentID": "38489",
      "RoadwayName": "MANHATTAN AVENUE",
      "From": "West 119th Street",
      "To": "West 120 Street",
      "Direction": "SB",
      "Date": "2020-11-11",
      "flow": 0.1,
      "Latitude": "40.7214035",
      "Longitude": "-73.9490041"
    },
    {
      "SegmentID": "38369",
      "RoadwayName": "MORNINGSIDE DRIVE",
      "From": "West 120th Street",
      "To": "West 121 Street",
      "Direction": "NB",
      "Date": "2020-11-11",
      "flow": 0.052830188679245285,
      "Latitude": "40.8113373",
      "Longitude": "-73.9639549"
    },
    {
      "SegmentID": "38369",
      "RoadwayName": "MORNINGSIDE DRIVE",
      "From": "West 120th Street",
      "To": "West 121st Street",
      "Direction": "SB",
      "Date": "2020-11-11",
      "flow": 0.026415094339622643,
      "Latitude": "40.8113373",
      "Longitude": "-73.9639549"
    },
    {
      "SegmentID": "38839",
      "RoadwayName": "MT MORRIS PARK WEST",
      "From": "West 122nd Street",
      "To": "West 123 Street",
      "Direction": "SB",
      "Date": "2020-11-11",
      "flow": 0.7981132075471699,
      "Latitude": "40.8122569",
      "Longitude": "-73.9621024"
    },
    {
      "SegmentID": "164341",
      "RoadwayName": "NORFOLK STREET",
      "From": "Delancey Street",
      "To": "Rivington Street",
      "Direction": "NB",
      "Date": "2020-11-11",
      "flow": 0.04716981132075472,
      "Latitude": "40.5784139",
      "Longitude": "-73.9388723"
    },
    {
      "SegmentID": "9000265",
      "RoadwayName": "PITT STREET",
      "From": "Stanton Street",
      "To": "Rivington Street",
      "Direction": "NB",
      "Date": "2020-11-11",
      "flow": 0.16226415094339622,
      "Latitude": "40.7215865",
      "Longitude": "-73.9889254"
    },
    {
      "SegmentID": "38613",
      "RoadwayName": "ST NICHOLAS AVENUE",
      "From": "West 122nd Street",
      "To": "West 123rd Street",
      "Direction": "NB",
      "Date": "2020-11-11",
      "flow": 0.035849056603773584,
      "Latitude": "40.8241432",
      "Longitude": "-73.9446885"
    },
    {
      "SegmentID": "38613",
      "RoadwayName": "ST NICHOLAS AVENUE",
      "From": "West 122nd Street",
      "To": "West 123rd Street",
      "Direction": "SB",
      "Date": "2020-11-11",
      "flow": 0.0660377358490566,
      "Latitude": "40.8241432",
      "Longitude": "-73.9446885"
    },
    {
      "SegmentID": "70947",
      "RoadwayName": "WADSWORTH AVENUE",
      "From": "West 175th Street",
      "To": "West 176th Street",
      "Direction": "NB",
      "Date": "2020-11-11",
      "flow": 0.01509433962264151,
      "Latitude": "40.8479967",
      "Longitude": "-73.9146016"
    },
    {
      "SegmentID": "70947",
      "RoadwayName": "WADSWORTH AVENUE",
      "From": "West 175th Street",
      "To": "West 176th Street",
      "Direction": "SB",
      "Date": "2020-11-11",
      "flow": 0,
      "Latitude": "40.8479967",
      "Longitude": "-73.9146016"
    },
    {
      "SegmentID": "32072",
      "RoadwayName": "WALKER STREET",
      "From": "Cortlandt Alley",
      "To": "Lafayette Street",
      "Direction": "EB",
      "Date": "2020-11-11",
      "flow": 0.47735849056603774,
      "Latitude": "40.6310789",
      "Longitude": "-74.1465042"
    },
    {
      "SegmentID": "38636",
      "RoadwayName": "WEST 125th STREET",
      "From": "Frederick Douglass Boulevard",
      "To": "St. Nicholas Avenue",
      "Direction": "EB",
      "Date": "2020-11-11",
      "flow": 0.46037735849056605,
      "Latitude": "40.8075177",
      "Longitude": "-73.9531044"
    },
    {
      "SegmentID": "38636",
      "RoadwayName": "WEST 125th STREET",
      "From": "Frederick Douglass Boulevard",
      "To": "St. Nicholas Avenue",
      "Direction": "WB",
      "Date": "2020-11-11",
      "flow": 0.6509433962264151,
      "Latitude": "40.8075177",
      "Longitude": "-73.9531044"
    },
    {
      "SegmentID": "38868",
      "RoadwayName": "WEST 135th STREET",
      "From": "Frederick Douglass Boulevard",
      "To": "Edgecombe Avenue",
      "Direction": "EB",
      "Date": "2020-11-11",
      "flow": 0.04716981132075472,
      "Latitude": "40.8075177",
      "Longitude": "-73.9531044"
    },
    {
      "SegmentID": "38868",
      "RoadwayName": "WEST 135 STREET",
      "From": "Frederick Douglass Boulevard",
      "To": "Edgecombe Avenue",
      "Direction": "WB",
      "Date": "2020-11-11",
      "flow": 0.2,
      "Latitude": "40.8075177",
      "Longitude": "-73.9531044"
    },
    {
      "SegmentID": "106931",
      "RoadwayName": "WEST 155th STREET",
      "From": "Edgecombe Avenue",
      "To": "St. Nocholas Avenue",
      "Direction": "EB",
      "Date": "2020-11-11",
      "flow": 0.5113207547169811,
      "Latitude": "40.8302773",
      "Longitude": "-73.9402064"
    },
    {
      "SegmentID": "106931",
      "RoadwayName": "WEST 155th STREET",
      "From": "Edgecombe Avenue",
      "To": "St. Nocholas Avenue",
      "Direction": "WB",
      "Date": "2020-11-11",
      "flow": 0.8339622641509434,
      "Latitude": "40.8302773",
      "Longitude": "-73.9402064"
    },
    {
      "SegmentID": "70896",
      "RoadwayName": "WEST 167th STREET",
      "From": "Audubon Avenue",
      "To": "St. Nicholas Avenue",
      "Direction": "WB",
      "Date": "2020-11-11",
      "flow": 0.01509433962264151,
      "Latitude": "40.8473391",
      "Longitude": "-73.9333597"
    }
  ],
  "7:00-8:00AM": [
    {
      "SegmentID": "158764",
      "RoadwayName": "ADAM C POWELL BOULEVARD",
      "From": "West 122nd Street",
      "To": "West 123rd Street",
      "Direction": "NB",
      "Date": "2020-11-11",
      "flow": 0.13354700854700854,
      "Latitude": "40.8122569",
      "Longitude": "-73.9621024"
    },
    {
      "SegmentID": "159196",
      "RoadwayName": "ADAM C POWELL BOULEVARD",
      "From": "West 122nd Street",
      "To": "West 123rd Street",
      "Direction": "SB",
      "Date": "2020-11-11",
      "flow": 0.7019230769230769,
      "Latitude": "40.8122569",
      "Longitude": "-73.9621024"
    },
    {
      "SegmentID": "159048",
      "RoadwayName": "ADAM C POWELL BOULEVARD",
      "From": "West 148th Street",
      "To": "West 149th Street",
      "Direction": "SB",
      "Date": "2020-11-11",
      "flow": 0.42094017094017094,
      "Latitude": "40.8272148",
      "Longitude": "-73.9463406"
    },
    {
      "SegmentID": "133984",
      "RoadwayName": "ADAM C POWELL BOULEVARD",
      "From": "West 148th Street",
      "To": "West 149th Street",
      "Direction": "NB",
      "Date": "2020-11-11",
      "flow": 0.21153846153846154,
      "Latitude": "40.8272148",
      "Longitude": "-73.9463406"
    },
    {
      "SegmentID": "38361",
      "RoadwayName": "AMSTERDAM AVENUE",
      "From": "West 118th Street",
      "To": "West 119th Street",
      "Direction": "NB",
      "Date": "2020-11-11",
      "flow": 0.2841880341880342,
      "Latitude": "40.8076281",
      "Longitude": "-73.9589165"
    },
    {
      "SegmentID": "38361",
      "RoadwayName": "AMSTERDAM AVENUE",
      "From": "West 118th Street",
      "To": "West 119th Street",
      "Direction": "SB",
      "Date": "2020-11-11",
      "flow": 0.3087606837606838,
      "Latitude": "40.8076281",
      "Longitude": "-73.9589165"
    },
    {
      "SegmentID": "39011",
      "RoadwayName": "AMSTERDAM AVENUE",
      "From": "West 147th Street",
      "To": "West 148th Street",
      "Direction": "NB",
      "Date": "2020-11-11",
      "flow": 0.29594017094017094,
      "Latitude": "40.8282447",
      "Longitude": "-73.9507349"
    },
    {
      "SegmentID": "39011",
      "RoadwayName": "AMSTERDAM AVENUE",
      "From": "West 147th Street",
      "To": "West 148th Street",
      "Direction": "SB",
      "Date": "2020-11-11",
      "flow": 0.30982905982905984,
      "Latitude": "40.8282447",
      "Longitude": "-73.9507349"
    },
    {
      "SegmentID": "152668",
      "RoadwayName": "BROADWAY",
      "From": "West 147th Street",
      "To": "West 148th Street",
      "Direction": "SB",
      "Date": "2020-11-11",
      "flow": 0.5117521367521367,
      "Latitude": "40.8020029",
      "Longitude": "-73.9679456"
    },
    {
      "SegmentID": "158602",
      "RoadwayName": "BROADWAY",
      "From": "West 147th Street",
      "To": "West 148th Street",
      "Direction": "NB",
      "Date": "2020-11-11",
      "flow": 0.2670940170940171,
      "Latitude": "40.8020029",
      "Longitude": "-73.9679456"
    },
    {
      "SegmentID": "72608",
      "RoadwayName": "BROADWAY",
      "From": "Cumming Street",
      "To": "Dyckman Street",
      "Direction": "EB",
      "Date": "2020-11-11",
      "flow": 0.33226495726495725,
      "Latitude": "40.8020029",
      "Longitude": "-73.9679456"
    },
    {
      "SegmentID": "72608",
      "RoadwayName": "BROADWAY",
      "From": "Cumming Street",
      "To": "Dyckman Street",
      "Direction": "WB",
      "Date": "2020-11-11",
      "flow": 0.5010683760683761,
      "Latitude": "40.8020029",
      "Longitude": "-73.9679456"
    },
    {
      "SegmentID": "31783",
      "RoadwayName": "BROADWAY",
      "From": "Leonard Street",
      "To": "Worth Street",
      "Direction": "SB",
      "Date": "2020-11-11",
      "flow": 0.5224358974358975,
      "Latitude": "40.8020029",
      "Longitude": "-73.9679456"
    },
    {
      "SegmentID": "32364",
      "RoadwayName": "BROADWAY",
      "From": "Prince Street",
      "To": "Spring Street",
      "Direction": "SB",
      "Date": "2020-11-11",
      "flow": 0.5235042735042735,
      "Latitude": "40.8020029",
      "Longitude": "-73.9679456"
    },
    {
      "SegmentID": "162555",
      "RoadwayName": "CHERRY STREET",
      "From": "Market Street",
      "To": "Catherine Street",
      "Direction": "WB",
      "Date": "2020-11-11",
      "flow": 0.03739316239316239,
      "Latitude": "40.7123927",
      "Longitude": "-73.9781019"
    },
    {
      "SegmentID": "72596",
      "RoadwayName": "DYCKMAN STREET",
      "From": "Sherman Avenue",
      "To": "Vermilyea Avenue",
      "Direction": "NB",
      "Date": "2020-11-11",
      "flow": 0.06303418803418803,
      "Latitude": "40.8652769",
      "Longitude": "-73.9277986"
    },
    {
      "SegmentID": "72596",
      "RoadwayName": "DYCKMAN STREET",
      "From": "Sherman Avenue",
      "To": "Vermilyea Avenue",
      "Direction": "SB",
      "Date": "2020-11-11",
      "flow": 0.2467948717948718,
      "Latitude": "40.8652769",
      "Longitude": "-73.9277986"
    },
    {
      "SegmentID": "32651",
      "RoadwayName": "FORSYTH STREET",
      "From": "Grand Street",
      "To": "Broome Street",
      "Direction": "NB",
      "Date": "2020-11-11",
      "flow": 0.05448717948717949,
      "Latitude": "40.7132751",
      "Longitude": "-73.9776678"
    },
    {
      "SegmentID": "38619",
      "RoadwayName": "FREDERICK DOUGLASS BOULEVARD",
      "From": "West 123rd Street",
      "To": "West 124th Street",
      "Direction": "NB",
      "Date": "2020-11-11",
      "flow": 0.10790598290598291,
      "Latitude": "40.8112717",
      "Longitude": "-73.957805"
    },
    {
      "SegmentID": "38619",
      "RoadwayName": "FREDERICK DOUGLASS BOULEVARD",
      "From": "West 123rd Street",
      "To": "West 124th Street",
      "Direction": "SB",
      "Date": "2020-11-11",
      "flow": 0.3055555555555556,
      "Latitude": "40.8112717",
      "Longitude": "-73.957805"
    },
    {
      "SegmentID": "69154",
      "RoadwayName": "FREDERICK DOUGLASS BOULEVARD",
      "From": "West 147th Street",
      "To": "West 148th Street",
      "Direction": "NB",
      "Date": "2020-11-11",
      "flow": 0.16987179487179488,
      "Latitude": "40.8282447",
      "Longitude": "-73.9507349"
    },
    {
      "SegmentID": "69154",
      "RoadwayName": "FREDERICK DOUGLASS BOULEVARD",
      "From": "West 147th Street",
      "To": "West 148th Street",
      "Direction": "SB",
      "Date": "2020-11-11",
      "flow": 0.36538461538461536,
      "Latitude": "40.8282447",
      "Longitude": "-73.9507349"
    },
    {
      "SegmentID": "31914",
      "RoadwayName": "HUDSON STREET",
      "From": "Charlton Street",
      "To": "King Street",
      "Direction": "NB",
      "Date": "2020-11-11",
      "flow": 1,
      "Latitude": "40.726941",
      "Longitude": "-74.003278"
    },
    {
      "SegmentID": "110941",
      "RoadwayName": "LAFAYETTE STREET",
      "From": "Cleveland Place",
      "To": "Prince Street",
      "Direction": "NB",
      "Date": "2020-11-11",
      "flow": 0.24145299145299146,
      "Latitude": "40.7267105",
      "Longitude": "-73.9940763"
    },
    {
      "SegmentID": "38489",
      "RoadwayName": "MANHATTAN AVENUE",
      "From": "West 119th Street",
      "To": "West 120th Street",
      "Direction": "NB",
      "Date": "2020-11-11",
      "flow": 0.042735042735042736,
      "Latitude": "40.7214035",
      "Longitude": "-73.9490041"
    },
    {
      "SegmentID": "38489",
      "RoadwayName": "MANHATTAN AVENUE",
      "From": "West 119th Street",
      "To": "West 120 Street",
      "Direction": "SB",
      "Date": "2020-11-11",
      "flow": 0.1282051282051282,
      "Latitude": "40.7214035",
      "Longitude": "-73.9490041"
    },
    {
      "SegmentID": "38369",
      "RoadwayName": "MORNINGSIDE DRIVE",
      "From": "West 120th Street",
      "To": "West 121 Street",
      "Direction": "NB",
      "Date": "2020-11-11",
      "flow": 0.05982905982905983,
      "Latitude": "40.8113373",
      "Longitude": "-73.9639549"
    },
    {
      "SegmentID": "38369",
      "RoadwayName": "MORNINGSIDE DRIVE",
      "From": "West 120th Street",
      "To": "West 121st Street",
      "Direction": "SB",
      "Date": "2020-11-11",
      "flow": 0.0673076923076923,
      "Latitude": "40.8113373",
      "Longitude": "-73.9639549"
    },
    {
      "SegmentID": "38839",
      "RoadwayName": "MT MORRIS PARK WEST",
      "From": "West 122nd Street",
      "To": "West 123 Street",
      "Direction": "SB",
      "Date": "2020-11-11",
      "flow": 0.4412393162393162,
      "Latitude": "40.8122569",
      "Longitude": "-73.9621024"
    },
    {
      "SegmentID": "164341",
      "RoadwayName": "NORFOLK STREET",
      "From": "Delancey Street",
      "To": "Rivington Street",
      "Direction": "NB",
      "Date": "2020-11-11",
      "flow": 0.06196581196581197,
      "Latitude": "40.5784139",
      "Longitude": "-73.9388723"
    },
    {
      "SegmentID": "9000265",
      "RoadwayName": "PITT STREET",
      "From": "Stanton Street",
      "To": "Rivington Street",
      "Direction": "NB",
      "Date": "2020-11-11",
      "flow": 0.1623931623931624,
      "Latitude": "40.7215865",
      "Longitude": "-73.9889254"
    },
    {
      "SegmentID": "38613",
      "RoadwayName": "ST NICHOLAS AVENUE",
      "From": "West 122nd Street",
      "To": "West 123rd Street",
      "Direction": "NB",
      "Date": "2020-11-11",
      "flow": 0.07478632478632478,
      "Latitude": "40.8241432",
      "Longitude": "-73.9446885"
    },
    {
      "SegmentID": "38613",
      "RoadwayName": "ST NICHOLAS AVENUE",
      "From": "West 122nd Street",
      "To": "West 123rd Street",
      "Direction": "SB",
      "Date": "2020-11-11",
      "flow": 0.14102564102564102,
      "Latitude": "40.8241432",
      "Longitude": "-73.9446885"
    },
    {
      "SegmentID": "70947",
      "RoadwayName": "WADSWORTH AVENUE",
      "From": "West 175th Street",
      "To": "West 176th Street",
      "Direction": "NB",
      "Date": "2020-11-11",
      "flow": 0.026709401709401708,
      "Latitude": "40.8479967",
      "Longitude": "-73.9146016"
    },
    {
      "SegmentID": "70947",
      "RoadwayName": "WADSWORTH AVENUE",
      "From": "West 175th Street",
      "To": "West 176th Street",
      "Direction": "SB",
      "Date": "2020-11-11",
      "flow": 0,
      "Latitude": "40.8479967",
      "Longitude": "-73.9146016"
    },
    {
      "SegmentID": "32072",
      "RoadwayName": "WALKER STREET",
      "From": "Cortlandt Alley",
      "To": "Lafayette Street",
      "Direction": "EB",
      "Date": "2020-11-11",
      "flow": 0.3076923076923077,
      "Latitude": "40.6310789",
      "Longitude": "-74.1465042"
    },
    {
      "SegmentID": "38636",
      "RoadwayName": "WEST 125th STREET",
      "From": "Frederick Douglass Boulevard",
      "To": "St. Nicholas Avenue",
      "Direction": "EB",
      "Date": "2020-11-11",
      "flow": 0.33653846153846156,
      "Latitude": "40.8075177",
      "Longitude": "-73.9531044"
    },
    {
      "SegmentID": "38636",
      "RoadwayName": "WEST 125th STREET",
      "From": "Frederick Douglass Boulevard",
      "To": "St. Nicholas Avenue",
      "Direction": "WB",
      "Date": "2020-11-11",
      "flow": 0.4668803418803419,
      "Latitude": "40.8075177",
      "Longitude": "-73.9531044"
    },
    {
      "SegmentID": "38868",
      "RoadwayName": "WEST 135th STREET",
      "From": "Frederick Douglass Boulevard",
      "To": "Edgecombe Avenue",
      "Direction": "EB",
      "Date": "2020-11-11",
      "flow": 0.03739316239316239,
      "Latitude": "40.8075177",
      "Longitude": "-73.9531044"
    },
    {
      "SegmentID": "38868",
      "RoadwayName": "WEST 135 STREET",
      "From": "Frederick Douglass Boulevard",
      "To": "Edgecombe Avenue",
      "Direction": "WB",
      "Date": "2020-11-11",
      "flow": 0.11217948717948718,
      "Latitude": "40.8075177",
      "Longitude": "-73.9531044"
    },
    {
      "SegmentID": "106931",
      "RoadwayName": "WEST 155th STREET",
      "From": "Edgecombe Avenue",
      "To": "St. Nocholas Avenue",
      "Direction": "EB",
      "Date": "2020-11-11",
      "flow": 0.4337606837606838,
      "Latitude": "40.8302773",
      "Longitude": "-73.9402064"
    },
    {
      "SegmentID": "106931",
      "RoadwayName": "WEST 155th STREET",
      "From": "Edgecombe Avenue",
      "To": "St. Nocholas Avenue",
      "Direction": "WB",
      "Date": "2020-11-11",
      "flow": 0.5587606837606838,
      "Latitude": "40.8302773",
      "Longitude": "-73.9402064"
    },
    {
      "SegmentID": "70896",
      "RoadwayName": "WEST 167th STREET",
      "From": "Audubon Avenue",
      "To": "St. Nicholas Avenue",
      "Direction": "WB",
      "Date": "2020-11-11",
      "flow": 0.026709401709401708,
      "Latitude": "40.8473391",
      "Longitude": "-73.9333597"
    }
  ],
  "8:00-9:00AM": [
    {
      "SegmentID": "158764",
      "RoadwayName": "ADAM C POWELL BOULEVARD",
      "From": "West 122nd Street",
      "To": "West 123rd Street",
      "Direction": "NB",
      "Date": "2020-11-11",
      "flow": 0.20257826887661143,
      "Latitude": "40.8122569",
      "Longitude": "-73.9621024"
    },
    {
      "SegmentID": "159196",
      "RoadwayName": "ADAM C POWELL BOULEVARD",
      "From": "West 122nd Street",
      "To": "West 123rd Street",
      "Direction": "SB",
      "Date": "2020-11-11",
      "flow": 0.6279926335174953,
      "Latitude": "40.8122569",
      "Longitude": "-73.9621024"
    },
    {
      "SegmentID": "159048",
      "RoadwayName": "ADAM C POWELL BOULEVARD",
      "From": "West 148th Street",
      "To": "West 149th Street",
      "Direction": "SB",
      "Date": "2020-11-11",
      "flow": 0.3812154696132597,
      "Latitude": "40.8272148",
      "Longitude": "-73.9463406"
    },
    {
      "SegmentID": "133984",
      "RoadwayName": "ADAM C POWELL BOULEVARD",
      "From": "West 148th Street",
      "To": "West 149th Street",
      "Direction": "NB",
      "Date": "2020-11-11",
      "flow": 0.26703499079189685,
      "Latitude": "40.8272148",
      "Longitude": "-73.9463406"
    },
    {
      "SegmentID": "38361",
      "RoadwayName": "AMSTERDAM AVENUE",
      "From": "West 118th Street",
      "To": "West 119th Street",
      "Direction": "NB",
      "Date": "2020-11-11",
      "flow": 0.30662983425414364,
      "Latitude": "40.8076281",
      "Longitude": "-73.9589165"
    },
    {
      "SegmentID": "38361",
      "RoadwayName": "AMSTERDAM AVENUE",
      "From": "West 118th Street",
      "To": "West 119th Street",
      "Direction": "SB",
      "Date": "2020-11-11",
      "flow": 0.27716390423572745,
      "Latitude": "40.8076281",
      "Longitude": "-73.9589165"
    },
    {
      "SegmentID": "39011",
      "RoadwayName": "AMSTERDAM AVENUE",
      "From": "West 147th Street",
      "To": "West 148th Street",
      "Direction": "NB",
      "Date": "2020-11-11",
      "flow": 0.31123388581952116,
      "Latitude": "40.8282447",
      "Longitude": "-73.9507349"
    },
    {
      "SegmentID": "39011",
      "RoadwayName": "AMSTERDAM AVENUE",
      "From": "West 147th Street",
      "To": "West 148th Street",
      "Direction": "SB",
      "Date": "2020-11-11",
      "flow": 0.28084714548802947,
      "Latitude": "40.8282447",
      "Longitude": "-73.9507349"
    },
    {
      "SegmentID": "152668",
      "RoadwayName": "BROADWAY",
      "From": "West 147th Street",
      "To": "West 148th Street",
      "Direction": "SB",
      "Date": "2020-11-11",
      "flow": 0.4604051565377532,
      "Latitude": "40.8020029",
      "Longitude": "-73.9679456"
    },
    {
      "SegmentID": "158602",
      "RoadwayName": "BROADWAY",
      "From": "West 147th Street",
      "To": "West 148th Street",
      "Direction": "NB",
      "Date": "2020-11-11",
      "flow": 0.32136279926335176,
      "Latitude": "40.8020029",
      "Longitude": "-73.9679456"
    },
    {
      "SegmentID": "72608",
      "RoadwayName": "BROADWAY",
      "From": "Cumming Street",
      "To": "Dyckman Street",
      "Direction": "EB",
      "Date": "2020-11-11",
      "flow": 0.35082872928176795,
      "Latitude": "40.8020029",
      "Longitude": "-73.9679456"
    },
    {
      "SegmentID": "72608",
      "RoadwayName": "BROADWAY",
      "From": "Cumming Street",
      "To": "Dyckman Street",
      "Direction": "WB",
      "Date": "2020-11-11",
      "flow": 0.4106813996316759,
      "Latitude": "40.8020029",
      "Longitude": "-73.9679456"
    },
    {
      "SegmentID": "31783",
      "RoadwayName": "BROADWAY",
      "From": "Leonard Street",
      "To": "Worth Street",
      "Direction": "SB",
      "Date": "2020-11-11",
      "flow": 0.5064456721915286,
      "Latitude": "40.8020029",
      "Longitude": "-73.9679456"
    },
    {
      "SegmentID": "32364",
      "RoadwayName": "BROADWAY",
      "From": "Prince Street",
      "To": "Spring Street",
      "Direction": "SB",
      "Date": "2020-11-11",
      "flow": 0.5414364640883977,
      "Latitude": "40.8020029",
      "Longitude": "-73.9679456"
    },
    {
      "SegmentID": "162555",
      "RoadwayName": "CHERRY STREET",
      "From": "Market Street",
      "To": "Catherine Street",
      "Direction": "WB",
      "Date": "2020-11-11",
      "flow": 0.03683241252302026,
      "Latitude": "40.7123927",
      "Longitude": "-73.9781019"
    },
    {
      "SegmentID": "72596",
      "RoadwayName": "DYCKMAN STREET",
      "From": "Sherman Avenue",
      "To": "Vermilyea Avenue",
      "Direction": "NB",
      "Date": "2020-11-11",
      "flow": 0.07918968692449356,
      "Latitude": "40.8652769",
      "Longitude": "-73.9277986"
    },
    {
      "SegmentID": "72596",
      "RoadwayName": "DYCKMAN STREET",
      "From": "Sherman Avenue",
      "To": "Vermilyea Avenue",
      "Direction": "SB",
      "Date": "2020-11-11",
      "flow": 0.22559852670349909,
      "Latitude": "40.8652769",
      "Longitude": "-73.9277986"
    },
    {
      "SegmentID": "32651",
      "RoadwayName": "FORSYTH STREET",
      "From": "Grand Street",
      "To": "Broome Street",
      "Direction": "NB",
      "Date": "2020-11-11",
      "flow": 0.0865561694290976,
      "Latitude": "40.7132751",
      "Longitude": "-73.9776678"
    },
    {
      "SegmentID": "38619",
      "RoadwayName": "FREDERICK DOUGLASS BOULEVARD",
      "From": "West 123rd Street",
      "To": "West 124th Street",
      "Direction": "NB",
      "Date": "2020-11-11",
      "flow": 0.15285451197053407,
      "Latitude": "40.8112717",
      "Longitude": "-73.957805"
    },
    {
      "SegmentID": "38619",
      "RoadwayName": "FREDERICK DOUGLASS BOULEVARD",
      "From": "West 123rd Street",
      "To": "West 124th Street",
      "Direction": "SB",
      "Date": "2020-11-11",
      "flow": 0.2955801104972376,
      "Latitude": "40.8112717",
      "Longitude": "-73.957805"
    },
    {
      "SegmentID": "69154",
      "RoadwayName": "FREDERICK DOUGLASS BOULEVARD",
      "From": "West 147th Street",
      "To": "West 148th Street",
      "Direction": "NB",
      "Date": "2020-11-11",
      "flow": 0.1869244935543278,
      "Latitude": "40.8282447",
      "Longitude": "-73.9507349"
    },
    {
      "SegmentID": "69154",
      "RoadwayName": "FREDERICK DOUGLASS BOULEVARD",
      "From": "West 147th Street",
      "To": "West 148th Street",
      "Direction": "SB",
      "Date": "2020-11-11",
      "flow": 0.3756906077348066,
      "Latitude": "40.8282447",
      "Longitude": "-73.9507349"
    },
    {
      "SegmentID": "31914",
      "RoadwayName": "HUDSON STREET",
      "From": "Charlton Street",
      "To": "King Street",
      "Direction": "NB",
      "Date": "2020-11-11",
      "flow": 1,
      "Latitude": "40.726941",
      "Longitude": "-74.003278"
    },
    {
      "SegmentID": "110941",
      "RoadwayName": "LAFAYETTE STREET",
      "From": "Cleveland Place",
      "To": "Prince Street",
      "Direction": "NB",
      "Date": "2020-11-11",
      "flow": 0.289134438305709,
      "Latitude": "40.7267105",
      "Longitude": "-73.9940763"
    },
    {
      "SegmentID": "38489",
      "RoadwayName": "MANHATTAN AVENUE",
      "From": "West 119th Street",
      "To": "West 120th Street",
      "Direction": "NB",
      "Date": "2020-11-11",
      "flow": 0.049723756906077346,
      "Latitude": "40.7214035",
      "Longitude": "-73.9490041"
    },
    {
      "SegmentID": "38489",
      "RoadwayName": "MANHATTAN AVENUE",
      "From": "West 119th Street",
      "To": "West 120 Street",
      "Direction": "SB",
      "Date": "2020-11-11",
      "flow": 0.13996316758747698,
      "Latitude": "40.7214035",
      "Longitude": "-73.9490041"
    },
    {
      "SegmentID": "38369",
      "RoadwayName": "MORNINGSIDE DRIVE",
      "From": "West 120th Street",
      "To": "West 121 Street",
      "Direction": "NB",
      "Date": "2020-11-11",
      "flow": 0.055248618784530384,
      "Latitude": "40.8113373",
      "Longitude": "-73.9639549"
    },
    {
      "SegmentID": "38369",
      "RoadwayName": "MORNINGSIDE DRIVE",
      "From": "West 120th Street",
      "To": "West 121st Street",
      "Direction": "SB",
      "Date": "2020-11-11",
      "flow": 0.049723756906077346,
      "Latitude": "40.8113373",
      "Longitude": "-73.9639549"
    },
    {
      "SegmentID": "38839",
      "RoadwayName": "MT MORRIS PARK WEST",
      "From": "West 122nd Street",
      "To": "West 123 Street",
      "Direction": "SB",
      "Date": "2020-11-11",
      "flow": 0.3848987108655617,
      "Latitude": "40.8122569",
      "Longitude": "-73.9621024"
    },
    {
      "SegmentID": "164341",
      "RoadwayName": "NORFOLK STREET",
      "From": "Delancey Street",
      "To": "Rivington Street",
      "Direction": "NB",
      "Date": "2020-11-11",
      "flow": 0.04511970534069982,
      "Latitude": "40.5784139",
      "Longitude": "-73.9388723"
    },