{
  "1:00-2:00AM": [
    {
      "SegmentID": "36403",
      "RoadwayName": "1st AVENUE",
      "From": "East 60th Street",
      "To": "East 61st Street",
      "Direction": "NB",
      "Date": "2020-11-18",
      "flow": 0.38791732909379967,
      "Latitude": "40.7603138",
      "Longitude": "-73.9616495"
    },
    {
      "SegmentID": "260786",
      "RoadwayName": "1 Avenue",
      "From": "E 120th St",
      "To": "E 124th St",
      "Direction": "NB",
      "Date": "2020-11-18",
      "flow": 0.766295707472178,
      "Latitude": "40.8015168",
      "Longitude": "-73.940548"
    },
    {
      "SegmentID": "33119",
      "RoadwayName": "1st AVENUE",
      "From": "East 11th Street",
      "To": "East 12th Street",
      "Direction": "NB",
      "Date": "2020-11-18",
      "flow": 0.4276629570747218,
      "Latitude": "40.5836667",
      "Longitude": "-73.9590628"
    },
    {
      "SegmentID": "34654",
      "RoadwayName": "1st AVENUE",
      "From": "East 26th Street",
      "To": "East 27th Street",
      "Direction": "NB",
      "Date": "2020-11-18",
      "flow": 0.4260731319554849,
      "Latitude": "40.7409558",
      "Longitude": "-73.9822976"
    },
    {
      "SegmentID": "177454",
      "RoadwayName": "103rd STREET",
      "From": "Northern Boulevard",
      "To": "34th Avenue",
      "Direction": "NB",
      "Date": "2020-11-18",
      "flow": 0.02066772655007949,
      "Latitude": "40.7530794",
      "Longitude": "-73.9062074"
    },
    {
      "SegmentID": "177488",
      "RoadwayName": "108th STREET",
      "From": "Northern Boulevard",
      "To": "34thAvenue",
      "Direction": "NB",
      "Date": "2020-11-18",
      "flow": 0.04769475357710652,
      "Latitude": "40.7530794",
      "Longitude": "-73.9062074"
    },
    {
      "SegmentID": "177488",
      "RoadwayName": "108th STREET",
      "From": "Northern Boulevard",
      "To": "34th Avenue",
      "Direction": "SB",
      "Date": "2020-11-18",
      "flow": 0.06359300476947535,
      "Latitude": "40.7530794",
      "Longitude": "-73.9062074"
    },
    {
      "SegmentID": "33411",
      "RoadwayName": "11th AVENUE",
      "From": "West 27th Street",
      "To": "West 28th Street",
      "Direction": "SB",
      "Date": "2020-11-18",
      "flow": 0.14149443561208266,
      "Latitude": "40.7473864",
      "Longitude": "-73.9956068"
    },
    {
      "SegmentID": "33615",
      "RoadwayName": "11th AVENUE",
      "From": "West 44th Street",
      "To": "West 45th Street",
      "Direction": "NB",
      "Date": "2020-11-18",
      "flow": 0.1685214626391097,
      "Latitude": "40.7572239",
      "Longitude": "-73.9857273"
    },
    {
      "SegmentID": "33615",
      "RoadwayName": "11 AVENUE",
      "From": "West 44th Street",
      "To": "West 45th Street",
      "Direction": "SB",
      "Date": "2020-11-18",
      "flow": 0.32909379968203495,
      "Latitude": "40.7127281",
      "Longitude": "-74.0060152"
    },
    {
      "SegmentID": "150039",
      "RoadwayName": "164th STREET",
      "From": "65th Avenue",
      "To": "67th Avenue",
      "Direction": "SB",
      "Date": "2020-11-18",
      "flow": 0.05405405405405406,
      "Latitude": "40.730953",
      "Longitude": "-73.851137"
    },
    {
      "SegmentID": "156450",
      "RoadwayName": "164th STREET",
      "From": "65th Avenue",
      "To": "67th Avenue",
      "Direction": "NB",
      "Date": "2020-11-18",
      "flow": 0.06677265500794913,
      "Latitude": "40.730953",
      "Longitude": "-73.851137"
    },
    {
      "SegmentID": "133253",
      "RoadwayName": "188th STREET",
      "From": "Horace Harding Expressway Sr S",
      "To": "64th Avenue",
      "Direction": "NB",
      "Date": "2020-11-18",
      "flow": 0.05246422893481717,
      "Latitude": "40.7317757",
      "Longitude": "-73.8535154"
    },
    {
      "SegmentID": "133254",
      "RoadwayName": "188th STREET",
      "From": "Horace Harding Expressway Sr S",
      "To": "64th Avenue",
      "Direction": "SB",
      "Date": "2020-11-18",
      "flow": 0.019077901430842606,
      "Latitude": "40.7317757",
      "Longitude": "-73.8535154"
    },
    {
      "SegmentID": "33115",
      "RoadwayName": "2nd AVENUE",
      "From": "East 12th Street",
      "To": "East 13th Street",
      "Direction": "SB",
      "Date": "2020-11-18",
      "flow": 0.383147853736089,
      "Latitude": "40.591064",
      "Longitude": "-73.958862"
    },
    {
      "SegmentID": "36579",
      "RoadwayName": "2nd AVENUE",
      "From": "East 73rd Street",
      "To": "East 74th Street",
      "Direction": "SB",
      "Date": "2020-11-18",
      "flow": 0.17329093799682035,
      "Latitude": "40.766698",
      "Longitude": "-73.9511901"
    },
    {
      "SegmentID": "156485",
      "RoadwayName": "23rd AVENUE",
      "From": "83rd Street",
      "To": "85th Street",
      "Direction": "EB",
      "Date": "2020-11-18",
      "flow": 0.1287758346581876,
      "Latitude": "40.7065835",
      "Longitude": "-73.8661202"
    },
    {
      "SegmentID": "148877",
      "RoadwayName": "23rd AVENUE",
      "From": "83rd Street",
      "To": "85th Street",
      "Direction": "WB",
      "Date": "2020-11-18",
      "flow": 0.06836248012718601,
      "Latitude": "40.7065835",
      "Longitude": "-73.8661202"
    },
    {
      "SegmentID": "32932",
      "RoadwayName": "3rd AVENUE",
      "From": "East 12th Street",
      "To": "East 13th Street",
      "Direction": "NB",
      "Date": "2020-11-18",
      "flow": 0.2082670906200318,
      "Latitude": "40.591064",
      "Longitude": "-73.958862"
    },
    {
      "SegmentID": "32932",
      "RoadwayName": "3rd AVENUE",
      "From": "East 12th Street",
      "To": "East 13th Street",
      "Direction": "SB",
      "Date": "2020-11-18",
      "flow": 0.10333863275039745,
      "Latitude": "40.591064",
      "Longitude": "-73.958862"
    },
    {
      "SegmentID": "17642",
      "RoadwayName": "3rd AVENUE",
      "From": "Senator Street",
      "To": "6th Street",
      "Direction": "NB",
      "Date": "2020-11-18",
      "flow": 0.05246422893481717,
      "Latitude": "40.6375525",
      "Longitude": "-74.0255652"
    },
    {
      "SegmentID": "17642",
      "RoadwayName": "3rd AVENUE",
      "From": "Senator Street",
      "To": "68th Street",
      "Direction": "SB",
      "Date": "2020-11-18",
      "flow": 0.06677265500794913,
      "Latitude": "40.6375525",
      "Longitude": "-74.0255652"
    },
    {
      "SegmentID": "76510",
      "RoadwayName": "31st AVENUE",
      "From": "87th Street",
      "To": "88th Street",
      "Direction": "EB",
      "Date": "2020-11-18",
      "flow": 0.034976152623211444,
      "Latitude": "40.6484429",
      "Longitude": "-73.8430094"
    },
    {
      "SegmentID": "76510",
      "RoadwayName": "31st AVENUE",
      "From": "87th Street",
      "To": "88th Street",
      "Direction": "WB",
      "Date": "2020-11-18",
      "flow": 0.01589825119236884,
      "Latitude": "40.6484429",
      "Longitude": "-73.8430094"
    },
    {
      "SegmentID": "67665",
      "RoadwayName": "31st STREET",
      "From": "34th Avenue",
      "To": "35th Avenue",
      "Direction": "NB",
      "Date": "2020-11-18",
      "flow": 0.11128775834658187,
      "Latitude": "40.763894",
      "Longitude": "-73.936256"
    },
    {
      "SegmentID": "67665",
      "RoadwayName": "31st STREET",
      "From": "34th Avenue",
      "To": "35th Avenue",
      "Direction": "SB",
      "Date": "2020-11-18",
      "flow": 0.06359300476947535,
      "Latitude": "40.763894",
      "Longitude": "-73.936256"
    },
    {
      "SegmentID": "97521",
      "RoadwayName": "35th AVENUE",
      "From": "202nd Street",
      "To": "203rd Street",
      "Direction": "EB",
      "Date": "2020-11-18",
      "flow": 0.01589825119236884,
      "Latitude": "40.712225",
      "Longitude": "-73.758246"
    },
    {
      "SegmentID": "97521",
      "RoadwayName": "35th AVENUE",
      "From": "202nd Street",
      "To": "203rd Street",
      "Direction": "WB",
      "Date": "2020-11-18",
      "flow": 0.028616852146263912,
      "Latitude": "40.712225",
      "Longitude": "-73.758246"
    },
    {
      "SegmentID": "106891",
      "RoadwayName": "39th AVENUE",
      "From": "50th Street",
      "To": "51st Street",
      "Direction": "EB",
      "Date": "2020-11-18",
      "flow": 0.01589825119236884,
      "Latitude": "40.7616618",
      "Longitude": "-73.9838968"
    },
    {
      "SegmentID": "106891",
      "RoadwayName": "39th AVENUE",
      "From": "50th Street",
      "To": "51st Street",
      "Direction": "WB",
      "Date": "2020-11-18",
      "flow": 0.02066772655007949,
      "Latitude": "40.7616618",
      "Longitude": "-73.9838968"
    },
    {
      "SegmentID": "131907",
      "RoadwayName": "47th AVENUE",
      "From": "189th Street",
      "To": "190th Street",
      "Direction": "EB",
      "Date": "2020-11-18",
      "flow": 0,
      "Latitude": "40.7510187",
      "Longitude": "-73.7904728"
    },
    {
      "SegmentID": "131907",
      "RoadwayName": "47th AVENUE",
      "From": "189th Street",
      "To": "190th Street",
      "Direction": "WB",
      "Date": "2020-11-18",
      "flow": 0.003179650238473768,
      "Latitude": "40.7510187",
      "Longitude": "-73.7904728"
    },
    {
      "SegmentID": "67969",
      "RoadwayName": "48th STREET",
      "From": "Northen Boulevard",
      "To": "37th Avenue",
      "Direction": "NB",
      "Date": "2020-11-18",
      "flow": 0.009538950715421303,
      "Latitude": "40.7539451",
      "Longitude": "-73.8605053"
    },
    {
      "SegmentID": "67969",
      "RoadwayName": "48th STREET",
      "From": "Northen Boulevard",
      "To": "37th Avenue",
      "Direction": "SB",
      "Date": "2020-11-18",
      "flow": 0.00794912559618442,
      "Latitude": "40.7539451",
      "Longitude": "-73.8605053"
    },
    {
      "SegmentID": "36026",
      "RoadwayName": "5th AVENUE",
      "From": "East 60th Street",
      "To": "East 61st Street",
      "Direction": "SB",
      "Date": "2020-11-18",
      "flow": 0.2766295707472178,
      "Latitude": "40.7603138",
      "Longitude": "-73.9616495"
    },
    {
      "SegmentID": "33012",
      "RoadwayName": "5 AVENUE",
      "From": "Broadway",
      "To": "West 25th Street",
      "Direction": "SB",
      "Date": "2020-11-18",
      "flow": 0.30842607313195547,
      "Latitude": "40.5467724",
      "Longitude": "-74.21034999"
    },
    {
      "SegmentID": "9017020",
      "RoadwayName": "5 AVENUE",
      "From": "East 101th Street",
      "To": "Gustave L Levy Place",
      "Direction": "SB",
      "Date": "2020-11-18",
      "flow": 0.18441971383147854,
      "Latitude": "40.5467724",
      "Longitude": "-74.21034999"
    },
    {
      "SegmentID": "32618",
      "RoadwayName": "5TH AVENUE",
      "From": "East 11th Street",
      "To": "East 12th Street",
      "Direction": "SB",
      "Date": "2020-11-18",
      "flow": 0.1494435612082671,
      "Latitude": "40.5836667",
      "Longitude": "-73.9590628"
    },
    {
      "SegmentID": "75313",
      "RoadwayName": "51th AVENUE",
      "From": "90th Street",
      "To": "92nd Street",
      "Direction": "EB",
      "Date": "2020-11-18",
      "flow": 0.011128775834658187,
      "Latitude": "40.6569584",
      "Longitude": "-73.8422577"
    },
    {
      "SegmentID": "113361",
      "RoadwayName": "58th STREET",
      "From": "Northen Boulevard",
      "To": "34th Avenue",
      "Direction": "SB",
      "Date": "2020-11-18",
      "flow": 0.011128775834658187,
      "Latitude": "40.763894",
      "Longitude": "-73.936256"
    },
    {
      "SegmentID": "20395",
      "RoadwayName": "60th STREET",
      "From": "19th Avenue",
      "To": "20th Avenue",
      "Direction": "EB",
      "Date": "2020-11-18",
      "flow": 0.06836248012718601,
      "Latitude": "40.7808957",
      "Longitude": "-73.8001321"
    },
    {
      "SegmentID": "20395",
      "RoadwayName": "60th STREET",
      "From": "19th Avenue",
      "To": "20th Avenue",
      "Direction": "WB",
      "Date": "2020-11-18",
      "flow": 0.06200317965023847,
      "Latitude": "40.7808957",
      "Longitude": "-73.8001321"
    },
    {
      "SegmentID": "81694",
      "RoadwayName": "63rd DRIVE",
      "From": "Austin Street",
      "To": "Wetherole Street",
      "Direction": "NB",
      "Date": "2020-11-18",
      "flow": 0.030206677265500796,
      "Latitude": "40.7195628",
      "Longitude": "-73.8431467"
    },
    {
      "SegmentID": "81694",
      "RoadwayName": "63rd DRIVE",
      "From": "Austin Street",
      "To": "Wetherole Street",
      "Direction": "SB",
      "Date": "2020-11-18",
      "flow": 0.02066772655007949,
      "Latitude": "40.7195628",
      "Longitude": "-73.8431467"
    },
    {
      "SegmentID": "32443",
      "RoadwayName": "7th AVENUE",
      "From": "West 12th Street",
      "To": "West 13th Street",
      "Direction": "SB",
      "Date": "2020-11-18",
      "flow": 0.4546899841017488,
      "Latitude": "40.5747728",
      "Longitude": "-73.9796628"
    },
    {
      "SegmentID": "29030",
      "RoadwayName": "7th AVENUE",
      "From": "St Johns Place",
      "To": "Lincoln Place",
      "Direction": "NB",
      "Date": "2020-11-18",
      "flow": 0.01589825119236884,
      "Latitude": "40.6726653",
      "Longitude": "-73.9585329"
    },
    {
      "SegmentID": "29030",
      "RoadwayName": "7th AVENUE",
      "From": "St Johns Place",
      "To": "Lincoln Place",
      "Direction": "SB",
      "Date": "2020-11-18",
      "flow": 0.02066772655007949,
      "Latitude": "40.6726653",
      "Longitude": "-73.9585329"
    },
    {
      "SegmentID": "19463",
      "RoadwayName": "8th AVENUE",
      "From": "66th Street",
      "To": "67th Street",
      "Direction": "EB",
      "Date": "2020-11-18",
      "flow": 0.022257551669316374,
      "Latitude": "40.7249332",
      "Longitude": "-73.8985833"
    },
    {
      "SegmentID": "19463",
      "RoadwayName": "8th AVENUE",
      "From": "66th Street",
      "To": "67th Street",
      "Direction": "WB",
      "Date": "2020-11-18",
      "flow": 0.04292527821939587,
      "Latitude": "40.7249332",
      "Longitude": "-73.8985833"
    },
    {
      "SegmentID": "33645",
      "RoadwayName": "8th AVENUE",
      "From": "West 27th Street",
      "To": "West 28th Street",
      "Direction": "NB",
      "Date": "2020-11-18",
      "flow": 0.7567567567567568,
      "Latitude": "40.7473864",
      "Longitude": "-73.9956068"
    },
    {
      "SegmentID": "175385",
      "RoadwayName": "82nd STREET",
      "From": "Northern Boulevard",
      "To": "34th Avenue",
      "Direction": "SB",
      "Date": "2020-11-18",
      "flow": 0.0397456279809221,
      "Latitude": "40.7530794",
      "Longitude": "-73.9062074"
    },
    {
      "SegmentID": "115821",
      "RoadwayName": "94th AVENUE",
      "From": "Airtrain-jamaica Station Line",
      "To": "138th Place",
      "Direction": "EB",
      "Date": "2020-11-18",
      "flow": 0.0890302066772655,
      "Latitude": "40.697479",
      "Longitude": "-73.8115358"
    },
    {
      "SegmentID": "115821",
      "RoadwayName": "94th AVENUE",
      "From": "Airtrain-jamaica Station Line",
      "To": "138th Place",
      "Direction": "WB",
      "Date": "2020-11-18",
      "flow": 0.13354531001589826,
      "Latitude": "40.697479",
      "Longitude": "-73.8115358"
    },
    {
      "SegmentID": "41864",
      "RoadwayName": "ALBANY AVENUE",
      "From": "Lenox Road",
      "To": "Linden Boulevard",
      "Direction": "NB",
      "Date": "2020-11-18",
      "flow": 0.0397456279809221,
      "Latitude": "40.6780172",
      "Longitude": "-73.9385941"
    },
    {
      "SegmentID": "41864",
      "RoadwayName": "ALBANY AVENUE",
      "From": "Lenox Road",
      "To": "Linden Boulevard",
      "Direction": "SB",
      "Date": "2020-11-18",
      "flow": 0.06677265500794913,
      "Latitude": "40.6780172",
      "Longitude": "-73.9385941"
    },
    {
      "SegmentID": "42955",
      "RoadwayName": "ALBANY AVENUE",
      "From": "Midwood Street",
      "To": "Rutland Road",
      "Direction": "NB",
      "Date": "2020-11-18",
      "flow": 0.04292527821939587,
      "Latitude": "40.6780172",
      "Longitude": "-73.9385941"
    },
    {
      "SegmentID": "42955",
      "RoadwayName": "ALBANY AVENUE",
      "From": "Midwood Street",
      "To": "Rutland Road",
      "Direction": "SB",
      "Date": "2020-11-18",
      "flow": 0.06995230524642289,
      "Latitude": "40.6780172",
      "Longitude": "-73.9385941"
    },
    {
      "SegmentID": "43074",
      "RoadwayName": "ALBANY AVENUE",
      "From": "St Johns Place",
      "To": "Lincoln Place",
      "Direction": "SB",
      "Date": "2020-11-18",
      "flow": 0.0890302066772655,
      "Latitude": "40.6780172",
      "Longitude": "-73.9385941"
    },
    {
      "SegmentID": "2933",
      "RoadwayName": "AMBOY ROAD",
      "From": "Arbutus Avenue",
      "To": "Rose Lane",
      "Direction": "EB",
      "Date": "2020-11-18",
      "flow": 0.00794912559618442,
      "Latitude": "40.5312913",
      "Longitude": "-74.1841164"
    },
    {
      "SegmentID": "2933",
      "RoadwayName": "AMBOY ROAD",
      "From": "Arbutus Avenue",
      "To": "Rose Lane",
      "Direction": "WB",
      "Date": "2020-11-18",
      "flow": 0.012718600953895072,
      "Latitude": "40.5312913",
      "Longitude": "-74.1841164"
    },
    {
      "SegmentID": "10335",
      "RoadwayName": "AMBOY ROAD",
      "From": "Dale Avenue",
      "To": "Bishop Street",
      "Direction": "NB",
      "Date": "2020-11-18",
      "flow": 0.028616852146263912,
      "Latitude": "40.572812",
      "Longitude": "-74.123884"
    },
    {
      "SegmentID": "10335",
      "RoadwayName": "AMBOY ROAD",
      "From": "Dale Avenue",
      "To": "Bishop Street",
      "Direction": "SB",
      "Date": "2020-11-18",
      "flow": 0.025437201907790145,
      "Latitude": "40.572812",
      "Longitude": "-74.123884"
    },
    {
      "SegmentID": "3720",
      "RoadwayName": "AMBOY ROAD",
      "From": "Preston Avenue",
      "To": "Bamberger Lane",
      "Direction": "EB",
      "Date": "2020-11-18",
      "flow": 0.01589825119236884,
      "Latitude": "40.5368399",
      "Longitude": "-74.161697"
    },
    {
      "SegmentID": "3720",
      "RoadwayName": "AMBOY ROAD",
      "From": "Preston Avenue",
      "To": "Bamberger Lane",
      "Direction": "WB",
      "Date": "2020-11-18",
      "flow": 0.02702702702702703,
      "Latitude": "40.5368399",
      "Longitude": "-74.161697"
    },
    {
      "SegmentID": "37362",
      "RoadwayName": "AMSTERDAM AVENUE",
      "From": "West 99th Street",
      "To": "West 100th Street",
      "Direction": "NB",
      "Date": "2020-11-18",
      "flow": 0.3052464228934817,
      "Latitude": "40.7971386",
      "Longitude": "-73.9716719"
    },
    {
      "SegmentID": "4237",
      "RoadwayName": "ANNADALE ROAD",
      "From": "Berry Avenue",
      "To": "Watkins Avenue",
      "Direction": "NB",
      "Date": "2020-11-18",
      "flow": 0.0047694753577106515,
      "Latitude": "40.5559165",
      "Longitude": "-74.1761162"
    },
    {
      "SegmentID": "4237",
      "RoadwayName": "ANNADALE ROAD",
      "From": "Berry Avenue",
      "To": "Watkins Avenue",
      "Direction": "SB",
      "Date": "2020-11-18",
      "flow": 0.011128775834658187,
      "Latitude": "40.5559165",
      "Longitude": "-74.1761162"
    },
    {
      "SegmentID": "57039",
      "RoadwayName": "ARCHER AVENUE",
      "From": "144th Place",
      "To": "146th Street",
      "Direction": "EB",
      "Date": "2020-11-18",
      "flow": 0.04133545310015898,
      "Latitude": "40.7863014",
      "Longitude": "-73.8231832"
    },
    {
      "SegmentID": "57039",
      "RoadwayName": "ARCHER AVENUE",
      "From": "144th Place",
      "To": "146th Street",
      "Direction": "WB",
      "Date": "2020-11-18",
      "flow": 0.058823529411764705,
      "Latitude": "40.7863014",
      "Longitude": "-73.8231832"
    },
    {
      "SegmentID": "2369",
      "RoadwayName": "ARTHUR KILL ROAD",
      "From": "Carlyle Green",
      "To": "Krissa Court",
      "Direction": "NB",
      "Date": "2020-11-18",
      "flow": 0.034976152623211444,
      "Latitude": "40.55531245",
      "Longitude": "-74.1984995"
    },
    {
      "SegmentID": "2369",
      "RoadwayName": "ARTHUR KILL ROAD",
      "From": "Carlyle Green",
      "To": "Krissa Court",
      "Direction": "SB",
      "Date": "2020-11-18",
      "flow": 0.02066772655007949,
      "Latitude": "40.55531245",
      "Longitude": "-74.1984995"
    },
    {
      "SegmentID": "107980",
      "RoadwayName": "ARTHUR KILL ROAD",
      "From": "Crossfield Avenue",
      "To": "Token Street",
      "Direction": "EB",
      "Date": "2020-11-18",
      "flow": 0.04451510333863275,
      "Latitude": "40.5599018",
      "Longitude": "-74.1747742"
    },
    {
      "SegmentID": "107980",
      "RoadwayName": "ARTHUR KILL ROAD",
      "From": "Crossfield Avenue",
      "To": "Token Street",
      "Direction": "WB",
      "Date": "2020-11-18",
      "flow": 0.03815580286168521,
      "Latitude": "40.5599018",
      "Longitude": "-74.1747742"
    },
    {
      "SegmentID": "108388",
      "RoadwayName": "ARTHUR KILL ROAD",
      "From": "Sharrotts Road",
      "To": "Winant Lane",
      "Direction": "NB",
      "Date": "2020-11-18",
      "flow": 0.017488076311605722,
      "Latitude": "40.5371711",
      "Longitude": "-74.2238646"
    },
    {
      "SegmentID": "108388",
      "RoadwayName": "ARTHUR KILL ROAD",
      "From": "Sharrotts Road",
      "To": "Winant Lane",
      "Direction": "SB",
      "Date": "2020-11-18",
      "flow": 0.011128775834658187,
      "Latitude": "40.5371711",
      "Longitude": "-74.2238646"
    },
    {
      "SegmentID": "133487",
      "RoadwayName": "ATLANTIC AVENUE",
      "From": "97th Street",
      "To": "98th Street",
      "Direction": "EB",
      "Date": "2020-11-18",
      "flow": 0.2066772655007949,
      "Latitude": "40.676825",
      "Longitude": "-73.8403214"
    },
    {
      "SegmentID": "155773",
      "RoadwayName": "ATLANTIC AVENUE",
      "From": "97th Street",
      "To": "98th Street",
      "Direction": "WB",
      "Date": "2020-11-18",
      "flow": 0.17965023847376788,
      "Latitude": "40.676825",
      "Longitude": "-73.8403214"
    },
    {
      "SegmentID": "33255",
      "RoadwayName": "AVENUE B",
      "From": "East 11th Street",
      "To": "East 12th Street",
      "Direction": "NB",
      "Date": "2020-11-18",
      "flow": 0.02384737678855326,
      "Latitude": "40.5836667",
      "Longitude": "-73.9590628"
    },
    {
      "SegmentID": "33255",
      "RoadwayName": "AVENUE B",
      "From": "East 11th Street",
      "To": "East 12th Street",
      "Direction": "SB",
      "Date": "2020-11-18",
      "flow": 0.019077901430842606,
      "Latitude": "40.5836667",
      "Longitude": "-73.9590628"
    },
    {
      "SegmentID": "33798",
      "RoadwayName": "6th AVENUE",
      "From": "East 27th Street",
      "To": "East 28th Street",
      "Direction": "NB",
      "Date": "2020-11-18",
      "flow": 1,
      "Latitude": "40.633204",
      "Longitude": "-73.951"
    },
    {
      "SegmentID": "32128",
      "RoadwayName": "AVENUE OF THE AMERICAS",
      "From": "Charlton Street",
      "To": "Vandam Street",
      "Direction": "NB",
      "Date": "2020-11-18",
      "flow": 0.6534181240063593,
      "Latitude": "40.726941",
      "Longitude": "-74.003278"
    },
    {
      "SegmentID": "26962",
      "RoadwayName": "AVENUE P",
      "From": "Coney Island Avenue",
      "To": "East 12th Street",
      "Direction": "EB",
      "Date": "2020-11-18",
      "flow": 0.06518282988871224,
      "Latitude": "40.608944",
      "Longitude": "-73.973022"
    },
    {
      "SegmentID": "26962",
      "RoadwayName": "AVENUE P",
      "From": "Coney Island Avenue",
      "To": "East 12th Street",
      "Direction": "WB",
      "Date": "2020-11-18",
      "flow": 0.07313195548489666,
      "Latitude": "40.608944",
      "Longitude": "-73.973022"
    },
    {
      "SegmentID": "19984",
      "RoadwayName": "BAY RIDGE PARKWAY",
      "From": "19th Avenue",
      "To": "20th Avenue",
      "Direction": "EB",
      "Date": "2020-11-18",
      "flow": 0.05087440381558029,
      "Latitude": "40.6266777",
      "Longitude": "-74.0179859"
    },
    {
      "SegmentID": "19984",
      "RoadwayName": "BAY RIDGE PARKWAY",
      "From": "19th Avenue",
      "To": "20th Avenue",
      "Direction": "WB",
      "Date": "2020-11-18",
      "flow": 0.030206677265500796,
      "Latitude": "40.6266777",
      "Longitude": "-74.0179859"
    },
    {
      "SegmentID": "18655",
      "RoadwayName": "BENSON AVENUE",
      "From": "19th Avenue",
      "To": "Bay 22nd Street",
      "Direction": "WB",
      "Date": "2020-11-18",
      "flow": 0.009538950715421303,
      "Latitude": "40.7808957",
      "Longitude": "-73.8001321"
    },
    {
      "SegmentID": "120482",
      "RoadwayName": "BLOOMINGDALE ROAD",
      "From": "Clay Pit Road",
      "To": "Woodrow Road",
      "Direction": "NB",
      "Date": "2020-11-18",
      "flow": 0.028616852146263912,
      "Latitude": "40.5398633",
      "Longitude": "-74.2215751"
    },
    {
      "SegmentID": "120482",
      "RoadwayName": "BLOOMINGDALE ROAD",
      "From": "Clay Pit Road",
      "To": "Woodrow Road",
      "Direction": "SB",
      "Date": "2020-11-18",
      "flow": 0.011128775834658187,
      "Latitude": "40.5398633",
      "Longitude": "-74.2215751"
    },
    {
      "SegmentID": "8119",
      "RoadwayName": "BRADLEY AVENUE",
      "From": "Holden Boulevard",
      "To": "Queen Street",
      "Direction": "NB",
      "Date": "2020-11-18",
      "flow": 0.034976152623211444,
      "Latitude": "40.6043093",
      "Longitude": "-74.125676"
    },
    {
      "SegmentID": "8119",
      "RoadwayName": "BRADLEY AVENUE",
      "From": "Holden Boulevard",
      "To": "Queen Street",
      "Direction": "SB",
      "Date": "2020-11-18",
      "flow": 0.0492845786963434,
      "Latitude": "40.6043093",
      "Longitude": "-74.125676"
    },
    {
      "SegmentID": "75406",
      "RoadwayName": "BROADWAY",
      "From": "55th Street",
      "To": "56th Street",
      "Direction": "EB",
      "Date": "2020-11-18",
      "flow": 0.11287758346581876,
      "Latitude": "40.8020029",
      "Longitude": "-73.9679456"
    },
    {
      "SegmentID": "75406",
      "RoadwayName": "BROADWAY",
      "From": "55th Street",
      "To": "56th Street",
      "Direction": "WB",
      "Date": "2020-11-18",
      "flow": 0.08585055643879173,
      "Latitude": "40.8020029",
      "Longitude": "-73.9679456"
    },
    {
      "SegmentID": "33879",
      "RoadwayName": "BROADWAY",
      "From": "West 27th Street",
      "To": "West 28th Street",
      "Direction": "SB",
      "Date": "2020-11-18",
      "flow": 0.012718600953895072,
      "Latitude": "40.8020029",
      "Longitude": "-73.9679456"
    },
    {
      "SegmentID": "34079",
      "RoadwayName": "BROADWAY",
      "From": "West 48 Street",
      "To": "West 47 Street",
      "Direction": "SB",
      "Date": "2020-11-18",
      "flow": 0.20985691573926868,
      "Latitude": "40.8020029",
      "Longitude": "-73.9679456"
    },
    {
      "SegmentID": "10188",
      "RoadwayName": "CASTLETON AVENUE",
      "From": "Clover Road",
      "To": "Rector Street",
      "Direction": "EB",
      "Date": "2020-11-18",
      "flow": 0.03815580286168521,
      "Latitude": "40.7185399",
      "Longitude": "-73.7696735"
    },
    {
      "SegmentID": "10188",
      "RoadwayName": "CASTLETON AVENUE",
      "From": "Clover Road",
      "To": "Rector Street",
      "Direction": "WB",
      "Date": "2020-11-18",
      "flow": 0.04133545310015898,
      "Latitude": "40.7185399",
      "Longitude": "-73.7696735"
    },
    {
      "SegmentID": "257463",
      "RoadwayName": "CENTRAL PARK SOUTH",
      "From": "Center Drive",
      "To": "Grand Army Plaza",
      "Direction": "EB",
      "Date": "2020-11-18",
      "flow": 0.3656597774244833,
      "Latitude": "40.7678115",
      "Longitude": "-73.9811483"
    },
    {
      "SegmentID": "257463",
      "RoadwayName": "CENTRAL PARK SOUTH",
      "From": "Center Drive",
      "To": "Grand Army Plaza",
      "Direction": "WB",
      "Date": "2020-11-18",
      "flow": 0.0794912559618442,
      "Latitude": "40.7678115",
      "Longitude": "-73.9811483"
    },
    {
      "SegmentID": "34262",
      "RoadwayName": "CENTRAL PARK WEST",
      "From": "West 61st Street",
      "To": "West 62nd Street",
      "Direction": "NB",
      "Date": "2020-11-18",
      "flow": 0.09697933227344992,
      "Latitude": "40.7713667",
      "Longitude": "-73.9859786"
    },
    {
      "SegmentID": "42626",
      "RoadwayName": "CHURCH AVENUE",
      "From": "East 94th Street",
      "To": "East 95th Street",
      "Direction": "EB",
      "Date": "2020-11-18",
      "flow": 0.10969793322734499,
      "Latitude": "40.6507967",
      "Longitude": "-73.9495439"
    },
    {
      "SegmentID": "42626",
      "RoadwayName": "CHURCH AVENUE",
      "From": "East 94th Street",
      "To": "East 95th Street",
      "Direction": "WB",
      "Date": "2020-11-18",
      "flow": 0.08267090620031796,
      "Latitude": "40.6507967",
      "Longitude": "-73.9495439"
    },
    {
      "SegmentID": "41736",
      "RoadwayName": "CLARENDON ROAD",
      "From": "Brooklyn Avenue",
      "To": "East 37th Street",
      "Direction": "EB",
      "Date": "2020-11-18",
      "flow": 0.08585055643879173,
      "Latitude": "40.6313796",
      "Longitude": "-73.9416905"
    },
    {
      "SegmentID": "41736",
      "RoadwayName": "CLARENDON ROAD",
      "From": "Brooklyn Avenue",
      "To": "East 37th Street",
      "Direction": "WB",
      "Date": "2020-11-18",
      "flow": 0.08585055643879173,
      "Latitude": "40.6313796",
      "Longitude": "-73.9416905"
    },
    {
      "SegmentID": "29470",
      "RoadwayName": "CLASSON AVENUE",
      "From": "Monroe Street",
      "To": "Madison Street",
      "Direction": "NB",
      "Date": "2020-11-18",
      "flow": 0.06041335453100159,
      "Latitude": "40.688873",
      "Longitude": "-73.96007"
    },
    {
      "SegmentID": "67560",
      "RoadwayName": "CRESCENT STREET",
      "From": "34th Avenue",
      "To": "35th Avenue",
      "Direction": "SB",
      "Date": "2020-11-18",
      "flow": 0.06200317965023847,
      "Latitude": "40.763894",
      "Longitude": "-73.936256"
    },
    {
      "SegmentID": "128569",
      "RoadwayName": "CYPRESS AVENUE",
      "From": "Suydam Street",
      "To": "Hart Street",
      "Direction": "EB",
      "Date": "2020-11-18",
      "flow": 0.07472178060413355,
      "Latitude": "40.8051423",
      "Longitude": "-73.9135096"
    },
    {
      "SegmentID": "128569",
      "RoadwayName": "CYPRESS AVENUE",
      "From": "Suydam Street",
      "To": "Hart Street",
      "Direction": "WB",
      "Date": "2020-11-18",
      "flow": 0.04451510333863275,
      "Latitude": "40.8051423",
      "Longitude": "-73.9135096"
    },
    {
      "SegmentID": "101621",
      "RoadwayName": "DOUGLASTON PARKWAY",
      "From": "Maryland Road",
      "To": "Van Zandt Avenue",
      "Direction": "NB",
      "Date": "2020-11-18",
      "flow": 0.00794912559618442,
      "Latitude": "40.7609994",
      "Longitude": "-73.7424786"
    },
    {
      "SegmentID": "101621",
      "RoadwayName": "DOUGLASTON PARKWAY",
      "From": "Maryland Road",
      "To": "Van Zandt Avenue",
      "Direction": "SB",
      "Date": "2020-11-18",
      "flow": 0.009538950715421303,
      "Latitude": "40.7609994",
      "Longitude": "-73.7424786"
    },
    {
      "SegmentID": "164329",
      "RoadwayName": "EAST 18th STREET",
      "From": "Broadway",
      "To": "Park Avenue South",
      "Direction": "EB",
      "Date": "2020-11-18",
      "flow": 0.02384737678855326,
      "Latitude": "40.8028269",
      "Longitude": "-73.9675054"
    },
    {
      "SegmentID": "106044",
      "RoadwayName": "EAST 23RD STREET",
      "From": "Broadway",
      "To": "Madison Avenue",
      "Direction": "EB",
      "Date": "2020-11-18",
      "flow": 0.1875993640699523,
      "Latitude": "40.8028269",
      "Longitude": "-73.9675054"
    },
    {
      "SegmentID": "106044",
      "RoadwayName": "EAST 23RD STREET",
      "From": "Broadway",
      "To": "Madison Avenue",
      "Direction": "WB",
      "Date": "2020-11-18",
      "flow": 0.05087440381558029,
      "Latitude": "40.8028269",
      "Longitude": "-73.9675054"
    },
    {
      "SegmentID": "45069",
      "RoadwayName": "FLUSHING AVENUE",
      "From": "Seneca Avenue",
      "To": "Onderdonk Avenue",
      "Direction": "NB",
      "Date": "2020-11-18",
      "flow": 0.14626391096979333,
      "Latitude": "40.7028171",
      "Longitude": "-73.9076756"
    },
    {
      "SegmentID": "45069",
      "RoadwayName": "FLUSHING AVENUE",
      "From": "Seneca Avenue",
      "To": "Onderdonk Avenue",
      "Direction": "SB",
      "Date": "2020-11-18",
      "flow": 0.10015898251192369,
      "Latitude": "40.7028171",
      "Longitude": "-73.9076756"
    },
    {
      "SegmentID": "9788",
      "RoadwayName": "FOREST AVENUE",
      "From": "Raymond Place",
      "To": "Manor Road",
      "Direction": "EB",
      "Date": "2020-11-18",
      "flow": 0.0397456279809221,
      "Latitude": "40.629647",
      "Longitude": "-74.125462"
    },
    {
      "SegmentID": "9788",
      "RoadwayName": "FOREST AVENUE",
      "From": "Raymond Place",
      "To": "Manor Road",
      "Direction": "WB",
      "Date": "2020-11-18",
      "flow": 0.03815580286168521,
      "Latitude": "40.629647",
      "Longitude": "-74.125462"
    },
    {
      "SegmentID": "1883",
      "RoadwayName": "FOSTER ROAD",
      "From": "Ramona Avenue",
      "To": "Rathbun Avenue",
      "Direction": "NB",
      "Date": "2020-11-18",
      "flow": 0.014308426073131956,
      "Latitude": "40.534803",
      "Longitude": "-74.215755"
    },
    {
      "SegmentID": "1883",
      "RoadwayName": "FOSTER ROAD",
      "From": "Ramona Avenue",
      "To": "Rathbun Avenue",
      "Direction": "SB",
      "Date": "2020-11-18",
      "flow": 0.006359300476947536,
      "Latitude": "40.534803",
      "Longitude": "-74.215755"
    },
    {
      "SegmentID": "9002816",
      "RoadwayName": "FOUNTAIN AVENUE",
      "From": "Dumont Avenue",
      "To": "Hegeman Avenue",
      "Direction": "NB",
      "Date": "2020-11-18",
      "flow": 0.06518282988871224,
      "Latitude": "40.6775083",
      "Longitude": "-73.8759154"
    },
    {
      "SegmentID": "9002816",
      "RoadwayName": "FOUNTAIN AVENUE",
      "From": "Dumont Avenue",
      "To": "Hegeman Avenue",
      "Direction": "SB",
      "Date": "2020-11-18",
      "flow": 0.07472178060413355,
      "Latitude": "40.6775083",
      "Longitude": "-73.8759154"
    },
    {
      "SegmentID": "152649",
      "RoadwayName": "FRANCIS LEWIS BOULEVARD",
      "From": "115th Avenue",
      "To": "115th Road",
      "Direction": "SB",
      "Date": "2020-11-18",
      "flow": 0.05405405405405406,
      "Latitude": "40.77318",
      "Longitude": "-73.7958221"
    },
    {
      "SegmentID": "150213",
      "RoadwayName": "FRANCIS LEWIS BOULEVARD",
      "From": "115th Avenue",
      "To": "115th Road",
      "Direction": "NB",
      "Date": "2020-11-18",
      "flow": 0.07631160572337042,
      "Latitude": "40.77318",
      "Longitude": "-73.7958221"
    },
    {
      "SegmentID": "9008622",
      "RoadwayName": "FRANCIS LEWIS BOULEVARD",
      "From": "204th Street",
      "To": "Whitehall Terrace",
      "Direction": "SB",
      "Date": "2020-11-18",
      "flow": 0.06995230524642289,
      "Latitude": "40.77318",
      "Longitude": "-73.7958221"
    },
    {
      "SegmentID": "9008935",
      "RoadwayName": "FRANCIS LEWIS BOULEVARD",
      "From": "204th Street",
      "To": "Whitehall Terrace",
      "Direction": "NB",
      "Date": "2020-11-18",
      "flow": 0.07472178060413355,
      "Latitude": "40.77318",
      "Longitude": "-73.7958221"
    },
    {
      "SegmentID": "70734",
      "RoadwayName": "FORT WASHINGTON AVENUE",
      "From": "West 173rd Street",
      "To": "West 172nd Street",
      "Direction": "NB",
      "Date": "2020-11-18",
      "flow": 0.06200317965023847,
      "Latitude": "40.8446216",
      "Longitude": "-73.9386543"
    },
    {
      "SegmentID": "70734",
      "RoadwayName": "FORT WASHINGTON AVENUE",
      "From": "West 173rd Street",
      "To": "West 172nd Street",
      "Direction": "SB",
      "Date": "2020-11-18",
      "flow": 0.05405405405405406,
      "Latitude": "40.8446216",
      "Longitude": "-73.9386543"
    },
    {
      "SegmentID": "29473",
      "RoadwayName": "GATES AVENUE",
      "From": "Classon Avenue",
      "To": "Franklin Avenue",
      "Direction": "EB",
      "Date": "2020-11-18",
      "flow": 0.022257551669316374,
      "Latitude": "40.6895761",
      "Longitude": "-73.9222019"
    },
    {
      "SegmentID": "29473",
      "RoadwayName": "GATES AVENUE",
      "From": "Classon Avenue",
      "To": "Franklin Avenue",
      "Direction": "WB",
      "Date": "2020-11-18",
      "flow": 0.014308426073131956,
      "Latitude": "40.6895761",
      "Longitude": "-73.9222019"
    },
    {
      "SegmentID": "29902",
      "RoadwayName": "GATES AVENUE",
      "From": "Tompkins Avenue",
      "To": "Throop Avenue",
      "Direction": "EB",
      "Date": "2020-11-18",
      "flow": 0.003179650238473768,
      "Latitude": "40.6895761",
      "Longitude": "-73.9222019"
    },
    {
      "SegmentID": "29902",
      "RoadwayName": "GATES AVENUE",
      "From": "Tompkins Avenue",
      "To": "Throop Avenue",
      "Direction": "WB",
      "Date": "2020-11-18",
      "flow": 0.003179650238473768,
      "Latitude": "40.6895761",
      "Longitude": "-73.9222019"
    },
    {
      "SegmentID": "110463",
      "RoadwayName": "GRAND STREET",
      "From": "Waterbury Street",
      "To": "Catherine Street",
      "Direction": "EB",
      "Date": "2020-11-18",
      "flow": 0.08585055643879173,
      "Latitude": "40.7132751",
      "Longitude": "-73.9776678"
    },
    {
      "SegmentID": "110463",
      "RoadwayName": "GRAND STREET",
      "From": "Waterbury Street",
      "To": "Catherine Street",
      "Direction": "WB",
      "Date": "2020-11-18",
      "flow": 0.07472178060413355,
      "Latitude": "40.7132751",
      "Longitude": "-73.9776678"
    },
    {
      "SegmentID": "97278",
      "RoadwayName": "HOLLIS COURT BOULEVARD",
      "From": "189th Street",
      "To": "190th Street",
      "Direction": "EB",
      "Date": "2020-11-18",
      "flow": 0.017488076311605722,
      "Latitude": "40.7510187",
      "Longitude": "-73.7904728"
    },
    {
      "SegmentID": "97278",
      "RoadwayName": "HOLLIS COURT BOULEVARD",
      "From": "189th Street",
      "To": "190th Street",
      "Direction": "WB",
      "Date": "2020-11-18",
      "flow": 0.017488076311605722,
      "Latitude": "40.7510187",
      "Longitude": "-73.7904728"
    },
    {
      "SegmentID": "96042",
      "RoadwayName": "HOMELAWN STREET",
      "From": "84th Avenue",
      "To": "Kendrick Place",
      "Direction": "NB",
      "Date": "2020-11-18",
      "flow": 0.07631160572337042,
      "Latitude": "40.7047189",
      "Longitude": "-73.8315353"
    },
    {
      "SegmentID": "96042",
      "RoadwayName": "HOMELAWN STREET",
      "From": "84th Avenue",
      "To": "Kendrick Place",
      "Direction": "SB",
      "Date": "2020-11-18",
      "flow": 0.08267090620031796,
      "Latitude": "40.7047189",
      "Longitude": "-73.8315353"
    },
    {
      "SegmentID": "43660",
      "RoadwayName": "HOWARD AVENUE",
      "From": "Bainbridge Street",
      "To": "Chauncey Street",
      "Direction": "NB",
      "Date": "2020-11-18",
      "flow": 0.05087440381558029,
      "Latitude": "40.6867268",
      "Longitude": "-73.920755"
    },
    {
      "SegmentID": "32031",
      "RoadwayName": "HUDSON STREET",
      "From": "Horatio Street",
      "To": "Gansevoort Street",
      "Direction": "SB",
      "Date": "2020-11-18",
      "flow": 0.10969793322734499,
      "Latitude": "40.738756",
      "Longitude": "-74.0037878"
    },
    {
      "SegmentID": "2143",
      "RoadwayName": "HUGUENOT AVENUE",
      "From": "Sheldon Avenue",
      "To": "Rensselaer Avenue",
      "Direction": "NB",
      "Date": "2020-11-18",
      "flow": 0.012718600953895072,
      "Latitude": "40.5480112",
      "Longitude": "-74.1836371"
    },
    {
      "SegmentID": "2143",
      "RoadwayName": "HUGUENOT AVENUE",
      "From": "Sheldon Avenue",
      "To": "Rensselaer Avenue",
      "Direction": "SB",
      "Date": "2020-11-18",
      "flow": 0.030206677265500796,
      "Latitude": "40.5480112",
      "Longitude": "-74.1836371"
    },
    {
      "SegmentID": "155435",
      "RoadwayName": "HYLAN BOULEVARD",
      "From": "Hales Avenue",
      "To": "Woods of Arden Road",
      "Direction": "SB",
      "Date": "2020-11-18",
      "flow": 0.04769475357710652,
      "Latitude": "40.534069",
      "Longitude": "-74.159695"
    },
    {
      "SegmentID": "155276",
      "RoadwayName": "HYLAN BOULEVARD",
      "From": "Hales Avenue",
      "To": "Woods of Arden Road",
      "Direction": "NB",
      "Date": "2020-11-18",
      "flow": 0.05087440381558029,
      "Latitude": "40.534069",
      "Longitude": "-74.159695"
    },
    {
      "SegmentID": "119858",
      "RoadwayName": "HYLAN BOULEVARD",
      "From": "Dole Street",
      "To": "Poillon Avenue",
      "Direction": "EB",
      "Date": "2020-11-18",
      "flow": 0.05405405405405406,
      "Latitude": "40.5271772",
      "Longitude": "-74.1726884"
    },
    {
      "SegmentID": "119858",
      "RoadwayName": "HYLAN BOULEVARD",
      "From": "Dole Street",
      "To": "Poillon Avenue",
      "Direction": "WB",
      "Date": "2020-11-18",
      "flow": 0.0492845786963434,
      "Latitude": "40.5271772",
      "Longitude": "-74.1726884"
    },
    {
      "SegmentID": "156689",
      "RoadwayName": "JAMAICA AVENUE",
      "From": "Woodhull Avenue",
      "To": "Carpenter Avenue",
      "Direction": "EB",
      "Date": "2020-11-18",
      "flow": 0.10810810810810811,
      "Latitude": "40.7111124",
      "Longitude": "-73.7661346"
    },
    {
      "SegmentID": "155846",
      "RoadwayName": "JAMAICA AVENUE",
      "From": "197th Street",
      "To": "198th Street",
      "Direction": "WB",
      "Date": "2020-11-18",
      "flow": 0.08585055643879173,
      "Latitude": "40.713726",
      "Longitude": "-73.7627349"
    },
    {
      "SegmentID": "89865",
      "RoadwayName": "JEWEL AVENUE",
      "From": "137th Street",
      "To": "138th Street",
      "Direction": "EB",
      "Date": "2020-11-18",
      "flow": 0.04133545310015898,
      "Latitude": "40.7862331",
      "Longitude": "-73.8318661"
    },
    {
      "SegmentID": "89865",
      "RoadwayName": "JEWEL AVENUE",
      "From": "137th Street",
      "To": "138th Street",
      "Direction": "WB",
      "Date": "2020-11-18",
      "flow": 0.028616852146263912,
      "Latitude": "40.7862331",
      "Longitude": "-73.8318661"
    },
    {
      "SegmentID": "81722",
      "RoadwayName": "JUNCTION BOULEVARD",
      "From": "Horace Harding Expressway Sr S",
      "To": "62nd Drive",
      "Direction": "NB",
      "Date": "2020-11-18",
      "flow": 0.04133545310015898,
      "Latitude": "40.7491675",
      "Longitude": "-73.8694786"
    },
    {
      "SegmentID": "81722",
      "RoadwayName": "JUNCTION BOULEVARD",
      "From": "Horace Harding Expressway Sr S",
      "To": "62nd Drive",
      "Direction": "SB",
      "Date": "2020-11-18",
      "flow": 0.07790143084260731,
      "Latitude": "40.7491675",
      "Longitude": "-73.8694786"
    },
    {
      "SegmentID": "32742",
      "RoadwayName": "LAFAYETTE STREET",
      "From": "East 4th Street",
      "To": "Astor Place",
      "Direction": "NB",
      "Date": "2020-11-18",
      "flow": 0.025437201907790145,
      "Latitude": "40.7267105",
      "Longitude": "-73.9940763"
    },
    {
      "SegmentID": "36277",
      "RoadwayName": "LEXINGTON AVENUE",
      "From": "East 60 Street",
      "To": "East 61 Street",
      "Direction": "SB",
      "Date": "2020-11-18",
      "flow": 0.6565977742448331,
      "Latitude": "40.7648615",
      "Longitude": "-73.972435"
    },
    {
      "SegmentID": "33184",
      "RoadwayName": "LEXINGTON AVENUE",
      "From": "East 26 Street",
      "To": "East 27 Street",
      "Direction": "SB",
      "Date": "2020-11-18",
      "flow": 0.6025437201907791,
      "Latitude": "40.7397346",
      "Longitude": "-73.9793852"
    },
    {
      "SegmentID": "37448",
      "RoadwayName": "LEXINGTON AVENUE",
      "From": "East 73rd Street",
      "To": "East 74th Street",
      "Direction": "SB",
      "Date": "2020-11-18",
      "flow": 0.21621621621621623,
      "Latitude": "40.766698",
      "Longitude": "-73.9511901"
    },
    {
      "SegmentID": "37910",
      "RoadwayName": "LEXINGTON AVENUE",
      "From": "East 99th Street",
      "To": "East 100 Street",
      "Direction": "SB",
      "Date": "2020-11-18",
      "flow": 0.22257551669316375,
      "Latitude": "40.7871867",
      "Longitude": "-73.9480628"
    },
    {
      "SegmentID": "9000174",
      "RoadwayName": "LEXINGTON AVENUE",
      "From": "East 120th Street",
      "To": "East 121st Street",
      "Direction": "SB",
      "Date": "2020-11-18",
      "flow": 0.1669316375198728,
      "Latitude": "40.8015168",
      "Longitude": "-73.940548"
    },
    {
      "SegmentID": "55640",
      "RoadwayName": "LINDEN BOULEVARD",
      "From": "139th Street",
      "To": "140th Street",
      "Direction": "EB",
      "Date": "2020-11-18",
      "flow": 0.1669316375198728,
      "Latitude": "40.6747473",
      "Longitude": "-73.8368685"
    },
    {
      "SegmentID": "55640",
      "RoadwayName": "LINDEN BOULEVARD",
      "From": "139th Street",
      "To": "140th Street",
      "Direction": "WB",
      "Date": "2020-11-18",
      "flow": 0.23370429252782193,
      "Latitude": "40.6747473",
      "Longitude": "-73.8368685"
    },
    {
      "SegmentID": "64564",
      "RoadwayName": "LINDEN BOULEVARD",
      "From": "198th Street",
      "To": "199th Street",
      "Direction": "EB",
      "Date": "2020-11-18",
      "flow": 0.07631160572337042,
      "Latitude": "40.6747473",
      "Longitude": "-73.8368685"
    },
    {
      "SegmentID": "64564",
      "RoadwayName": "LINDEN BOULEVARD",
      "From": "198th Street",
      "To": "199th Street",
      "Direction": "WB",
      "Date": "2020-11-18",
      "flow": 0.058823529411764705,
      "Latitude": "40.6747473",
      "Longitude": "-73.8368685"
    },
    {
      "SegmentID": "41771",
      "RoadwayName": "LINDEN BOULEVARD",
      "From": "East 37th Street",
      "To": "East 38th Street",
      "Direction": "EB",
      "Date": "2020-11-18",
      "flow": 0.15421303656597773,
      "Latitude": "40.6747473",
      "Longitude": "-73.8368685"
    },
    {
      "SegmentID": "41771",
      "RoadwayName": "LINDEN BOULEVARD",
      "From": "East 37th Street",
      "To": "East 38th Street",
      "Direction": "WB",
      "Date": "2020-11-18",
      "flow": 0.08426073131955485,
      "Latitude": "40.6747473",
      "Longitude": "-73.8368685"
    },
    {
      "SegmentID": "12809",
      "RoadwayName": "LITTLE CLOVE ROAD",
      "From": "Northern Boulevard",
      "To": "Bristol Avenue",
      "Direction": "EB",
      "Date": "2020-11-18",
      "flow": 0.003179650238473768,
      "Latitude": "40.6110563",
      "Longitude": "-74.0994904"
    },
    {
      "SegmentID": "12809",
      "RoadwayName": "LITTLE CLOVE ROAD",
      "From": "Northern Boulevard",
      "To": "Bristol Avenue",
      "Direction": "WB",
      "Date": "2020-11-18",
      "flow": 0.0047694753577106515,
      "Latitude": "40.6110563",
      "Longitude": "-74.0994904"
    },
    {
      "SegmentID": "9013285",
      "RoadwayName": "LITTLE NECK PARKWAY",
      "From": "61st Avenue",
      "To": "Grand Central Parkway",
      "Direction": "NB",
      "Date": "2020-11-18",
      "flow": 0.01589825119236884,
      "Latitude": "40.756993",
      "Longitude": "-73.729654"
    },
    {
      "SegmentID": "9013285",
      "RoadwayName": "LITTLE NECK PARKWAY",
      "From": "61st Avenue",
      "To": "Grand Central Parkway",
      "Direction": "SB",
      "Date": "2020-11-18",
      "flow": 0.028616852146263912,
      "Latitude": "40.756993",
      "Longitude": "-73.729654"
    },
    {
      "SegmentID": "36164",
      "RoadwayName": "MADISON AVENUE",
      "From": "East 60th Street",
      "To": "East 61st Street",
      "Direction": "NB",
      "Date": "2020-11-18",
      "flow": 0.21462639109697934,
      "Latitude": "40.7603138",
      "Longitude": "-73.9616495"
    },
    {
      "SegmentID": "35813",
      "RoadwayName": "MADISON AVENUE",
      "From": "East 45th Street",
      "To": "East 46 Street",
      "Direction": "NB",
      "Date": "2020-11-18",
      "flow": 0.09697933227344992,
      "Latitude": "40.6534155",
      "Longitude": "-73.9354065"
    },
    {
      "SegmentID": "37438",
      "RoadwayName": "MADISON AVENUE",
      "From": "East 74th Street",
      "To": "East 75th Street",
      "Direction": "NB",
      "Date": "2020-11-18",
      "flow": 0.21621621621621623,
      "Latitude": "40.7681172",
      "Longitude": "-73.9526585"
    },
    {
      "SegmentID": "157405",
      "RoadwayName": "MAIN STREET",
      "From": "Hoover Ave",
      "To": "82nd Drive",
      "Direction": "SB",
      "Date": "2020-11-18",
      "flow": 0.18124006359300476,
      "Latitude": "40.7119475",
      "Longitude": "-73.8255864"
    },
    {
      "SegmentID": "148940",
      "RoadwayName": "MAIN STREET",
      "From": "Hoover Ave",
      "To": "82nd Drive",
      "Direction": "NB",
      "Date": "2020-11-18",
      "flow": 0.2178060413354531,
      "Latitude": "40.7119475",
      "Longitude": "-73.8255864"
    },
    {
      "SegmentID": "136535",
      "RoadwayName": "MAIN STREET",
      "From": "63rd Avenue",
      "To": "Gravett Road",
      "Direction": "SB",
      "Date": "2020-11-18",
      "flow": 0.033386327503974564,
      "Latitude": "40.755989",
      "Longitude": "-73.72723"
    },
    {
      "SegmentID": "156532",
      "RoadwayName": "MAIN STREET",
      "From": "63rd Avenue",
      "To": "Gravett Road",
      "Direction": "NB",
      "Date": "2020-11-18",
      "flow": 0.02702702702702703,
      "Latitude": "40.755989",
      "Longitude": "-73.72723"
    },
    {
      "SegmentID": "11273",
      "RoadwayName": "MANOR ROAD",
      "From": "Lincoln Street",
      "To": "Croak Avenue",
      "Direction": "NB",
      "Date": "2020-11-18",
      "flow": 0.033386327503974564,
      "Latitude": "40.6092982",
      "Longitude": "-74.1212609"
    },
    {
      "SegmentID": "11273",
      "RoadwayName": "MANOR ROAD",
      "From": "Lincoln Street",
      "To": "Croak Avenue",
      "Direction": "SB",
      "Date": "2020-11-18",
      "flow": 0.02702702702702703,
      "Latitude": "40.6092982",
      "Longitude": "-74.1212609"
    },
    {
      "SegmentID": "101928",
      "RoadwayName": "MARATHON PARKWAY",
      "From": "60th Avenue",
      "To": "61st Avenue",
      "Direction": "NB",
      "Date": "2020-11-18",
      "flow": 0.003179650238473768,
      "Latitude": "40.7580505",
      "Longitude": "-73.7310735"
    },
    {
      "SegmentID": "101928",
      "RoadwayName": "MARATHON PARKWAY",
      "From": "60th Avenue",
      "To": "61st Avenue",
      "Direction": "SB",
      "Date": "2020-11-18",
      "flow": 0.0047694753577106515,
      "Latitude": "40.7580505",
      "Longitude": "-73.7310735"
    },
    {
      "SegmentID": "101855",
      "RoadwayName": "MARATHON PARKWAY",
      "From": "Rushmore Avenue",
      "To": "Morenci Lane",
      "Direction": "NB",
      "Date": "2020-11-18",
      "flow": 0.0047694753577106515,
      "Latitude": "40.762853",
      "Longitude": "-73.741776"
    },
    {
      "SegmentID": "101855",
      "RoadwayName": "MARATHON PARKWAY",
      "From": "Rushmore Avenue",
      "To": "Morenci Lane",
      "Direction": "SB",
      "Date": "2020-11-18",
      "flow": 0.02384737678855326,
      "Latitude": "40.762853",
      "Longitude": "-73.741776"
    },
    {
      "SegmentID": "275887",
      "RoadwayName": "MAURICE AVENUE",
      "From": "56th Drive",
      "To": "56th Avenue",
      "Direction": "NB",
      "Date": "2020-11-18",
      "flow": 0.1685214626391097,
      "Latitude": "40.6088285",
      "Longitude": "-73.9138999"
    },
    {
      "SegmentID": "150346",
      "RoadwayName": "MERRICK BOULEVARD",
      "From": "111th Avenue",
      "To": "111th Road",
      "Direction": "SB",
      "Date": "2020-11-18",
      "flow": 0.13036565977742448,
      "Latitude": "40.6962859",
      "Longitude": "-73.7770912"
    },
    {
      "SegmentID": "156336",
      "RoadwayName": "MERRICK BOULEVARD",
      "From": "111th Avenue",
      "To": "111th Road",
      "Direction": "NB",
      "Date": "2020-11-18",
      "flow": 0.10015898251192369,
      "Latitude": "40.6962859",
      "Longitude": "-73.7770912"
    },
    {
      "SegmentID": "149214",
      "RoadwayName": "MERRICK BOULEVARD",
      "From": "Farmers Blvd",
      "To": "Belknap Street",
      "Direction": "WB",
      "Date": "2020-11-18",
      "flow": 0.11605723370429252,
      "Latitude": "40.7034096",
      "Longitude": "-73.7666687"
    },
    {
      "SegmentID": "135240",
      "RoadwayName": "MERRICK BOULEVARD",
      "From": "Farmers Blvd",
      "To": "Belknap Street",
      "Direction": "EB",
      "Date": "2020-11-18",
      "flow": 0.14149443561208266,
      "Latitude": "40.7034096",
      "Longitude": "-73.7666687"
    },
    {
      "SegmentID": "45497",
      "RoadwayName": "METROPOLITAN AVENUE",
      "From": "55th Street",
      "To": "56th Street",
      "Direction": "EB",
      "Date": "2020-11-18",
      "flow": 0.0985691573926868,
      "Latitude": "40.7130242",
      "Longitude": "-73.9514225"
    },
    {
      "SegmentID": "45497",
      "RoadwayName": "METROPOLITAN AVENUE",
      "From": "55th Street",
      "To": "56th Street",
      "Direction": "WB",
      "Date": "2020-11-18",
      "flow": 0.09538950715421304,
      "Latitude": "40.7130242",
      "Longitude": "-73.9514225"
    },
    {
      "SegmentID": "52614",
      "RoadwayName": "METROPOLITAN AVENUE",
      "From": "Trotting Course Lane",
      "To": "Selfridge Street",
      "Direction": "EB",
      "Date": "2020-11-18",
      "flow": 0.04769475357710652,
      "Latitude": "40.7130242",
      "Longitude": "-73.9514225"
    },
    {
      "SegmentID": "52614",
      "RoadwayName": "METROPOLITAN AVENUE",
      "From": "Trotting Course Lane",
      "To": "Selfridge Street",
      "Direction": "WB",
      "Date": "2020-11-18",
      "flow": 0.08267090620031796,
      "Latitude": "40.7130242",
      "Longitude": "-73.9514225"
    },
    {
      "SegmentID": "147877",
      "RoadwayName": "MIDLAND PARKWAY",
      "From": "Dalny Road",
      "To": "Wexford Terrace",
      "Direction": "SB",
      "Date": "2020-11-18",
      "flow": 0.03815580286168521,
      "Latitude": "40.7141788",
      "Longitude": "-73.7874974"
    },
    {
      "SegmentID": "155775",
      "RoadwayName": "MIDLAND PARKWAY",
      "From": "Dalny Road",
      "To": "Wexford Terrace",
      "Direction": "NB",
      "Date": "2020-11-18",
      "flow": 0.04133545310015898,
      "Latitude": "40.7141788",
      "Longitude": "-73.7874974"
    },
    {
      "SegmentID": "158881",
      "RoadwayName": "PARK AVENUE SOUTH",
      "From": "East 26th Street",
      "To": "East 27th Street",
      "Direction": "NB",
      "Date": "2020-11-18",
      "flow": 0.07313195548489666,
      "Latitude": "40.7415552",
      "Longitude": "-73.9854337"
    },
    {
      "SegmentID": "158578",
      "RoadwayName": "PARK AVENUE SOUTH",
      "From": "East 26th Street",
      "To": "East 27th Street",
      "Direction": "SB",
      "Date": "2020-11-18",
      "flow": 0.05564387917329094,
      "Latitude": "40.7415552",
      "Longitude": "-73.9854337"
    },
    {
      "SegmentID": "91423",
      "RoadwayName": "PARSONS BOULEVARD",
      "From": "Northern Boulevard",
      "To": "37th Avenue",
      "Direction": "NB",
      "Date": "2020-11-18",
      "flow": 0.04292527821939587,
      "Latitude": "40.7530794",
      "Longitude": "-73.9062074"
    },
    {
      "SegmentID": "91423",
      "RoadwayName": "PARSONS BOULEVARD",
      "From": "Northern Boulevard",
      "To": "37th Avenue",
      "Direction": "SB",
      "Date": "2020-11-18",
      "flow": 0.06200317965023847,
      "Latitude": "40.7530794",
      "Longitude": "-73.9062074"
    },
    {
      "SegmentID": "47518",
      "RoadwayName": "PENNSYLVANIA AVENUE",
      "From": "New Lots Avenue",
      "To": "Hegeman Avenue",
      "Direction": "NB",
      "Date": "2020-11-18",
      "flow": 0.3004769475357711,
      "Latitude": "40.6662999",
      "Longitude": "-73.8837211"
    },
    {
      "SegmentID": "47518",
      "RoadwayName": "PENNSYLVANIA AVENUE",
      "From": "New Lots Avenue",
      "To": "Hegeman Avenue",
      "Direction": "SB",
      "Date": "2020-11-18",
      "flow": 0.3354531001589825,
      "Latitude": "40.6662999",
      "Longitude": "-73.8837211"
    },
    {
      "SegmentID": "160187",
      "RoadwayName": "POST AVENUE",
      "From": "Clover Road",
      "To": "Greenleaf Avenue",
      "Direction": "EB",
      "Date": "2020-11-18",
      "flow": 0.05405405405405406,
      "Latitude": "40.7185399",
      "Longitude": "-73.7696735"
    },
    {
      "SegmentID": "160187",
      "RoadwayName": "POST AVENUE",
      "From": "Clover Road",
      "To": "Greenleaf Avenue",
      "Direction": "WB",
      "Date": "2020-11-18",
      "flow": 0.03656597774244833,
      "Latitude": "40.7185399",
      "Longitude": "-73.7696735"
    },
    {
      "SegmentID": "28997",
      "RoadwayName": "PROSPECT PARK WEST",
      "From": "2nd Street",
      "To": "3rd Street",
      "Direction": "SB",
      "Date": "2020-11-18",
      "flow": 0.07790143084260731,
      "Latitude": "40.6360513",
      "Longitude": "-73.7409409"
    },
    {
      "SegmentID": "29479",
      "RoadwayName": "PUTNAM AVENUE",
      "From": "Claver Place",
      "To": "Franklin Avenue",
      "Direction": "EB",
      "Date": "2020-11-18",
      "flow": 0.014308426073131956,
      "Latitude": "40.6835995",
      "Longitude": "-73.9538544"
    },
    {
      "SegmentID": "29479",
      "RoadwayName": "PUTNAM AVENUE",
      "From": "Claver Place",
      "To": "Franklin Avenue",
      "Direction": "WB",
      "Date": "2020-11-18",
      "flow": 0.03815580286168521,
      "Latitude": "40.6835995",
      "Longitude": "-73.9538544"
    },
    {
      "SegmentID": "155455",
      "RoadwayName": "RICHMOND AVENUE",
      "From": "Yukon Avenue",
      "To": "Independence Avenue",
      "Direction": "SB",
      "Date": "2020-11-18",
      "flow": 0.09062003179650238,
      "Latitude": "40.5741893",
      "Longitude": "-74.1638395"
    },
    {
      "SegmentID": "155330",
      "RoadwayName": "RICHMOND AVENUE",
      "From": "Yukon Avenue",
      "To": "Independence Avenue",
      "Direction": "NB",
      "Date": "2020-11-18",
      "flow": 0.09220985691573927,
      "Latitude": "40.5741893",
      "Longitude": "-74.1638395"
    },
    {
      "SegmentID": "6644",
      "RoadwayName": "RICHMOND HILL ROAD",
      "From": "Forest Hill Road",
      "To": "Edinboro Road",
      "Direction": "NB",
      "Date": "2020-11-18",
      "flow": 0.028616852146263912,
      "Latitude": "40.5864271",
      "Longitude": "-74.1462521"
    },
    {
      "SegmentID": "6644",
      "RoadwayName": "RICHMOND HILL ROAD",
      "From": "Forest Hill Road",
      "To": "Edinboro Road",
      "Direction": "SB",
      "Date": "2020-11-18",
      "flow": 0.0397456279809221,
      "Latitude": "40.5864271",
      "Longitude": "-74.1462521"
    },
    {
      "SegmentID": "7453",
      "RoadwayName": "RICHMOND ROAD",
      "From": "Rockland Avenue",
      "To": "Morley Avenue",
      "Direction": "NB",
      "Date": "2020-11-18",
      "flow": 0.02702702702702703,
      "Latitude": "40.5973154",
      "Longitude": "-74.0929447"
    },
    {
      "SegmentID": "7453",
      "RoadwayName": "RICHMOND ROAD",
      "From": "Rockland Avenue",
      "To": "Morley Avenue",
      "Direction": "SB",
      "Date": "2020-11-18",
      "flow": 0.06200317965023847,
      "Latitude": "40.5973154",
      "Longitude": "-74.0929447"
    },
    {
      "SegmentID": "10196",
      "RoadwayName": "RICHMOND TERRACE",
      "From": "Clover Road",
      "To": "Rector Street",
      "Direction": "EB",
      "Date": "2020-11-18",
      "flow": 0.05564387917329094,
      "Latitude": "40.7185399",
      "Longitude": "-73.7696735"
    },
    {
      "SegmentID": "10196",
      "RoadwayName": "RICHMOND TERRACE",
      "From": "Clover Road",
      "To": "Rector Street",
      "Direction": "WB",
      "Date": "2020-11-18",
      "flow": 0.09538950715421304,
      "Latitude": "40.7185399",
      "Longitude": "-73.7696735"
    },
    {
      "SegmentID": "9896",
      "RoadwayName": "RICHMOND TERRACE",
      "From": "Wright Avenue",
      "To": "Emeric Court",
      "Direction": "EB",
      "Date": "2020-11-18",
      "flow": 0.057233704292527825,
      "Latitude": "40.8806472",
      "Longitude": "-73.8331952"
    },
    {
      "SegmentID": "9896",
      "RoadwayName": "RICHMOND TERRACE",
      "From": "Wright Avenue",
      "To": "Emeric Court",
      "Direction": "WB",
      "Date": "2020-11-18",
      "flow": 0.06518282988871224,
      "Latitude": "40.8806472",
      "Longitude": "-73.8331952"
    },
    {
      "SegmentID": "223773",
      "RoadwayName": "RIVERSIDE DRIVE",
      "From": "West 100th Street",
      "To": "West 101st Street",
      "Direction": "NB",
      "Date": "2020-11-18",
      "flow": 0.019077901430842606,
      "Latitude": "40.7968378",
      "Longitude": "-73.9690173"
    },
    {
      "SegmentID": "223773",
      "RoadwayName": "RIVERSIDE DRIVE",
      "From": "West 100th Street",
      "To": "West 101st Street",
      "Direction": "SB",
      "Date": "2020-11-18",
      "flow": 0.012718600953895072,
      "Latitude": "40.7968378",
      "Longitude": "-73.9690173"
    },
    {
      "SegmentID": "34402",
      "RoadwayName": "RIVERSIDE DRIVE",
      "From": "West 73rd Street",
      "To": "West 74th Street",
      "Direction": "NB",
      "Date": "2020-11-18",
      "flow": 0.017488076311605722,
      "Latitude": "40.7804401",
      "Longitude": "-73.9838547"
    },
    {
      "SegmentID": "34402",
      "RoadwayName": "RIVERSIDE DRIVE",
      "From": "West 73rd Street",
      "To": "West 74th Street",
      "Direction": "SB",
      "Date": "2020-11-18",
      "flow": 0.014308426073131956,
      "Latitude": "40.7804401",
      "Longitude": "-73.9838547"
    },
    {
      "SegmentID": "167454",
      "RoadwayName": "ROCKAWAY AVENUE",
      "From": "Hegeman Avenue",
      "To": "Linden Boulevard",
      "Direction": "NB",
      "Date": "2020-11-18",
      "flow": 0.11128775834658187,
      "Latitude": "40.664857",
      "Longitude": "-73.880222"
    },
    {
      "SegmentID": "167454",
      "RoadwayName": "ROCKAWAY AVENUE",
      "From": "Hegeman Avenue",
      "To": "Linden Boulevard",
      "Direction": "SB",
      "Date": "2020-11-18",
      "flow": 0.12400635930047695,
      "Latitude": "40.664857",
      "Longitude": "-73.880222"
    },
    {
      "SegmentID": "29668",
      "RoadwayName": "ROGERS AVENUE",
      "From": "St Marks Avenue",
      "To": "Prospect Place",
      "Direction": "NB",
      "Date": "2020-11-18",
      "flow": 0.28298887122416533,
      "Latitude": "40.7186515",
      "Longitude": "-73.894805"
    },
    {
      "SegmentID": "91535",
      "RoadwayName": "ROOSEVELT AVENUE",
      "From": "147th Street",
      "To": "149th Street",
      "Direction": "EB",
      "Date": "2020-11-18",
      "flow": 0.012718600953895072,
      "Latitude": "40.7582939",
      "Longitude": "-73.8342154"
    },
    {
      "SegmentID": "91535",
      "RoadwayName": "ROOSEVELT AVENUE",
      "From": "147th Street",
      "To": "149th Street",
      "Direction": "WB",
      "Date": "2020-11-18",
      "flow": 0.030206677265500796,
      "Latitude": "40.7582939",
      "Longitude": "-73.8342154"
    },
    {
      "SegmentID": "91529",
      "RoadwayName": "SANFORD AVENUE",
      "From": "147th Street",
      "To": "149th Street",
      "Direction": "EB",
      "Date": "2020-11-18",
      "flow": 0.02066772655007949,
      "Latitude": "40.7746184",
      "Longitude": "-73.819653"
    },
    {
      "SegmentID": "91529",
      "RoadwayName": "SANFORD AVENUE",
      "From": "147th Street",
      "To": "149th Street",
      "Direction": "WB",
      "Date": "2020-11-18",
      "flow": 0.025437201907790145,
      "Latitude": "40.7746184",
      "Longitude": "-73.819653"
    },
    {
      "SegmentID": "70953",
      "RoadwayName": "ST NICHOLAS AVENUE",
      "From": "West 176th Street",
      "To": "West 175th Street",
      "Direction": "NB",
      "Date": "2020-11-18",
      "flow": 0.12400635930047695,
      "Latitude": "40.8241432",
      "Longitude": "-73.9446885"
    },
    {
      "SegmentID": "70953",
      "RoadwayName": "ST NICHOLAS AVENUE",
      "From": "West 176th Street",
      "To": "West 175th Street",
      "Direction": "SB",
      "Date": "2020-11-18",
      "flow": 0.10810810810810811,
      "Latitude": "40.8241432",
      "Longitude": "-73.9446885"
    },
    {
      "SegmentID": "67871",
      "RoadwayName": "STEINWAY STREET",
      "From": "34th Avenue",
      "To": "35th Avenue",
      "Direction": "NB",
      "Date": "2020-11-18",
      "flow": 0.0794912559618442,
      "Latitude": "40.763894",
      "Longitude": "-73.936256"
    },
    {
      "SegmentID": "67871",
      "RoadwayName": "STEINWAY STREET",
      "From": "34th Avenue",
      "To": "35th Avenue",
      "Direction": "SB",
      "Date": "2020-11-18",
      "flow": 0.05246422893481717,
      "Latitude": "40.763894",
      "Longitude": "-73.936256"
    },
    {
      "SegmentID": "219672",
      "RoadwayName": "TOMPKINS AVENUE",
      "From": "Jefferson Avenue",
      "To": "Hancock Street",
      "Direction": "SB",
      "Date": "2020-11-18",
      "flow": 0.11287758346581876,
      "Latitude": "40.6044487",
      "Longitude": "-74.0653278"
    },
    {
      "SegmentID": "159727",
      "RoadwayName": "TRAVIS AVENUE",
      "From": "Freedom Avenue",
      "To": "Mulberry Avenue",
      "Direction": "EB",
      "Date": "2020-11-18",
      "flow": 0.0397456279809221,
      "Latitude": "40.5964537",
      "Longitude": "-74.1637458"
    },
    {
      "SegmentID": "159727",
      "RoadwayName": "TRAVIS AVENUE",
      "From": "Freedom Avenue",
      "To": "Mulberry Avenue",
      "Direction": "WB",
      "Date": "2020-11-18",
      "flow": 0.04769475357710652,
      "Latitude": "40.5964537",
      "Longitude": "-74.1637458"
    },
    {
      "SegmentID": "91315",
      "RoadwayName": "UNION STREET",
      "From": "39th Avenue",
      "To": "Roosevelt Avenue",
      "Direction": "NB",
      "Date": "2020-11-18",
      "flow": 0.0397456279809221,
      "Latitude": "40.677316",
      "Longitude": "-73.98311"
    },
    {
      "SegmentID": "91315",
      "RoadwayName": "UNION STREET",
      "From": "39th Avenue",
      "To": "Roosevelt Avenue",
      "Direction": "SB",
      "Date": "2020-11-18",
      "flow": 0.06359300476947535,
      "Latitude": "40.677316",
      "Longitude": "-73.98311"
    },
    {
      "SegmentID": "22534",
      "RoadwayName": "UNION STREET",
      "From": "Hoyt Street",
      "To": "Bond Street",
      "Direction": "EB",
      "Date": "2020-11-18",
      "flow": 0.014308426073131956,
      "Latitude": "40.677316",
      "Longitude": "-73.98311"
    },
    {
      "SegmentID": "178889",
      "RoadwayName": "UNION TURNPIKE",
      "From": "141st Street",
      "To": "Main Street",
      "Direction": "WB",
      "Date": "2020-11-18",
      "flow": 0.06995230524642289,
      "Latitude": "40.7454151",
      "Longitude": "-73.715169"
    },
    {
      "SegmentID": "178893",
      "RoadwayName": "UNION TURNPIKE",
      "From": "141st Street",
      "To": "Main Street",
      "Direction": "EB",
      "Date": "2020-11-18",
      "flow": 0.1494435612082671,
      "Latitude": "40.7454151",
      "Longitude": "-73.715169"
    },
    {
      "SegmentID": "145416",
      "RoadwayName": "UNION TURNPIKE",
      "From": "195th Street",
      "To": "196th Street",
      "Direction": "EB",
      "Date": "2020-11-18",
      "flow": 0.01589825119236884,
      "Latitude": "40.7454151",
      "Longitude": "-73.715169"
    },
    {
      "SegmentID": "156483",
      "RoadwayName": "UNION TURNPIKE",
      "From": "195 Street",
      "To": "196 Street",
      "Direction": "WB",
      "Date": "2020-11-18",
      "flow": 0.02384737678855326,
      "Latitude": "40.7454151",
      "Longitude": "-73.715169"
    },
    {
      "SegmentID": "157162",
      "RoadwayName": "UTOPIA PARKWAY",
      "From": "65th Avenue",
      "To": "67th Avenue",
      "Direction": "NB",
      "Date": "2020-11-18",
      "flow": 0.03179650238473768,
      "Latitude": "40.730953",
      "Longitude": "-73.851137"
    },
    {
      "SegmentID": "156873",
      "RoadwayName": "UTOPIA PARKWAY",
      "From": "65th Avenue",
      "To": "67th Avenue",
      "Direction": "SB",
      "Date": "2020-11-18",
      "flow": 0.028616852146263912,
      "Latitude": "40.730953",
      "Longitude": "-73.851137"
    },
    {
      "SegmentID": "234174",
      "RoadwayName": "VERMONT PLACE",
      "From": "Highland Park Greenway",
      "To": "Highland Boulevard",
      "Direction": "NB",
      "Date": "2020-11-18",
      "flow": 0.08744038155802862,
      "Latitude": "40.6913402",
      "Longitude": "-73.890581"
    },
    {
      "SegmentID": "234174",
      "RoadwayName": "VERMONT PLACE",
      "From": "Highland Park Greenway",
      "To": "Highland Boulevard",
      "Direction": "SB",
      "Date": "2020-11-18",
      "flow": 0.09697933227344992,
      "Latitude": "40.6913402",
      "Longitude": "-73.890581"
    },
    {
      "SegmentID": "12829",
      "RoadwayName": "VICTORY BOULEVARD",
      "From": "Cypress Avenue",
      "To": "Marx Street",
      "Direction": "EB",
      "Date": "2020-11-18",
      "flow": 0.03179650238473768,
      "Latitude": "40.8051423",
      "Longitude": "-73.9135096"
    },
    {
      "SegmentID": "12829",
      "RoadwayName": "VICTORY BOULEVARD",
      "From": "Cypress Avenue",
      "To": "Marx Street",
      "Direction": "WB",
      "Date": "2020-11-18",
      "flow": 0.03179650238473768,
      "Latitude": "40.8051423",
      "Longitude": "-73.9135096"
    },
    {
      "SegmentID": "38916",
      "RoadwayName": "WEST 145th STREET",
      "From": "St Nicholas Avenue",
      "To": "Edgecombe Avenue",
      "Direction": "EB",
      "Date": "2020-11-18",
      "flow": 0.302066772655008,
      "Latitude": "40.8241432",
      "Longitude": "-73.9446885"
    },
    {
      "SegmentID": "38916",
      "RoadwayName": "WEST 145th STREET",
      "From": "St Nicholas Avenue",
      "To": "Edgecombe Avenue",
      "Direction": "WB",
      "Date": "2020-11-18",
      "flow": 0.16375198728139906,
      "Latitude": "40.8241432",
      "Longitude": "-73.9446885"
    },
    {
      "SegmentID": "34013",
      "RoadwayName": "WEST 30th STREET",
      "From": "5th Avenue",
      "To": "Broadway",
      "Direction": "EB",
      "Date": "2020-11-18",
      "flow": 0.03815580286168521,
      "Latitude": "40.7647467",
      "Longitude": "-73.9726829"
    },
    {
      "SegmentID": "34027",
      "RoadwayName": "WEST 34th STREET",
      "From": "5th Avenue",
      "To": "6th Avenue",
      "Direction": "EB",
      "Date": "2020-11-18",
      "flow": 0.12559618441971382,
      "Latitude": "40.7647467",
      "Longitude": "-73.9726829"
    },
    {
      "SegmentID": "34027",
      "RoadwayName": "WEST 34th STREET",
      "From": "5th Avenue",
      "To": "6th Avenue",
      "Direction": "WB",
      "Date": "2020-11-18",
      "flow": 0.0890302066772655,
      "Latitude": "40.7647467",
      "Longitude": "-73.9726829"
    },
    {
      "SegmentID": "34170",
      "RoadwayName": "WEST 39th STREET",
      "From": "5th Avenue",
      "To": "6th Avenue",
      "Direction": "WB",
      "Date": "2020-11-18",
      "flow": 0.10810810810810811,
      "Latitude": "40.7647467",
      "Longitude": "-73.9726829"
    },
    {
      "SegmentID": "34206",
      "RoadwayName": "WEST 48th STREET",
      "From": "Rockefeller Plaza",
      "To": "6th Avenue",
      "Direction": "EB",
      "Date": "2020-11-18",
      "flow": 0.39268680445151033,
      "Latitude": "40.7583955",
      "Longitude": "-73.9789868"
    },
    {
      "SegmentID": "35996",
      "RoadwayName": "WEST 55th STREET",
      "From": "5th Avenue",
      "To": "6th Avenue",
      "Direction": "WB",
      "Date": "2020-11-18",
      "flow": 0.05564387917329094,
      "Latitude": "40.7647467",
      "Longitude": "-73.9726829"
    },
    {
      "SegmentID": "36009",
      "RoadwayName": "WEST 56th STREET",
      "From": "5th Avenue",
      "To": "6th Avenue",
      "Direction": "EB",
      "Date": "2020-11-18",
      "flow": 0.057233704292527825,
      "Latitude": "40.7647467",
      "Longitude": "-73.9726829"
    },
    {
      "SegmentID": "36012",
      "RoadwayName": "WEST 57th STREET",
      "From": "5th Avenue",
      "To": "6th Avenue",
      "Direction": "EB",
      "Date": "2020-11-18",
      "flow": 0.08267090620031796,
      "Latitude": "40.7647467",
      "Longitude": "-73.9726829"
    },
    {
      "SegmentID": "36012",
      "RoadwayName": "WEST 57th STREET",
      "From": "5th Avenue",
      "To": "6th Avenue",
      "Direction": "WB",
      "Date": "2020-11-18",
      "flow": 0.10333863275039745,
      "Latitude": "40.7647467",
      "Longitude": "-73.9726829"
    },
    {
      "SegmentID": "34334",
      "RoadwayName": "WEST END AVENUE",
      "From": "West 61th Street",
      "To": "West 62nd Street",
      "Direction": "NB",
      "Date": "2020-11-18",
      "flow": 0.04451510333863275,
      "Latitude": "40.7741833",
      "Longitude": "-73.9907183"
    },
    {
      "SegmentID": "34334",
      "RoadwayName": "WEST END AVENUE",
      "From": "West 61st Street",
      "To": "West 62nd Street",
      "Direction": "SB",
      "Date": "2020-11-18",
      "flow": 0.07631160572337042,
      "Latitude": "40.7713667",
      "Longitude": "-73.9859786"
    },
    {
      "SegmentID": "34408",
      "RoadwayName": "WEST END AVENUE",
      "From": "West 73rd Street",
      "To": "West 74th Street",
      "Direction": "NB",
      "Date": "2020-11-18",
      "flow": 0.02702702702702703,
      "Latitude": "40.7804401",
      "Longitude": "-73.9838547"
    },
    {
      "SegmentID": "34408",
      "RoadwayName": "WEST END AVENUE",
      "From": "West 73rd Street",
      "To": "West 74th Street",
      "Direction": "SB",
      "Date": "2020-11-18",
      "flow": 0.03179650238473768,
      "Latitude": "40.7804401",
      "Longitude": "-73.9838547"
    },
    {
      "SegmentID": "37279",
      "RoadwayName": "WEST END AVENUE",
      "From": "West 98th Street",
      "To": "West 99th Street",
      "Direction": "NB",
      "Date": "2020-11-18",
      "flow": 0.02702702702702703,
      "Latitude": "40.7960465",
      "Longitude": "-73.971038"
    },
    {
      "SegmentID": "37279",
      "RoadwayName": "WEST END AVENUE",
      "From": "West 98th Street",
      "To": "West 99th Street",
      "Direction": "SB",
      "Date": "2020-11-18",
      "flow": 0.04133545310015898,
      "Latitude": "40.7960465",
      "Longitude": "-73.971038"
    },
    {
      "SegmentID": "7886",
      "RoadwayName": "WILLOWBROOK ROAD",
      "From": "Seneca Loop",
      "To": "Collfield Avenue",
      "Direction": "EB",
      "Date": "2020-11-18",
      "flow": 0.00794912559618442,
      "Latitude": "40.6052288",
      "Longitude": "-74.1464988"
    },
    {
      "SegmentID": "7886",
      "RoadwayName": "WILLOWBROOK ROAD",
      "From": "Seneca Loop",
      "To": "Collfield Avenue",
      "Direction": "WB",
      "Date": "2020-11-18",
      "flow": 0.009538950715421303,
      "Latitude": "40.6052288",
      "Longitude": "-74.1464988"
    },
    {
      "SegmentID": "2760",
      "RoadwayName": "WOODROW ROAD",
      "From": "Everton Avenue",
      "To": "Delmar Avenue",
      "Direction": "EB",
      "Date": "2020-11-18",
      "flow": 0.012718600953895072,
      "Latitude": "40.5416162",
      "Longitude": "-74.2097325"
    },
    {
      "SegmentID": "2760",
      "RoadwayName": "WOODROW ROAD",
      "From": "Everton Avenue",
      "To": "Delmar Avenue",
      "Direction": "WB",
      "Date": "2020-11-18",
      "flow": 0.01589825119236884,
      "Latitude": "40.5416162",
      "Longitude": "-74.2097325"
    },
    {
      "SegmentID": "68200",
      "RoadwayName": "WOODSIDE AVENUE",
      "From": "Lirr Main Line",
      "To": "Barnett Avenue",
      "Direction": "NB",
      "Date": "2020-11-18",
      "flow": 0.017488076311605722,
      "Latitude": "40.7427779",
      "Longitude": "-73.8926679"
    },
    {
      "SegmentID": "68200",
      "RoadwayName": "WOODSIDE AVENUE",
      "From": "Lirr Main Line",
      "To": "Barnett Avenue",
      "Direction": "SB",
      "Date": "2020-11-18",
      "flow": 0.02384737678855326,
      "Latitude": "40.7427779",
      "Longitude": "-73.8926679"
    },
    {
      "SegmentID": "184645",
      "RoadwayName": "YELLOWSTONE BOULEVARD",
      "From": "Alderton Street",
      "To": "Woodhaven Boulevard",
      "Direction": "NB",
      "Date": "2020-11-18",
      "flow": 0.02066772655007949,
      "Latitude": "40.7283401",
      "Longitude": "-73.8710285"
    },
    {
      "SegmentID": "184645",
      "RoadwayName": "YELLOWSTONE BOULEVARD",
      "From": "Alderton Street",
      "To": "Woodhaven Boulevard",
      "Direction": "SB",
      "Date": "2020-11-18",
      "flow": 0.030206677265500796,
      "Latitude": "40.7283401",
      "Longitude": "-73.8710285"
    },
    {
      "SegmentID": "36803",
      "RoadwayName": "YORK AVENUE",
      "From": "East 74th Street",
      "To": "East 75th Street",
      "Direction": "NB",
      "Date": "2020-11-18",
      "flow": 0.04451510333863275,
      "Latitude": "40.7681172",
      "Longitude": "-73.9526585"
    },
    {
      "SegmentID": "36803",
      "RoadwayName": "YORK AVENUE",
      "From": "East 74th Street",
      "To": "East 75th Street",
      "Direction": "SB",
      "Date": "2020-11-18",
      "flow": 0.05246422893481717,
      "Latitude": "40.7681172",
      "Longitude": "-73.9526585"
    },
    {
      "SegmentID": "33652",
      "RoadwayName": "7th AVENUE",
      "From": "East 27th Street",
      "To": "East 28th Street",
      "Direction": "SB",
      "Date": "2020-11-18",
      "flow": 0.8600953895071543,
      "Latitude": "40.633204",
      "Longitude": "-73.951"
    },
    {
      "SegmentID": "35832",
      "RoadwayName": "WEST 49th STREET",
      "From": "Rockefeller Plaza",
      "To": "6th Avenue",
      "Direction": "WB",
      "Date": "2020-11-18",
      "flow": 0.0985691573926868,
      "Latitude": "40.7583955",
      "Longitude": "-73.9789868"
    }
  ],
  "2:00-3:00AM": [
    {
      "SegmentID": "36403",
      "RoadwayName": "1st AVENUE",
      "From": "East 60th Street",
      "To": "East 61st Street",
      "Direction": "NB",
      "Date": "2020-11-18",
      "flow": 0.36885245901639346,
      "Latitude": "40.7603138",
      "Longitude": "-73.9616495"
    },
    {
      "SegmentID": "260786",
      "RoadwayName": "1 Avenue",
      "From": "E 120th St",
      "To": "E 124th St",
      "Direction": "NB",
      "Date": "2020-11-18",
      "flow": 0.6967213114754098,
      "Latitude": "40.8015168",
      "Longitude": "-73.940548"
    },
    {
      "SegmentID": "33119",
      "RoadwayName": "1st AVENUE",
      "From": "East 11th Street",
      "To": "East 12th Street",
      "Direction": "NB",
      "Date": "2020-11-18",
      "flow": 0.4077868852459016,
      "Latitude": "40.5836667",
      "Longitude": "-73.9590628"
    },
    {
      "SegmentID": "34654",
      "RoadwayName": "1st AVENUE",
      "From": "East 26th Street",
      "To": "East 27th Street",
      "Direction": "NB",
      "Date": "2020-11-18",
      "flow": 0.45286885245901637,
      "Latitude": "40.7409558",
      "Longitude": "-73.9822976"
    },
    {
      "SegmentID": "177454",
      "RoadwayName": "103rd STREET",
      "From": "Northern Boulevard",
      "To": "34th Avenue",
      "Direction": "NB",
      "Date": "2020-11-18",
      "flow": 0.004098360655737705,
      "Latitude": "40.7530794",
      "Longitude": "-73.9062074"
    },
    {
      "SegmentID": "177488",
      "RoadwayName": "108th STREET",
      "From": "Northern Boulevard",
      "To": "34thAvenue",
      "Direction": "NB",
      "Date": "2020-11-18",
      "flow": 0.0430327868852459,
      "Latitude": "40.7530794",
      "Longitude": "-73.9062074"
    },
    {
      "SegmentID": "177488",
      "RoadwayName": "108th STREET",
      "From": "Northern Boulevard",
      "To": "34th Avenue",
      "Direction": "SB",
      "Date": "2020-11-18",
      "flow": 0.06762295081967214,
      "Latitude": "40.7530794",
      "Longitude": "-73.9062074"
    },
    {
      "SegmentID": "33411",
      "RoadwayName": "11th AVENUE",
      "From": "West 27th Street",
      "To": "West 28th Street",
      "Direction": "SB",
      "Date": "2020-11-18",
      "flow": 0.22336065573770492,
      "Latitude": "40.7473864",
      "Longitude": "-73.9956068"
    },
    {
      "SegmentID": "33615",
      "RoadwayName": "11th AVENUE",
      "From": "West 44th Street",
      "To": "West 45th Street",
      "Direction": "NB",
      "Date": "2020-11-18",
      "flow": 0.24385245901639344,
      "Latitude": "40.7572239",
      "Longitude": "-73.9857273"
    },
    {
      "SegmentID": "33615",
      "RoadwayName": "11 AVENUE",
      "From": "West 44th Street",
      "To": "West 45th Street",
      "Direction": "SB",
      "Date": "2020-11-18",
      "flow": 0.3360655737704918,
      "Latitude": "40.7127281",
      "Longitude": "-74.0060152"
    },
    {
      "SegmentID": "150039",
      "RoadwayName": "164th STREET",
      "From": "65th Avenue",
      "To": "67th Avenue",
      "Direction": "SB",
      "Date": "2020-11-18",
      "flow": 0.04918032786885246,
      "Latitude": "40.730953",
      "Longitude": "-73.851137"
    },
    {
      "SegmentID": "156450",
      "RoadwayName": "164th STREET",
      "From": "65th Avenue",
      "To": "67th Avenue",
      "Direction": "NB",
      "Date": "2020-11-18",
      "flow": 0.0389344262295082,
      "Latitude": "40.730953",
      "Longitude": "-73.851137"
    },
    {
      "SegmentID": "133253",
      "RoadwayName": "188th STREET",
      "From": "Horace Harding Expressway Sr S",
      "To": "64th Avenue",
      "Direction": "NB",
      "Date": "2020-11-18",
      "flow": 0.0471311475409836,
      "Latitude": "40.7317757",
      "Longitude": "-73.8535154"
    },
    {
      "SegmentID": "133254",
      "RoadwayName": "188th STREET",
      "From": "Horace Harding Expressway Sr S",
      "To": "64th Avenue",
      "Direction": "SB",
      "Date": "2020-11-18",
      "flow": 0.018442622950819672,
      "Latitude": "40.7317757",
      "Longitude": "-73.8535154"
    },
    {
      "SegmentID": "33115",
      "RoadwayName": "2nd AVENUE",
      "From": "East 12th Street",
      "To": "East 13th Street",
      "Direction": "SB",
      "Date": "2020-11-18",
      "flow": 0.3831967213114754,
      "Latitude": "40.591064",
      "Longitude": "-73.958862"
    },
    {
      "SegmentID": "36579",
      "RoadwayName": "2nd AVENUE",
      "From": "East 73rd Street",
      "To": "East 74th Street",
      "Direction": "SB",
      "Date": "2020-11-18",
      "flow": 0.3237704918032787,
      "Latitude": "40.766698",
      "Longitude": "-73.9511901"
    },
    {
      "SegmentID": "156485",
      "RoadwayName": "23rd AVENUE",
      "From": "83rd Street",
      "To": "85th Street",
      "Direction": "EB",
      "Date": "2020-11-18",
      "flow": 0.14549180327868852,
      "Latitude": "40.7065835",
      "Longitude": "-73.8661202"
    },
    {
      "SegmentID": "148877",
      "RoadwayName": "23rd AVENUE",
      "From": "83rd Street",
      "To": "85th Street",
      "Direction": "WB",
      "Date": "2020-11-18",
      "flow": 0.040983606557377046,
      "Latitude": "40.7065835",
      "Longitude": "-73.8661202"
    },
    {
      "SegmentID": "32932",
      "RoadwayName": "3rd AVENUE",
      "From": "East 12th Street",
      "To": "East 13th Street",
      "Direction": "NB",
      "Date": "2020-11-18",
      "flow": 0.19262295081967212,
      "Latitude": "40.591064",
      "Longitude": "-73.958862"
    },
    {
      "SegmentID": "32932",
      "RoadwayName": "3rd AVENUE",
      "From": "East 12th Street",
      "To": "East 13th Street",
      "Direction": "SB",
      "Date": "2020-11-18",
      "flow": 0.1885245901639344,
      "Latitude": "40.591064",
      "Longitude": "-73.958862"
    },
    {
      "SegmentID": "17642",
      "RoadwayName": "3rd AVENUE",
      "From": "Senator Street",
      "To": "6th Street",
      "Direction": "NB",
      "Date": "2020-11-18",
      "flow": 0.0471311475409836,
      "Latitude": "40.6375525",
      "Longitude": "-74.0255652"
    },
    {
      "SegmentID": "17642",
      "RoadwayName": "3rd AVENUE",
      "From": "Senator Street",
      "To": "68th Street",
      "Direction": "SB",
      "Date": "2020-11-18",
      "flow": 0.0389344262295082,
      "Latitude": "40.6375525",
      "Longitude": "-74.0255652"
    },
    {
      "SegmentID": "76510",
      "RoadwayName": "31st AVENUE",
      "From": "87th Street",
      "To": "88th Street",
      "Direction": "EB",
      "Date": "2020-11-18",
      "flow": 0.03483606557377049,
      "Latitude": "40.6484429",
      "Longitude": "-73.8430094"
    },
    {
      "SegmentID": "76510",
      "RoadwayName": "31st AVENUE",
      "From": "87th Street",
      "To": "88th Street",
      "Direction": "WB",
      "Date": "2020-11-18",
      "flow": 0.03278688524590164,
      "Latitude": "40.6484429",
      "Longitude": "-73.8430094"
    },
    {
      "SegmentID": "67665",
      "RoadwayName": "31st STREET",
      "From": "34th Avenue",
      "To": "35th Avenue",
      "Direction": "NB",
      "Date": "2020-11-18",
      "flow": 0.10040983606557377,
      "Latitude": "40.763894",
      "Longitude": "-73.936256"
    },
    {
      "SegmentID": "67665",
      "RoadwayName": "31st STREET",
      "From": "34th Avenue",
      "To": "35th Avenue",
      "Direction": "SB",
      "Date": "2020-11-18",
      "flow": 0.07581967213114754,
      "Latitude": "40.763894",
      "Longitude": "-73.936256"
    },
    {
      "SegmentID": "97521",
      "RoadwayName": "35th AVENUE",
      "From": "202nd Street",
      "To": "203rd Street",
      "Direction": "EB",
      "Date": "2020-11-18",
      "flow": 0.020491803278688523,
      "Latitude": "40.712225",
      "Longitude": "-73.758246"
    },
    {
      "SegmentID": "97521",
      "RoadwayName": "35th AVENUE",
      "From": "202nd Street",
      "To": "203rd Street",
      "Direction": "WB",
      "Date": "2020-11-18",
      "flow": 0.020491803278688523,
      "Latitude": "40.712225",
      "Longitude": "-73.758246"
    },
    {
      "SegmentID": "106891",
      "RoadwayName": "39th AVENUE",
      "From": "50th Street",
      "To": "51st Street",
      "Direction": "EB",
      "Date": "2020-11-18",
      "flow": 0.012295081967213115,
      "Latitude": "40.7616618",
      "Longitude": "-73.9838968"
    },
    {
      "SegmentID": "106891",
      "RoadwayName": "39th AVENUE",
      "From": "50th Street",
      "To": "51st Street",
      "Direction": "WB",
      "Date": "2020-11-18",
      "flow": 0.01639344262295082,
      "Latitude": "40.7616618",
      "Longitude": "-73.9838968"
    },
    {
      "SegmentID": "131907",
      "RoadwayName": "47th AVENUE",
      "From": "189th Street",
      "To": "190th Street",
      "Direction": "EB",
      "Date": "2020-11-18",
      "flow": 0.006147540983606557,
      "Latitude": "40.7510187",
      "Longitude": "-73.7904728"
    },
    {
      "SegmentID": "131907",
      "RoadwayName": "47th AVENUE",
      "From": "189th Street",
      "To": "190th Street",
      "Direction": "WB",
      "Date": "2020-11-18",
      "flow": 0,
      "Latitude": "40.7510187",
      "Longitude": "-73.7904728"
    },
    {
      "SegmentID": "67969",
      "RoadwayName": "48th STREET",
      "From": "Northen Boulevard",
      "To": "37th Avenue",
      "Direction": "NB",
      "Date": "2020-11-18",
      "flow": 0.020491803278688523,
      "Latitude": "40.7539451",
      "Longitude": "-73.8605053"
    },
    {
      "SegmentID": "67969",
      "RoadwayName": "48th STREET",
      "From": "Northen Boulevard",
      "To": "37th Avenue",
      "Direction": "SB",
      "Date": "2020-11-18",
      "flow": 0.012295081967213115,
      "Latitude": "40.7539451",
      "Longitude": "-73.8605053"
    },
    {
      "SegmentID": "36026",
      "RoadwayName": "5th AVENUE",
      "From": "East 60th Street",
      "To": "East 61st Street",
      "Direction": "SB",
      "Date": "2020-11-18",
      "flow": 0.23155737704918034,
      "Latitude": "40.7603138",
      "Longitude": "-73.9616495"
    },
    {
      "SegmentID": "33012",
      "RoadwayName": "5 AVENUE",
      "From": "Broadway",
      "To": "West 25th Street",
      "Direction": "SB",
      "Date": "2020-11-18",
      "flow": 0.2725409836065574,
      "Latitude": "40.5467724",
      "Longitude": "-74.21034999"
    },
    {
      "SegmentID": "9017020",
      "RoadwayName": "5 AVENUE",
      "From": "East 101th Street",
      "To": "Gustave L Levy Place",
      "Direction": "SB",
      "Date": "2020-11-18",
      "flow": 0.24385245901639344,
      "Latitude": "40.5467724",
      "Longitude": "-74.21034999"
    },
    {
      "SegmentID": "32618",
      "RoadwayName": "5TH AVENUE",
      "From": "East 11th Street",
      "To": "East 12th Street",
      "Direction": "SB",
      "Date": "2020-11-18",
      "flow": 0.13114754098360656,
      "Latitude": "40.5836667",
      "Longitude": "-73.9590628"
    },
    {
      "SegmentID": "75313",
      "RoadwayName": "51th AVENUE",
      "From": "90th Street",
      "To": "92nd Street",
      "Direction": "EB",
      "Date": "2020-11-18",
      "flow": 0.028688524590163935,
      "Latitude": "40.6569584",
      "Longitude": "-73.8422577"
    },
    {
      "SegmentID": "113361",
      "RoadwayName": "58th STREET",
      "From": "Northen Boulevard",
      "To": "34th Avenue",
      "Direction": "SB",
      "Date": "2020-11-18",
      "flow": 0.020491803278688523,
      "Latitude": "40.763894",
      "Longitude": "-73.936256"
    },
    {
      "SegmentID": "20395",
      "RoadwayName": "60th STREET",
      "From": "19th Avenue",
      "To": "20th Avenue",
      "Direction": "EB",
      "Date": "2020-11-18",
      "flow": 0.05122950819672131,
      "Latitude": "40.7808957",
      "Longitude": "-73.8001321"
    },
    {
      "SegmentID": "20395",
      "RoadwayName": "60th STREET",
      "From": "19th Avenue",
      "To": "20th Avenue",
      "Direction": "WB",
      "Date": "2020-11-18",
      "flow": 0.036885245901639344,
      "Latitude": "40.7808957",
      "Longitude": "-73.8001321"
    },
    {
      "SegmentID": "81694",
      "RoadwayName": "63rd DRIVE",
      "From": "Austin Street",
      "To": "Wetherole Street",
      "Direction": "NB",
      "Date": "2020-11-18",
      "flow": 0.0389344262295082,
      "Latitude": "40.7195628",
      "Longitude": "-73.8431467"
    },
    {
      "SegmentID": "81694",
      "RoadwayName": "63rd DRIVE",
      "From": "Austin Street",
      "To": "Wetherole Street",
      "Direction": "SB",
      "Date": "2020-11-18",
      "flow": 0.01639344262295082,
      "Latitude": "40.7195628",
      "Longitude": "-73.8431467"
    },
    {
      "SegmentID": "32443",
      "RoadwayName": "7th AVENUE",
      "From": "West 12th Street",
      "To": "West 13th Street",
      "Direction": "SB",
      "Date": "2020-11-18",
      "flow": 0.32172131147540983,
      "Latitude": "40.5747728",
      "Longitude": "-73.9796628"
    },
    {
      "SegmentID": "29030",
      "RoadwayName": "7th AVENUE",
      "From": "St Johns Place",
      "To": "Lincoln Place",
      "Direction": "NB",
      "Date": "2020-11-18",
      "flow": 0.022540983606557378,
      "Latitude": "40.6726653",
      "Longitude": "-73.9585329"
    },
    {
      "SegmentID": "29030",
      "RoadwayName": "7th AVENUE",
      "From": "St Johns Place",
      "To": "Lincoln Place",
      "Direction": "SB",
      "Date": "2020-11-18",
      "flow": 0.006147540983606557,
      "Latitude": "40.6726653",
      "Longitude": "-73.9585329"
    },
    {
      "SegmentID": "19463",
      "RoadwayName": "8th AVENUE",
      "From": "66th Street",
      "To": "67th Street",
      "Direction": "EB",
      "Date": "2020-11-18",
      "flow": 0.022540983606557378,
      "Latitude": "40.7249332",
      "Longitude": "-73.8985833"
    },
    {
      "SegmentID": "19463",
      "RoadwayName": "8th AVENUE",
      "From": "66th Street",
      "To": "67th Street",
      "Direction": "WB",
      "Date": "2020-11-18",
      "flow": 0.030737704918032786,
      "Latitude": "40.7249332",
      "Longitude": "-73.8985833"
    },
    {
      "SegmentID": "33645",
      "RoadwayName": "8th AVENUE",
      "From": "West 27th Street",
      "To": "West 28th Street",
      "Direction": "NB",
      "Date": "2020-11-18",
      "flow": 0.7295081967213115,
      "Latitude": "40.7473864",
      "Longitude": "-73.9956068"
    },
    {
      "SegmentID": "175385",
      "RoadwayName": "82nd STREET",
      "From": "Northern Boulevard",
      "To": "34th Avenue",
      "Direction": "SB",
      "Date": "2020-11-18",
      "flow": 0.05122950819672131,
      "Latitude": "40.7530794",
      "Longitude": "-73.9062074"
    },
    {
      "SegmentID": "115821",
      "RoadwayName": "94th AVENUE",
      "From": "Airtrain-jamaica Station Line",
      "To": "138th Place",
      "Direction": "EB",
      "Date": "2020-11-18",
      "flow": 0.05737704918032787,
      "Latitude": "40.697479",
      "Longitude": "-73.8115358"
    },
    {
      "SegmentID": "115821",
      "RoadwayName": "94th AVENUE",
      "From": "Airtrain-jamaica Station Line",
      "To": "138th Place",
      "Direction": "WB",
      "Date": "2020-11-18",
      "flow": 0.0860655737704918,
      "Latitude": "40.697479",
      "Longitude": "-73.8115358"
    },
    {
      "SegmentID": "41864",
      "RoadwayName": "ALBANY AVENUE",
      "From": "Lenox Road",
      "To": "Linden Boulevard",
      "Direction": "NB",
      "Date": "2020-11-18",
      "flow": 0.030737704918032786,
      "Latitude": "40.6780172",
      "Longitude": "-73.9385941"
    },
    {
      "SegmentID": "41864",
      "RoadwayName": "ALBANY AVENUE",
      "From": "Lenox Road",
      "To": "Linden Boulevard",
      "Direction": "SB",
      "Date": "2020-11-18",
      "flow": 0.06557377049180328,
      "Latitude": "40.6780172",
      "Longitude": "-73.9385941"
    },
    {
      "SegmentID": "42955",
      "RoadwayName": "ALBANY AVENUE",
      "From": "Midwood Street",
      "To": "Rutland Road",
      "Direction": "NB",
      "Date": "2020-11-18",
      "flow": 0.02459016393442623,
      "Latitude": "40.6780172",
      "Longitude": "-73.9385941"
    },
    {
      "SegmentID": "42955",
      "RoadwayName": "ALBANY AVENUE",
      "From": "Midwood Street",
      "To": "Rutland Road",
      "Direction": "SB",
      "Date": "2020-11-18",
      "flow": 0.06967213114754098,
      "Latitude": "40.6780172",
      "Longitude": "-73.9385941"
    },
    {
      "SegmentID": "43074",
      "RoadwayName": "ALBANY AVENUE",
      "From": "St Johns Place",
      "To": "Lincoln Place",
      "Direction": "SB",
      "Date": "2020-11-18",
      "flow": 0.08401639344262295,
      "Latitude": "40.6780172",
      "Longitude": "-73.9385941"
    },
    {
      "SegmentID": "2933",
      "RoadwayName": "AMBOY ROAD",
      "From": "Arbutus Avenue",
      "To": "Rose Lane",
      "Direction": "EB",
      "Date": "2020-11-18",
      "flow": 0.022540983606557378,
      "Latitude": "40.5312913",
      "Longitude": "-74.1841164"
    },
    {
      "SegmentID": "2933",
      "RoadwayName": "AMBOY ROAD",
      "From": "Arbutus Avenue",
      "To": "Rose Lane",
      "Direction": "WB",
      "Date": "2020-11-18",
      "flow": 0.00819672131147541,
      "Latitude": "40.5312913",
      "Longitude": "-74.1841164"
    },
    {
      "SegmentID": "10335",
      "RoadwayName": "AMBOY ROAD",
      "From": "Dale Avenue",
      "To": "Bishop Street",
      "Direction": "NB",
      "Date": "2020-11-18",
      "flow": 0.0389344262295082,
      "Latitude": "40.572812",
      "Longitude": "-74.123884"
    },
    {
      "SegmentID": "10335",
      "RoadwayName": "AMBOY ROAD",
      "From": "Dale Avenue",
      "To": "Bishop Street",
      "Direction": "SB",
      "Date": "2020-11-18",
      "flow": 0.036885245901639344,
      "Latitude": "40.572812",
      "Longitude": "-74.123884"
    },
    {
      "SegmentID": "3720",
      "RoadwayName": "AMBOY ROAD",
      "From": "Preston Avenue",
      "To": "Bamberger Lane",
      "Direction": "EB",
      "Date": "2020-11-18",
      "flow": 0.022540983606557378,
      "Latitude": "40.5368399",
      "Longitude": "-74.161697"
    },
    {
      "SegmentID": "3720",
      "RoadwayName": "AMBOY ROAD",
      "From": "Preston Avenue",
      "To": "Bamberger Lane",
      "Direction": "WB",
      "Date": "2020-11-18",
      "flow": 0.02459016393442623,
      "Latitude": "40.5368399",
      "Longitude": "-74.161697"
    },
    {
      "SegmentID": "37362",
      "RoadwayName": "AMSTERDAM AVENUE",
      "From": "West 99th Street",
      "To": "West 100th Street",
      "Direction": "NB",
      "Date": "2020-11-18",
      "flow": 0.33401639344262296,
      "Latitude": "40.7971386",
      "Longitude": "-73.9716719"
    },
    {
      "SegmentID": "4237",
      "RoadwayName": "ANNADALE ROAD",
      "From": "Berry Avenue",
      "To": "Watkins Avenue",
      "Direction": "NB",
      "Date": "2020-11-18",
      "flow": 0.010245901639344262,
      "Latitude": "40.5559165",
      "Longitude": "-74.1761162"
    },
    {
      "SegmentID": "4237",
      "RoadwayName": "ANNADALE ROAD",
      "From": "Berry Avenue",
      "To": "Watkins Avenue",
      "Direction": "SB",
      "Date": "2020-11-18",
      "flow": 0.0020491803278688526,
      "Latitude": "40.5559165",
      "Longitude": "-74.1761162"
    },
    {
      "SegmentID": "57039",
      "RoadwayName": "ARCHER AVENUE",
      "From": "144th Place",
      "To": "146th Street",
      "Direction": "EB",
      "Date": "2020-11-18",
      "flow": 0.0471311475409836,
      "Latitude": "40.7863014",
      "Longitude": "-73.8231832"
    },
    {
      "SegmentID": "57039",
      "RoadwayName": "ARCHER AVENUE",
      "From": "144th Place",
      "To": "146th Street",
      "Direction": "WB",
      "Date": "2020-11-18",
      "flow": 0.06352459016393443,
      "Latitude": "40.7863014",
      "Longitude": "-73.8231832"
    },