{
  "1:00-2:00AM": [
    {
      "SegmentID": "96671",
      "RoadwayName": "188 Street",
      "From": "Rio Drive",
      "To": "Henley Road",
      "Direction": "NB",
      "Date": "2019-09-21",
      "flow": 0.5734265734265734,
      "Latitude": "40.7185067",
      "Longitude": "-73.7748952"
    },
    {
      "SegmentID": "96671",
      "RoadwayName": "188 Street",
      "From": "Rio Drive",
      "To": "Henley Road",
      "Direction": "SB",
      "Date": "2019-09-21",
      "flow": 0.6678321678321678,
      "Latitude": "40.7185067",
      "Longitude": "-73.7748952"
    },
    {
      "SegmentID": "117242",
      "RoadwayName": "200 Street",
      "From": "36 Avenue",
      "To": "Francis Lewis Boulevard",
      "Direction": "NB",
      "Date": "2019-09-21",
      "flow": 0.06993006993006994,
      "Latitude": "40.71364135",
      "Longitude": "-74.01482043"
    },
    {
      "SegmentID": "98876",
      "RoadwayName": "26 Avenue",
      "From": "201 Street",
      "To": "202 Street",
      "Direction": "EB",
      "Date": "2019-09-21",
      "flow": 0.06643356643356643,
      "Latitude": "42.4373576",
      "Longitude": "-76.4945086"
    },
    {
      "SegmentID": "98876",
      "RoadwayName": "26 Avenue",
      "From": "201 Street",
      "To": "202 Street",
      "Direction": "WB",
      "Date": "2019-09-21",
      "flow": 0.07692307692307693,
      "Latitude": "42.4373576",
      "Longitude": "-76.4945086"
    },
    {
      "SegmentID": "97492",
      "RoadwayName": "35 Avenue",
      "From": "Francis Lewis Boulevard",
      "To": "200 Street",
      "Direction": "EB",
      "Date": "2019-09-21",
      "flow": 0.12937062937062938,
      "Latitude": "40.7127281",
      "Longitude": "-74.0060152"
    },
    {
      "SegmentID": "97492",
      "RoadwayName": "35 Avenue",
      "From": "Francis Lewis Boulevard",
      "To": "200 Street",
      "Direction": "WB",
      "Date": "2019-09-21",
      "flow": 0.17482517482517482,
      "Latitude": "40.7127281",
      "Longitude": "-74.0060152"
    },
    {
      "SegmentID": "97525",
      "RoadwayName": "35 Avenue",
      "From": "203 Street",
      "To": "204 Street",
      "Direction": "EB",
      "Date": "2019-09-21",
      "flow": 0.15384615384615385,
      "Latitude": "40.7127281",
      "Longitude": "-74.0060152"
    },
    {
      "SegmentID": "97525",
      "RoadwayName": "35 Avenue",
      "From": "203 Street",
      "To": "204 Street",
      "Direction": "WB",
      "Date": "2019-09-21",
      "flow": 0.15734265734265734,
      "Latitude": "40.7127281",
      "Longitude": "-74.0060152"
    },
    {
      "SegmentID": "21331",
      "RoadwayName": "37 Street",
      "From": "12 Avenue",
      "To": "13 Avenue",
      "Direction": "EB",
      "Date": "2019-09-21",
      "flow": 0.10839160839160839,
      "Latitude": "40.8178841",
      "Longitude": "-73.9604648"
    },
    {
      "SegmentID": "21327",
      "RoadwayName": "39 Street",
      "From": "12 Avenue",
      "To": "13 Avenue",
      "Direction": "EB",
      "Date": "2019-09-21",
      "flow": 0.07342657342657342,
      "Latitude": "40.7583819",
      "Longitude": "-73.9984041"
    },
    {
      "SegmentID": "21327",
      "RoadwayName": "39 Street",
      "From": "12 Avenue",
      "To": "13 Avenue",
      "Direction": "WB",
      "Date": "2019-09-21",
      "flow": 0.06993006993006994,
      "Latitude": "40.7583819",
      "Longitude": "-73.9984041"
    },
    {
      "SegmentID": "97302",
      "RoadwayName": "45 Avenue",
      "From": "192 Street",
      "To": "193 Street",
      "Direction": "WB",
      "Date": "2019-09-21",
      "flow": 0.03146853146853147,
      "Latitude": "40.54747245",
      "Longitude": "-74.21054678"
    },
    {
      "SegmentID": "97302",
      "RoadwayName": "45 Avenue",
      "From": "192 Street",
      "To": "193 Street",
      "Direction": "EB",
      "Date": "2019-09-21",
      "flow": 0.027972027972027972,
      "Latitude": "40.54747245",
      "Longitude": "-74.21054678"
    },
    {
      "SegmentID": "21164",
      "RoadwayName": "49 Street",
      "From": "12 Avenue",
      "To": "13 Avenue",
      "Direction": "WB",
      "Date": "2019-09-21",
      "flow": 0.17832167832167833,
      "Latitude": "40.8178841",
      "Longitude": "-73.9604648"
    },
    {
      "SegmentID": "28923",
      "RoadwayName": "5 Avenue",
      "From": "Douglass Street",
      "To": "De Graw Street",
      "Direction": "NB",
      "Date": "2019-09-21",
      "flow": 0.43356643356643354,
      "Latitude": "40.5467724",
      "Longitude": "-74.21034999"
    },
    {
      "SegmentID": "21148",
      "RoadwayName": "50 Street",
      "From": "New Utecht Avenue",
      "To": "13 Avenue",
      "Direction": "EB",
      "Date": "2019-09-21",
      "flow": 0.15384615384615385,
      "Latitude": "40.7616618",
      "Longitude": "-73.9838968"
    },
    {
      "SegmentID": "19805",
      "RoadwayName": "60 Street",
      "From": "11 Avenue",
      "To": "12 Avenue",
      "Direction": "EB",
      "Date": "2019-09-21",
      "flow": 0.36713286713286714,
      "Latitude": "40.5923764",
      "Longitude": "-73.7887383"
    },
    {
      "SegmentID": "19805",
      "RoadwayName": "60 Street",
      "From": "11 Avenue",
      "To": "12 Avenue",
      "Direction": "WB",
      "Date": "2019-09-21",
      "flow": 0.10839160839160839,
      "Latitude": "40.5923764",
      "Longitude": "-73.7887383"
    },
    {
      "SegmentID": "81815",
      "RoadwayName": "63 Drive",
      "From": "Wetherole St.",
      "To": "Booth Street",
      "Direction": "NB",
      "Date": "2019-09-21",
      "flow": 0.21678321678321677,
      "Latitude": "40.7279569",
      "Longitude": "-73.8635025"
    },
    {
      "SegmentID": "81815",
      "RoadwayName": "63 Drive",
      "From": "Wetherole St.",
      "To": "Booth Street",
      "Direction": "SB",
      "Date": "2019-09-21",
      "flow": 0.0944055944055944,
      "Latitude": "40.7279569",
      "Longitude": "-73.8635025"
    },
    {
      "SegmentID": "19566",
      "RoadwayName": "65 Street",
      "From": "10 Avenue",
      "To": "11 Avenue",
      "Direction": "EB",
      "Date": "2019-09-21",
      "flow": 1,
      "Latitude": "40.6682755",
      "Longitude": "-73.9946405"
    },
    {
      "SegmentID": "19566",
      "RoadwayName": "65 Street",
      "From": "10 Avenue",
      "To": "11 Avenue",
      "Direction": "WB",
      "Date": "2019-09-21",
      "flow": 0.4230769230769231,
      "Latitude": "40.6682755",
      "Longitude": "-73.9946405"
    },
    {
      "SegmentID": "20157",
      "RoadwayName": "65 Street",
      "From": "18 Avenue",
      "To": "19 Avenue",
      "Direction": "EB",
      "Date": "2019-09-21",
      "flow": 0.5979020979020979,
      "Latitude": "40.6682755",
      "Longitude": "-73.9946405"
    },
    {
      "SegmentID": "20157",
      "RoadwayName": "65 Street",
      "From": "18 Avenue",
      "To": "19 Avenue",
      "Direction": "WB",
      "Date": "2019-09-21",
      "flow": 0.4230769230769231,
      "Latitude": "40.6682755",
      "Longitude": "-73.9946405"
    },
    {
      "SegmentID": "96615",
      "RoadwayName": "73 Avenue",
      "From": "194 Street",
      "To": "195 Street",
      "Direction": "WB",
      "Date": "2019-09-21",
      "flow": 0.055944055944055944,
      "Latitude": "40.72847335",
      "Longitude": "-73.89326198"
    },
    {
      "SegmentID": "96615",
      "RoadwayName": "73 Avenue",
      "From": "194 Street",
      "To": "195 Street",
      "Direction": "EB",
      "Date": "2019-09-21",
      "flow": 0.03496503496503497,
      "Latitude": "40.72847335",
      "Longitude": "-73.89326198"
    },
    {
      "SegmentID": "19461",
      "RoadwayName": "8 Avenue",
      "From": "67 Street",
      "To": "68 Street",
      "Direction": "NB",
      "Date": "2019-09-21",
      "flow": 0.26223776223776224,
      "Latitude": "40.7683107",
      "Longitude": "-73.96440596"
    },
    {
      "SegmentID": "19461",
      "RoadwayName": "8 Avenue",
      "From": "67 Street",
      "To": "68 Street",
      "Direction": "SB",
      "Date": "2019-09-21",
      "flow": 0.13286713286713286,
      "Latitude": "40.7683107",
      "Longitude": "-73.96440596"
    },
    {
      "SegmentID": "52297",
      "RoadwayName": "80 Street",
      "From": "68 Avenue",
      "To": "68 Road",
      "Direction": "NB",
      "Date": "2019-09-21",
      "flow": 0.2692307692307692,
      "Latitude": "40.7651325",
      "Longitude": "-73.9580265"
    },
    {
      "SegmentID": "52297",
      "RoadwayName": "80 Street",
      "From": "68 Avenue",
      "To": "68 Road",
      "Direction": "SB",
      "Date": "2019-09-21",
      "flow": 0.4090909090909091,
      "Latitude": "40.7651325",
      "Longitude": "-73.9580265"
    },
    {
      "SegmentID": "112136",
      "RoadwayName": "Amboy Road",
      "From": "3 Street",
      "To": "Dale Ave",
      "Direction": "NB",
      "Date": "2019-09-21",
      "flow": 0.22377622377622378,
      "Latitude": "40.57364435",
      "Longitude": "-74.00012135"
    },
    {
      "SegmentID": "112136",
      "RoadwayName": "Amboy Road",
      "From": "2 Street",
      "To": "Dale Ave.",
      "Direction": "SB",
      "Date": "2019-09-21",
      "flow": 0.1888111888111888,
      "Latitude": "40.5472181",
      "Longitude": "-74.21231751"
    },
    {
      "SegmentID": "22924",
      "RoadwayName": "Atlantic Avenue",
      "From": "3 Avenue",
      "To": "4 Avenue",
      "Direction": "WB",
      "Date": "2019-09-21",
      "flow": 0.8286713286713286,
      "Latitude": "40.54678755",
      "Longitude": "-74.21027354"
    },
    {
      "SegmentID": "22924",
      "RoadwayName": "Atlantic Avenue",
      "From": "3 Avenue",
      "To": "4 Avenue",
      "Direction": "EB",
      "Date": "2019-09-21",
      "flow": 0.8076923076923077,
      "Latitude": "40.54678755",
      "Longitude": "-74.21027354"
    },
    {
      "SegmentID": "70931",
      "RoadwayName": "Audubon Ave",
      "From": "West 172 St",
      "To": "West 173 St",
      "Direction": "NB",
      "Date": "2019-09-21",
      "flow": 0.11188811188811189,
      "Latitude": "43.0014991",
      "Longitude": "-76.1489914"
    },
    {
      "SegmentID": "70931",
      "RoadwayName": "Audubon Ave",
      "From": "West 172 St",
      "To": "West 173 St",
      "Direction": "SB",
      "Date": "2019-09-21",
      "flow": 0.17132867132867133,
      "Latitude": "43.0014991",
      "Longitude": "-76.1489914"
    },
    {
      "SegmentID": "27017",
      "RoadwayName": "Avenue J",
      "From": "East 12 Street",
      "To": "East 13 Street",
      "Direction": "EB",
      "Date": "2019-09-21",
      "flow": 0.1888111888111888,
      "Latitude": "40.625039",
      "Longitude": "-73.960803"
    },
    {
      "SegmentID": "27017",
      "RoadwayName": "Avenue J",
      "From": "East 12 Street",
      "To": "East 13 Street",
      "Direction": "WB",
      "Date": "2019-09-21",
      "flow": 0.27972027972027974,
      "Latitude": "40.625039",
      "Longitude": "-73.960803"
    },
    {
      "SegmentID": "27147",
      "RoadwayName": "Avenue M",
      "From": "Brighton Line",
      "To": "East 16 Street",
      "Direction": "EB",
      "Date": "2019-09-21",
      "flow": 0.16083916083916083,
      "Latitude": "40.6178971",
      "Longitude": "-73.959474"
    },
    {
      "SegmentID": "27147",
      "RoadwayName": "Avenue M",
      "From": "Brighton Line",
      "To": "East 16 Street",
      "Direction": "WB",
      "Date": "2019-09-21",
      "flow": 0.11538461538461539,
      "Latitude": "40.6178971",
      "Longitude": "-73.959474"
    },
    {
      "SegmentID": "27120",
      "RoadwayName": "Avenue N",
      "From": "East 15 Street",
      "To": "Brighton Line",
      "Direction": "EB",
      "Date": "2019-09-21",
      "flow": 0.44755244755244755,
      "Latitude": "40.7326744",
      "Longitude": "-73.9835879"
    },
    {
      "SegmentID": "26964",
      "RoadwayName": "Avenue P",
      "From": "East 12 Street",
      "To": "East 13 Street",
      "Direction": "EB",
      "Date": "2019-09-21",
      "flow": 0.2202797202797203,
      "Latitude": "40.608944",
      "Longitude": "-73.973022"
    },
    {
      "SegmentID": "26964",
      "RoadwayName": "Avenue P",
      "From": "East 12 Street",
      "To": "East 13 Street",
      "Direction": "WB",
      "Date": "2019-09-21",
      "flow": 0.27972027972027974,
      "Latitude": "40.608944",
      "Longitude": "-73.973022"
    },
    {
      "SegmentID": "20147",
      "RoadwayName": "Bay Ridge Avenue",
      "From": "19 Avenue",
      "To": "20 Avenue",
      "Direction": "EB",
      "Date": "2019-09-21",
      "flow": 0.07692307692307693,
      "Latitude": "40.6987989",
      "Longitude": "-73.97471527"
    },
    {
      "SegmentID": "15736",
      "RoadwayName": "Bay St",
      "From": "William St",
      "To": "Congress St",
      "Direction": "NB",
      "Date": "2019-09-21",
      "flow": 0.3076923076923077,
      "Latitude": "40.7083391",
      "Longitude": "-74.0076543"
    },
    {
      "SegmentID": "15736",
      "RoadwayName": "Bay St",
      "From": "William St",
      "To": "Congress St",
      "Direction": "SB",
      "Date": "2019-09-21",
      "flow": 0.5034965034965035,
      "Latitude": "40.7083391",
      "Longitude": "-74.0076543"
    },
    {
      "SegmentID": "15540",
      "RoadwayName": "Beach St",
      "From": "Union Pl",
      "To": "Van Duzer St",
      "Direction": "EB",
      "Date": "2019-09-21",
      "flow": 0.0979020979020979,
      "Latitude": "40.6277638",
      "Longitude": "-74.0772802"
    },
    {
      "SegmentID": "15540",
      "RoadwayName": "Beach St",
      "From": "Union Pl",
      "To": "Van Duzer St",
      "Direction": "WB",
      "Date": "2019-09-21",
      "flow": 0.12237762237762238,
      "Latitude": "40.6277638",
      "Longitude": "-74.0772802"
    },
    {
      "SegmentID": "98338",
      "RoadwayName": "Bell Boulevard",
      "From": "45 Drive",
      "To": "46 Avenue",
      "Direction": "NB",
      "Date": "2019-09-21",
      "flow": 0.14335664335664336,
      "Latitude": "40.84097805",
      "Longitude": "-73.86140949"
    },
    {
      "SegmentID": "98338",
      "RoadwayName": "Bell Boulevard",
      "From": "45 Drive",
      "To": "46 Avenue",
      "Direction": "SB",
      "Date": "2019-09-21",
      "flow": 0.1958041958041958,
      "Latitude": "40.84097805",
      "Longitude": "-73.86140949"
    },
    {
      "SegmentID": "91014",
      "RoadwayName": "Booth Memorial Ave.",
      "From": "College Point Boulevard",
      "To": "133 Street",
      "Direction": "EB",
      "Date": "2019-09-21",
      "flow": 0.6398601398601399,
      "Latitude": "40.7525496",
      "Longitude": "-73.8325339"
    },
    {
      "SegmentID": "91014",
      "RoadwayName": "Booth Memorial Ave.",
      "From": "College Point Boulevard",
      "To": "133 Street",
      "Direction": "WB",
      "Date": "2019-09-21",
      "flow": 0.458041958041958,
      "Latitude": "40.7525496",
      "Longitude": "-73.8325339"
    },
    {
      "SegmentID": "70939",
      "RoadwayName": "Broadway",
      "From": "West 174 St",
      "To": "West 175 St",
      "Direction": "NB",
      "Date": "2019-09-21",
      "flow": 0.486013986013986,
      "Latitude": "40.8028269",
      "Longitude": "-73.9675054"
    },
    {
      "SegmentID": "70939",
      "RoadwayName": "Broadway",
      "From": "West 174 St",
      "To": "West 175 St",
      "Direction": "SB",
      "Date": "2019-09-21",
      "flow": 0.6538461538461539,
      "Latitude": "40.8028269",
      "Longitude": "-73.9675054"
    },
    {
      "SegmentID": "74501",
      "RoadwayName": "Caldwell Avenue",
      "From": "72 Street",
      "To": "74 Street",
      "Direction": "WB",
      "Date": "2019-09-21",
      "flow": 0.16083916083916083,
      "Latitude": "40.7790162",
      "Longitude": "-73.9818557"
    },
    {
      "SegmentID": "22219",
      "RoadwayName": "Clinton Street",
      "From": "Sackett Street",
      "To": "Union Street",
      "Direction": "NB",
      "Date": "2019-09-21",
      "flow": 0.0979020979020979,
      "Latitude": "40.6857022",
      "Longitude": "-74.0049954"
    },
    {
      "SegmentID": "15047",
      "RoadwayName": "Clove Rd",
      "From": "Neckar Ave",
      "To": "Weser Ave",
      "Direction": "EB",
      "Date": "2019-09-21",
      "flow": 0.14335664335664336,
      "Latitude": "40.6139911",
      "Longitude": "-74.1012626"
    },
    {
      "SegmentID": "15047",
      "RoadwayName": "Clove Rd",
      "From": "Neckar Ave",
      "To": "Weser Ave",
      "Direction": "WB",
      "Date": "2019-09-21",
      "flow": 0.13986013986013987,
      "Latitude": "40.6139911",
      "Longitude": "-74.1012626"
    },
    {
      "SegmentID": "157129",
      "RoadwayName": "College Point Beoulevard",
      "From": "Dead End",
      "To": "Botanical Garden Bridge",
      "Direction": "NB",
      "Date": "2019-09-21",
      "flow": 0.36713286713286714,
      "Latitude": "40.8401745",
      "Longitude": "-73.82344175"
    },
    {
      "SegmentID": "156916",
      "RoadwayName": "College Point Boulevard",
      "From": "Dead End",
      "To": "Botanical Grdn Bridge",
      "Direction": "SB",
      "Date": "2019-09-21",
      "flow": 0.6468531468531469,
      "Latitude": "40.7525496",
      "Longitude": "-73.8325339"
    },
    {
      "SegmentID": "22023",
      "RoadwayName": "Columbia Street",
      "From": "Kane Street",
      "To": "Irving Street",
      "Direction": "NB",
      "Date": "2019-09-21",
      "flow": 0.06293706293706294,
      "Latitude": "40.6863978",
      "Longitude": "-73.9972781"
    },
    {
      "SegmentID": "22023",
      "RoadwayName": "Columbia Street",
      "From": "Kane Street",
      "To": "Irving Street",
      "Direction": "SB",
      "Date": "2019-09-21",
      "flow": 0.15384615384615385,
      "Latitude": "40.6863978",
      "Longitude": "-73.9972781"
    },
    {
      "SegmentID": "22409",
      "RoadwayName": "Court Street",
      "From": "De Graw Street",
      "To": "Sackett Street",
      "Direction": "SB",
      "Date": "2019-09-21",
      "flow": 0.6363636363636364,
      "Latitude": "40.6941",
      "Longitude": "-73.991777"
    },
    {
      "SegmentID": "157208",
      "RoadwayName": "Francis Lewis Boulevard",
      "From": "Dead End",
      "To": "Dead End",
      "Direction": "EB",
      "Date": "2019-09-21",
      "flow": 0.13986013986013987,
      "Latitude": "40.7135593",
      "Longitude": "-73.753829"
    },
    {
      "SegmentID": "96010",
      "RoadwayName": "Fresh Meadow Lane",
      "From": "Horace Harding Expressway Sr. S",
      "To": "65 Avenue",
      "Direction": "NB",
      "Date": "2019-09-21",
      "flow": 0,
      "Latitude": "40.6336953",
      "Longitude": "-74.07832907"
    },
    {
      "SegmentID": "96010",
      "RoadwayName": "Fresh Meadow Lane",
      "From": "Horace Harding Expressway Sr. S",
      "To": "65 Avenue",
      "Direction": "SB",
      "Date": "2019-09-21",
      "flow": 0.08041958041958042,
      "Latitude": "40.6336953",
      "Longitude": "-74.07832907"
    },
    {
      "SegmentID": "21399",
      "RoadwayName": "Ft Hamilton Parkway",
      "From": "Chester Avenue",
      "To": "36 Street",
      "Direction": "NB",
      "Date": "2019-09-21",
      "flow": 0.3951048951048951,
      "Latitude": "40.6437651",
      "Longitude": "-73.9839445"
    },
    {
      "SegmentID": "21399",
      "RoadwayName": "Ft Hamilton Parkway",
      "From": "Chester Avenue",
      "To": "36 Street",
      "Direction": "SB",
      "Date": "2019-09-21",
      "flow": 0.6048951048951049,
      "Latitude": "40.6437651",
      "Longitude": "-73.9839445"
    },
    {
      "SegmentID": "19555",
      "RoadwayName": "Ft Hamilton Parkway",
      "From": "67 Street",
      "To": "68 Street",
      "Direction": "NB",
      "Date": "2019-09-21",
      "flow": 0.16433566433566432,
      "Latitude": "40.7285606",
      "Longitude": "-73.959184"
    },
    {
      "SegmentID": "19555",
      "RoadwayName": "Ft Hamilton Parkway",
      "From": "67 Street",
      "To": "68 Street",
      "Direction": "SB",
      "Date": "2019-09-21",
      "flow": 0.24825174825174826,
      "Latitude": "40.7285606",
      "Longitude": "-73.959184"
    },
    {
      "SegmentID": "182686",
      "RoadwayName": "Hewlett Street",
      "From": "Dead end",
      "To": "Union Turnpike",
      "Direction": "NB",
      "Date": "2019-09-21",
      "flow": 0.1258741258741259,
      "Latitude": "40.753754",
      "Longitude": "-73.704711"
    },
    {
      "SegmentID": "182686",
      "RoadwayName": "Hewlett Street",
      "From": "Dead End",
      "To": "Union Turnpike",
      "Direction": "SB",
      "Date": "2019-09-21",
      "flow": 0.24825174825174826,
      "Latitude": "40.753754",
      "Longitude": "-73.704711"
    },
    {
      "SegmentID": "22227",
      "RoadwayName": "Hicks Street",
      "From": "Kane Street",
      "To": "De Graw Street",
      "Direction": "NB",
      "Date": "2019-09-21",
      "flow": 0.38461538461538464,
      "Latitude": "40.6863978",
      "Longitude": "-73.9972781"
    },
    {
      "SegmentID": "22221",
      "RoadwayName": "Hicks Street",
      "From": "Kane Street",
      "To": "De Graw Street",
      "Direction": "SB",
      "Date": "2019-09-21",
      "flow": 0.11188811188811189,
      "Latitude": "40.6863978",
      "Longitude": "-73.9972781"
    },
    {
      "SegmentID": "114869",
      "RoadwayName": "Hylan Blvd South",
      "From": "Olga Pl",
      "To": "Olga Pl",
      "Direction": "NB",
      "Date": "2019-09-21",
      "flow": 0.44755244755244755,
      "Latitude": "40.603789",
      "Longitude": "-74.076663"
    },
    {
      "SegmentID": "14422",
      "RoadwayName": "Steuben St",
      "From": "Hylan Blvd North",
      "To": "Olga Place",
      "Direction": "SB",
      "Date": "2019-09-21",
      "flow": 0.7832167832167832,
      "Latitude": "40.6067335",
      "Longitude": "-74.0758037"
    },
    {
      "SegmentID": "14602",
      "RoadwayName": "Hylan Blvd.",
      "From": "Fingerboard Rd",
      "To": "Dead End",
      "Direction": "NB",
      "Date": "2019-09-21",
      "flow": 0.23076923076923078,
      "Latitude": "40.602132",
      "Longitude": "-74.070593"
    },
    {
      "SegmentID": "14602",
      "RoadwayName": "Hylan Blvd.",
      "From": "Fingerboard St.",
      "To": "Dead End",
      "Direction": "SB",
      "Date": "2019-09-21",
      "flow": 0.26573426573426573,
      "Latitude": "40.600128",
      "Longitude": "-74.0915119"
    },
    {
      "SegmentID": "152334",
      "RoadwayName": "Hylan Boulevard",
      "From": "Ebbitts Street",
      "To": "Dead end",
      "Direction": "NB",
      "Date": "2019-09-21",
      "flow": 0.8006993006993007,
      "Latitude": "40.563146",
      "Longitude": "-74.107869"
    },
    {
      "SegmentID": "155338",
      "RoadwayName": "Hylan Boulevard",
      "From": "Allison Avenue",
      "To": "Princeton Avenue",
      "Direction": "SB",
      "Date": "2019-09-21",
      "flow": 0.36013986013986016,
      "Latitude": "40.5675611",
      "Longitude": "-74.1157632"
    },
    {
      "SegmentID": "52940",
      "RoadwayName": "Jamaica Avenue",
      "From": "101 Street",
      "To": "102 Street",
      "Direction": "EB",
      "Date": "2019-09-21",
      "flow": 0.2062937062937063,
      "Latitude": "40.7023681",
      "Longitude": "-73.8036015"
    },
    {
      "SegmentID": "52940",
      "RoadwayName": "Jamaica Avenue",
      "From": "101 Street",
      "To": "102 Street",
      "Direction": "WB",
      "Date": "2019-09-21",
      "flow": 0.4020979020979021,
      "Latitude": "40.7023681",
      "Longitude": "-73.8036015"
    },
    {
      "SegmentID": "9007483",
      "RoadwayName": "Kissena Boulevard",
      "From": "Dead end",
      "To": "Melbourne Avenue",
      "Direction": "NB",
      "Date": "2019-09-21",
      "flow": 0.2972027972027972,
      "Latitude": "40.8401745",
      "Longitude": "-73.82344175"
    },
    {
      "SegmentID": "9007488",
      "RoadwayName": "Kissena Boulevard",
      "From": "Dead End",
      "To": "Melbourne Ave.",
      "Direction": "SB",
      "Date": "2019-09-21",
      "flow": 0.32867132867132864,
      "Latitude": "40.8401745",
      "Longitude": "-73.82344175"
    },
    {
      "SegmentID": "57167",
      "RoadwayName": "Lakewood Avenue",
      "From": "Inwood Street",
      "To": "Princeton Street",
      "Direction": "EB",
      "Date": "2019-09-21",
      "flow": 0.13986013986013987,
      "Latitude": "40.6799541",
      "Longitude": "-73.7955745"
    },
    {
      "SegmentID": "57167",
      "RoadwayName": "Lakewood Avenue",
      "From": "Inwood Street",
      "To": "Princeton Street",
      "Direction": "WB",
      "Date": "2019-09-21",
      "flow": 0.14335664335664336,
      "Latitude": "40.6799541",
      "Longitude": "-73.7955745"
    },
    {
      "SegmentID": "9005244",
      "RoadwayName": "Manor Road",
      "From": "Dead end",
      "To": "Dead end",
      "Direction": "NB",
      "Date": "2019-09-21",
      "flow": 0.13986013986013987,
      "Latitude": "40.6092982",
      "Longitude": "-74.1212609"
    },
    {
      "SegmentID": "9005244",
      "RoadwayName": "Manor Road",
      "From": "Dead end",
      "To": "Dead end",
      "Direction": "SB",
      "Date": "2019-09-21",
      "flow": 0.16083916083916083,
      "Latitude": "40.6092982",
      "Longitude": "-74.1212609"
    },
    {
      "SegmentID": "275873",
      "RoadwayName": "Myrtle Avenue",
      "From": "Freedom Drive",
      "To": "Memorial Drive",
      "Direction": "EB",
      "Date": "2019-09-21",
      "flow": 0.2937062937062937,
      "Latitude": "40.700494",
      "Longitude": "-73.8481861"
    },
    {
      "SegmentID": "275873",
      "RoadwayName": "Myrtle Avenue",
      "From": "Freedom Drive",
      "To": "Memorial Drive",
      "Direction": "WB",
      "Date": "2019-09-21",
      "flow": 0.06993006993006994,
      "Latitude": "40.700494",
      "Longitude": "-73.8481861"
    },
    {
      "SegmentID": "97309",
      "RoadwayName": "Northern Boulevard",
      "From": "191 Street",
      "To": "192 Street",
      "Direction": "EB",
      "Date": "2019-09-21",
      "flow": 0.36363636363636365,
      "Latitude": "40.7530794",
      "Longitude": "-73.9062074"
    },
    {
      "SegmentID": "97309",
      "RoadwayName": "Northern Boulevard",
      "From": "191 Street",
      "To": "192 Street",
      "Direction": "WB",
      "Date": "2019-09-21",
      "flow": 0.3041958041958042,
      "Latitude": "40.7530794",
      "Longitude": "-73.9062074"
    },
    {
      "SegmentID": "98008",
      "RoadwayName": "Northern Boulevard",
      "From": "Oceania Street",
      "To": "Corporal Kennedy Street",
      "Direction": "EB",
      "Date": "2019-09-21",
      "flow": 0.3951048951048951,
      "Latitude": "40.7530794",
      "Longitude": "-73.9062074"
    },
    {
      "SegmentID": "98008",
      "RoadwayName": "Northern Boulevard",
      "From": "Oceania Street",
      "To": "Corporal Kennedy Stret",
      "Direction": "WB",
      "Date": "2019-09-21",
      "flow": 0.38461538461538464,
      "Latitude": "40.7530794",
      "Longitude": "-73.9062074"
    },
    {
      "SegmentID": "27577",
      "RoadwayName": "Nostrand Avenue",
      "From": "Avenue P",
      "To": "Stuart Street",
      "Direction": "NB",
      "Date": "2019-09-21",
      "flow": 0.25874125874125875,
      "Latitude": "40.608944",
      "Longitude": "-73.973022"
    },
    {
      "SegmentID": "27577",
      "RoadwayName": "Nostrand Avenue",
      "From": "Avenue P",
      "To": "Stuart Street",
      "Direction": "SB",
      "Date": "2019-09-21",
      "flow": 0.2727272727272727,
      "Latitude": "40.608944",
      "Longitude": "-73.973022"
    },
    {
      "SegmentID": "12946",
      "RoadwayName": "Ocean Terrace",
      "From": "Dead End",
      "To": "Milford Dr",
      "Direction": "NB",
      "Date": "2019-09-21",
      "flow": 0.0944055944055944,
      "Latitude": "40.6099752",
      "Longitude": "-74.1017632"
    },
    {
      "SegmentID": "12946",
      "RoadwayName": "Ocean Terrace",
      "From": "Dead End",
      "To": "Milford Dr",
      "Direction": "SB",
      "Date": "2019-09-21",
      "flow": 0.038461538461538464,
      "Latitude": "40.6099752",
      "Longitude": "-74.1017632"
    },
    {
      "SegmentID": "91425",
      "RoadwayName": "Parsons Boulevard",
      "From": "37 Avenue",
      "To": "38 Avenue",
      "Direction": "NB",
      "Date": "2019-09-21",
      "flow": 0.17132867132867133,
      "Latitude": "40.707564",
      "Longitude": "-73.803326"
    },
    {
      "SegmentID": "91425",
      "RoadwayName": "Parsons Boulevard",
      "From": "37 Avenue",
      "To": "38 Avenue",
      "Direction": "SB",
      "Date": "2019-09-21",
      "flow": 0.4230769230769231,
      "Latitude": "40.707564",
      "Longitude": "-73.803326"
    },
    {
      "SegmentID": "149278",
      "RoadwayName": "Richmond Ave",
      "From": "Yukon Ave",
      "To": "Dead End",
      "Direction": "SB",
      "Date": "2019-09-21",
      "flow": 0.3776223776223776,
      "Latitude": "40.5741893",
      "Longitude": "-74.1638395"
    },
    {
      "SegmentID": "155290",
      "RoadwayName": "Richmond Ave",
      "From": "Yukon Ave",
      "To": "Yukon Ave",
      "Direction": "NB",
      "Date": "2019-09-21",
      "flow": 0.7867132867132867,
      "Latitude": "40.5741893",
      "Longitude": "-74.1638395"
    },
    {
      "SegmentID": "112431",
      "RoadwayName": "Richmond Rd",
      "From": "Clove Rd",
      "To": "Dead End",
      "Direction": "SB",
      "Date": "2019-09-21",
      "flow": 0.7482517482517482,
      "Latitude": "40.5973154",
      "Longitude": "-74.0929447"
    },
    {
      "SegmentID": "111985",
      "RoadwayName": "Richmond Rd",
      "From": "Clove Rd",
      "To": "Dead End",
      "Direction": "SB",
      "Date": "2019-09-21",
      "flow": 0.8426573426573427,
      "Latitude": "40.5973154",
      "Longitude": "-74.0929447"
    },
    {
      "SegmentID": "98540",
      "RoadwayName": "Springfield Boulevard",
      "From": "219 Street",
      "To": "46 Avenue",
      "Direction": "NB",
      "Date": "2019-09-21",
      "flow": 0.02097902097902098,
      "Latitude": "40.7803531",
      "Longitude": "-73.9513584"
    },
    {
      "SegmentID": "98540",
      "RoadwayName": "Springfield Boulevard",
      "From": "219 Street",
      "To": "46 Avenue",
      "Direction": "SB",
      "Date": "2019-09-21",
      "flow": 0.04895104895104895,
      "Latitude": "40.7803531",
      "Longitude": "-73.9513584"
    },
    {
      "SegmentID": "101166",
      "RoadwayName": "Springfield Boulevard",
      "From": "64 Ave",
      "To": "67 Ave",
      "Direction": "NB",
      "Date": "2019-09-21",
      "flow": 0.08391608391608392,
      "Latitude": "41.7134121",
      "Longitude": "-73.9250864"
    },
    {
      "SegmentID": "101166",
      "RoadwayName": "Springfield Boulevard",
      "From": "64 Avenue",
      "To": "67 Avenue",
      "Direction": "SB",
      "Date": "2019-09-21",
      "flow": 0.15734265734265734,
      "Latitude": "40.7658729",
      "Longitude": "-73.9657559"
    },
    {
      "SegmentID": "70957",
      "RoadwayName": "St Nicholas Ave",
      "From": "Broadway/ 7 Ave Line",
      "To": "Broadway/ 7 Ave Line",
      "Direction": "NB",
      "Date": "2019-09-21",
      "flow": 0.7587412587412588,
      "Latitude": "40.8241432",
      "Longitude": "-73.9446885"
    },
    {
      "SegmentID": "70957",
      "RoadwayName": "St Nicholas Ave",
      "From": "Broadway / 7 Ave Line",
      "To": "Broadway / 7 Ave Line",
      "Direction": "SB",
      "Date": "2019-09-21",
      "flow": 0.6258741258741258,
      "Latitude": "40.8241432",
      "Longitude": "-73.9446885"
    },
    {
      "SegmentID": "50660",
      "RoadwayName": "Sutter Avenue",
      "From": "Hemlock Street",
      "To": "Autumn Avenue",
      "Direction": "WB",
      "Date": "2019-09-21",
      "flow": 0.38461538461538464,
      "Latitude": "40.684704",
      "Longitude": "-73.8713701"
    },
    {
      "SegmentID": "114825",
      "RoadwayName": "Targee St",
      "From": "Columbus Ave",
      "To": "Richmond Rd",
      "Direction": "NB",
      "Date": "2019-09-21",
      "flow": 0.5699300699300699,
      "Latitude": "40.7998673",
      "Longitude": "-73.9624226"
    },
    {
      "SegmentID": "156721",
      "RoadwayName": "Union Turnpike",
      "From": "196 Street",
      "To": "196 Place",
      "Direction": "EB",
      "Date": "2019-09-21",
      "flow": 0.10139860139860139,
      "Latitude": "40.7454151",
      "Longitude": "-73.715169"
    },
    {
      "SegmentID": "145421",
      "RoadwayName": "Union Turnpike",
      "From": "Dead end",
      "To": "Dead end",
      "Direction": "WB",
      "Date": "2019-09-21",
      "flow": 0.10139860139860139,
      "Latitude": "40.7454151",
      "Longitude": "-73.715169"
    },
    {
      "SegmentID": "156045",
      "RoadwayName": "Utopia Parkway",
      "From": "Dead End",
      "To": "45 Avenue",
      "Direction": "NB",
      "Date": "2019-09-21",
      "flow": 0.0944055944055944,
      "Latitude": "40.8401745",
      "Longitude": "-73.82344175"
    },
    {
      "SegmentID": "152386",
      "RoadwayName": "Utopia Parkway",
      "From": "Dead End",
      "To": "45 Avenue",
      "Direction": "SB",
      "Date": "2019-09-21",
      "flow": 0.2517482517482518,
      "Latitude": "40.8401745",
      "Longitude": "-73.82344175"
    },
    {
      "SegmentID": "112566",
      "RoadwayName": "Van Duzer St",
      "From": "Broad St",
      "To": "Jake Court",
      "Direction": "SB",
      "Date": "2019-09-21",
      "flow": 0.35664335664335667,
      "Latitude": "40.6255943",
      "Longitude": "-74.0844979"
    },
    {
      "SegmentID": "160109",
      "RoadwayName": "Victory Boulevard",
      "From": "South Gannon Avenue",
      "To": "Dr M L King Ep Nb En Victory Bl",
      "Direction": "EB",
      "Date": "2019-09-21",
      "flow": 0.6608391608391608,
      "Latitude": "40.6377769",
      "Longitude": "-74.0758638"
    },
    {
      "SegmentID": "160109",
      "RoadwayName": "Victory Boulevard",
      "From": "South Gannon Avenue",
      "To": "Dr M L King Ep Nb En Victory Bl",
      "Direction": "WB",
      "Date": "2019-09-21",
      "flow": 0.541958041958042,
      "Latitude": "40.6377769",
      "Longitude": "-74.0758638"
    },
    {
      "SegmentID": "218038",
      "RoadwayName": "Woodrow Road",
      "From": "Dead End",
      "To": "Everton Avenue",
      "Direction": "NB",
      "Date": "2019-09-21",
      "flow": 0.11188811188811189,
      "Latitude": "40.5416162",
      "Longitude": "-74.2097325"
    },
    {
      "SegmentID": "218038",
      "RoadwayName": "Woodrow Road",
      "From": "Dead end",
      "To": "Everton Avenue",
      "Direction": "SB",
      "Date": "2019-09-21",
      "flow": 0.055944055944055944,
      "Latitude": "40.5416162",
      "Longitude": "-74.2097325"
    },
    {
      "SegmentID": "103545",
      "RoadwayName": "Woolley Aveneue",
      "From": "Westwood Avenue",
      "To": "Dawson Street",
      "Direction": "SB",
      "Date": "2019-09-21",
      "flow": 0.3881118881118881,
      "Latitude": "40.6056918",
      "Longitude": "-74.1397543"
    },
    {
      "SegmentID": "103545",
      "RoadwayName": "Woolley Avenue",
      "From": "Westwood Avenue",
      "To": "Dawson Street",
      "Direction": "NB",
      "Date": "2019-09-21",
      "flow": 0.25524475524475526,
      "Latitude": "40.6056918",
      "Longitude": "-74.1397543"
    }
  ],
  "2:00-3:00AM": [
    {
      "SegmentID": "96671",
      "RoadwayName": "188 Street",
      "From": "Rio Drive",
      "To": "Henley Road",
      "Direction": "NB",
      "Date": "2019-09-21",
      "flow": 0.5531914893617021,
      "Latitude": "40.7185067",
      "Longitude": "-73.7748952"
    },
    {
      "SegmentID": "96671",
      "RoadwayName": "188 Street",
      "From": "Rio Drive",
      "To": "Henley Road",
      "Direction": "SB",
      "Date": "2019-09-21",
      "flow": 0.7489361702127659,
      "Latitude": "40.7185067",
      "Longitude": "-73.7748952"
    },
    {
      "SegmentID": "117242",
      "RoadwayName": "200 Street",
      "From": "36 Avenue",
      "To": "Francis Lewis Boulevard",
      "Direction": "NB",
      "Date": "2019-09-21",
      "flow": 0.029787234042553193,
      "Latitude": "40.71364135",
      "Longitude": "-74.01482043"
    },
    {
      "SegmentID": "98876",
      "RoadwayName": "26 Avenue",
      "From": "201 Street",
      "To": "202 Street",
      "Direction": "EB",
      "Date": "2019-09-21",
      "flow": 0.0425531914893617,
      "Latitude": "42.4373576",
      "Longitude": "-76.4945086"
    },
    {
      "SegmentID": "98876",
      "RoadwayName": "26 Avenue",
      "From": "201 Street",
      "To": "202 Street",
      "Direction": "WB",
      "Date": "2019-09-21",
      "flow": 0.03829787234042553,
      "Latitude": "42.4373576",
      "Longitude": "-76.4945086"
    },
    {
      "SegmentID": "97492",
      "RoadwayName": "35 Avenue",
      "From": "Francis Lewis Boulevard",
      "To": "200 Street",
      "Direction": "EB",
      "Date": "2019-09-21",
      "flow": 0.10638297872340426,
      "Latitude": "40.7127281",
      "Longitude": "-74.0060152"
    },
    {
      "SegmentID": "97492",
      "RoadwayName": "35 Avenue",
      "From": "Francis Lewis Boulevard",
      "To": "200 Street",
      "Direction": "WB",
      "Date": "2019-09-21",
      "flow": 0.14893617021276595,
      "Latitude": "40.7127281",
      "Longitude": "-74.0060152"
    },
    {
      "SegmentID": "97525",
      "RoadwayName": "35 Avenue",
      "From": "203 Street",
      "To": "204 Street",
      "Direction": "EB",
      "Date": "2019-09-21",
      "flow": 0.14893617021276595,
      "Latitude": "40.7127281",
      "Longitude": "-74.0060152"
    },
    {
      "SegmentID": "97525",
      "RoadwayName": "35 Avenue",
      "From": "203 Street",
      "To": "204 Street",
      "Direction": "WB",
      "Date": "2019-09-21",
      "flow": 0.12340425531914893,
      "Latitude": "40.7127281",
      "Longitude": "-74.0060152"
    },
    {
      "SegmentID": "21331",
      "RoadwayName": "37 Street",
      "From": "12 Avenue",
      "To": "13 Avenue",
      "Direction": "EB",
      "Date": "2019-09-21",
      "flow": 0.12340425531914893,
      "Latitude": "40.8178841",
      "Longitude": "-73.9604648"
    },
    {
      "SegmentID": "21327",
      "RoadwayName": "39 Street",
      "From": "12 Avenue",
      "To": "13 Avenue",
      "Direction": "EB",
      "Date": "2019-09-21",
      "flow": 0.08936170212765958,
      "Latitude": "40.7583819",
      "Longitude": "-73.9984041"
    },
    {
      "SegmentID": "21327",
      "RoadwayName": "39 Street",
      "From": "12 Avenue",
      "To": "13 Avenue",
      "Direction": "WB",
      "Date": "2019-09-21",
      "flow": 0.09361702127659574,
      "Latitude": "40.7583819",
      "Longitude": "-73.9984041"
    },
    {
      "SegmentID": "97302",
      "RoadwayName": "45 Avenue",
      "From": "192 Street",
      "To": "193 Street",
      "Direction": "WB",
      "Date": "2019-09-21",
      "flow": 0.01702127659574468,
      "Latitude": "40.54747245",
      "Longitude": "-74.21054678"
    },
    {
      "SegmentID": "97302",
      "RoadwayName": "45 Avenue",
      "From": "192 Street",
      "To": "193 Street",
      "Direction": "EB",
      "Date": "2019-09-21",
      "flow": 0.03829787234042553,
      "Latitude": "40.54747245",
      "Longitude": "-74.21054678"
    },
    {
      "SegmentID": "21164",
      "RoadwayName": "49 Street",
      "From": "12 Avenue",
      "To": "13 Avenue",
      "Direction": "WB",
      "Date": "2019-09-21",
      "flow": 0.19148936170212766,
      "Latitude": "40.8178841",
      "Longitude": "-73.9604648"
    },
    {
      "SegmentID": "28923",
      "RoadwayName": "5 Avenue",
      "From": "Douglass Street",
      "To": "De Graw Street",
      "Direction": "NB",
      "Date": "2019-09-21",
      "flow": 0.39148936170212767,
      "Latitude": "40.5467724",
      "Longitude": "-74.21034999"
    },
    {
      "SegmentID": "21148",
      "RoadwayName": "50 Street",
      "From": "New Utecht Avenue",
      "To": "13 Avenue",
      "Direction": "EB",
      "Date": "2019-09-21",
      "flow": 0.11063829787234042,
      "Latitude": "40.7616618",
      "Longitude": "-73.9838968"
    },
    {
      "SegmentID": "19805",
      "RoadwayName": "60 Street",
      "From": "11 Avenue",
      "To": "12 Avenue",
      "Direction": "EB",
      "Date": "2019-09-21",
      "flow": 0.2425531914893617,
      "Latitude": "40.5923764",
      "Longitude": "-73.7887383"
    },
    {
      "SegmentID": "19805",
      "RoadwayName": "60 Street",
      "From": "11 Avenue",
      "To": "12 Avenue",
      "Direction": "WB",
      "Date": "2019-09-21",
      "flow": 0.19574468085106383,
      "Latitude": "40.5923764",
      "Longitude": "-73.7887383"
    },
    {
      "SegmentID": "81815",
      "RoadwayName": "63 Drive",
      "From": "Wetherole St.",
      "To": "Booth Street",
      "Direction": "NB",
      "Date": "2019-09-21",
      "flow": 0.2127659574468085,
      "Latitude": "40.7279569",
      "Longitude": "-73.8635025"
    },
    {
      "SegmentID": "81815",
      "RoadwayName": "63 Drive",
      "From": "Wetherole St.",
      "To": "Booth Street",
      "Direction": "SB",
      "Date": "2019-09-21",
      "flow": 0.09361702127659574,
      "Latitude": "40.7279569",
      "Longitude": "-73.8635025"
    },
    {
      "SegmentID": "19566",
      "RoadwayName": "65 Street",
      "From": "10 Avenue",
      "To": "11 Avenue",
      "Direction": "EB",
      "Date": "2019-09-21",
      "flow": 0.948936170212766,
      "Latitude": "40.6682755",
      "Longitude": "-73.9946405"
    },
    {
      "SegmentID": "19566",
      "RoadwayName": "65 Street",
      "From": "10 Avenue",
      "To": "11 Avenue",
      "Direction": "WB",
      "Date": "2019-09-21",
      "flow": 0.42127659574468085,
      "Latitude": "40.6682755",
      "Longitude": "-73.9946405"
    },
    {
      "SegmentID": "20157",
      "RoadwayName": "65 Street",
      "From": "18 Avenue",
      "To": "19 Avenue",
      "Direction": "EB",
      "Date": "2019-09-21",
      "flow": 0.5446808510638298,
      "Latitude": "40.6682755",
      "Longitude": "-73.9946405"
    },
    {
      "SegmentID": "20157",
      "RoadwayName": "65 Street",
      "From": "18 Avenue",
      "To": "19 Avenue",
      "Direction": "WB",
      "Date": "2019-09-21",
      "flow": 0.41702127659574467,
      "Latitude": "40.6682755",
      "Longitude": "-73.9946405"
    },
    {
      "SegmentID": "96615",
      "RoadwayName": "73 Avenue",
      "From": "194 Street",
      "To": "195 Street",
      "Direction": "WB",
      "Date": "2019-09-21",
      "flow": 0.05106382978723404,
      "Latitude": "40.72847335",
      "Longitude": "-73.89326198"
    },
    {
      "SegmentID": "96615",
      "RoadwayName": "73 Avenue",
      "From": "194 Street",
      "To": "195 Street",
      "Direction": "EB",
      "Date": "2019-09-21",
      "flow": 0.02553191489361702,
      "Latitude": "40.72847335",
      "Longitude": "-73.89326198"
    },
    {
      "SegmentID": "19461",
      "RoadwayName": "8 Avenue",
      "From": "67 Street",
      "To": "68 Street",
      "Direction": "NB",
      "Date": "2019-09-21",
      "flow": 0.16595744680851063,
      "Latitude": "40.7683107",
      "Longitude": "-73.96440596"
    },
    {
      "SegmentID": "19461",
      "RoadwayName": "8 Avenue",
      "From": "67 Street",
      "To": "68 Street",
      "Direction": "SB",
      "Date": "2019-09-21",
      "flow": 0.1276595744680851,
      "Latitude": "40.7683107",
      "Longitude": "-73.96440596"
    },
    {
      "SegmentID": "52297",
      "RoadwayName": "80 Street",
      "From": "68 Avenue",
      "To": "68 Road",
      "Direction": "NB",
      "Date": "2019-09-21",
      "flow": 0.17872340425531916,
      "Latitude": "40.7651325",
      "Longitude": "-73.9580265"
    },
    {
      "SegmentID": "52297",
      "RoadwayName": "80 Street",
      "From": "68 Avenue",
      "To": "68 Road",
      "Direction": "SB",
      "Date": "2019-09-21",
      "flow": 0.2978723404255319,
      "Latitude": "40.7651325",
      "Longitude": "-73.9580265"
    },
    {
      "SegmentID": "112136",
      "RoadwayName": "Amboy Road",
      "From": "3 Street",
      "To": "Dale Ave",
      "Direction": "NB",
      "Date": "2019-09-21",
      "flow": 0.18723404255319148,
      "Latitude": "40.57364435",
      "Longitude": "-74.00012135"
    },
    {
      "SegmentID": "112136",
      "RoadwayName": "Amboy Road",
      "From": "2 Street",
      "To": "Dale Ave.",
      "Direction": "SB",
      "Date": "2019-09-21",
      "flow": 0.15319148936170213,
      "Latitude": "40.5472181",
      "Longitude": "-74.21231751"
    },
    {
      "SegmentID": "22924",
      "RoadwayName": "Atlantic Avenue",
      "From": "3 Avenue",
      "To": "4 Avenue",
      "Direction": "WB",
      "Date": "2019-09-21",
      "flow": 0.9702127659574468,
      "Latitude": "40.54678755",
      "Longitude": "-74.21027354"
    },
    {
      "SegmentID": "22924",
      "RoadwayName": "Atlantic Avenue",
      "From": "3 Avenue",
      "To": "4 Avenue",
      "Direction": "EB",
      "Date": "2019-09-21",
      "flow": 1,
      "Latitude": "40.54678755",
      "Longitude": "-74.21027354"
    },
    {
      "SegmentID": "70931",
      "RoadwayName": "Audubon Ave",
      "From": "West 172 St",
      "To": "West 173 St",
      "Direction": "NB",
      "Date": "2019-09-21",
      "flow": 0.17446808510638298,
      "Latitude": "43.0014991",
      "Longitude": "-76.1489914"
    },
    {
      "SegmentID": "70931",
      "RoadwayName": "Audubon Ave",
      "From": "West 172 St",
      "To": "West 173 St",
      "Direction": "SB",
      "Date": "2019-09-21",
      "flow": 0.26382978723404255,
      "Latitude": "43.0014991",
      "Longitude": "-76.1489914"
    },
    {
      "SegmentID": "27017",
      "RoadwayName": "Avenue J",
      "From": "East 12 Street",
      "To": "East 13 Street",
      "Direction": "EB",
      "Date": "2019-09-21",
      "flow": 0.19574468085106383,
      "Latitude": "40.625039",
      "Longitude": "-73.960803"
    },
    {
      "SegmentID": "27017",
      "RoadwayName": "Avenue J",
      "From": "East 12 Street",
      "To": "East 13 Street",
      "Direction": "WB",
      "Date": "2019-09-21",
      "flow": 0.225531914893617,
      "Latitude": "40.625039",
      "Longitude": "-73.960803"
    },
    {
      "SegmentID": "27147",
      "RoadwayName": "Avenue M",
      "From": "Brighton Line",
      "To": "East 16 Street",
      "Direction": "EB",
      "Date": "2019-09-21",
      "flow": 0.2425531914893617,
      "Latitude": "40.6178971",
      "Longitude": "-73.959474"
    },
    {
      "SegmentID": "27147",
      "RoadwayName": "Avenue M",
      "From": "Brighton Line",
      "To": "East 16 Street",
      "Direction": "WB",
      "Date": "2019-09-21",
      "flow": 0.14042553191489363,
      "Latitude": "40.6178971",
      "Longitude": "-73.959474"
    },
    {
      "SegmentID": "27120",
      "RoadwayName": "Avenue N",
      "From": "East 15 Street",
      "To": "Brighton Line",
      "Direction": "EB",
      "Date": "2019-09-21",
      "flow": 0.4,
      "Latitude": "40.7326744",
      "Longitude": "-73.9835879"
    },
    {
      "SegmentID": "26964",
      "RoadwayName": "Avenue P",
      "From": "East 12 Street",
      "To": "East 13 Street",
      "Direction": "EB",
      "Date": "2019-09-21",
      "flow": 0.33617021276595743,
      "Latitude": "40.608944",
      "Longitude": "-73.973022"
    },
    {
      "SegmentID": "26964",
      "RoadwayName": "Avenue P",
      "From": "East 12 Street",
      "To": "East 13 Street",
      "Direction": "WB",
      "Date": "2019-09-21",
      "flow": 0.20851063829787234,
      "Latitude": "40.608944",
      "Longitude": "-73.973022"
    },
    {
      "SegmentID": "20147",
      "RoadwayName": "Bay Ridge Avenue",
      "From": "19 Avenue",
      "To": "20 Avenue",
      "Direction": "EB",
      "Date": "2019-09-21",
      "flow": 0.06808510638297872,
      "Latitude": "40.6987989",
      "Longitude": "-73.97471527"
    },
    {
      "SegmentID": "15736",
      "RoadwayName": "Bay St",
      "From": "William St",
      "To": "Congress St",
      "Direction": "NB",
      "Date": "2019-09-21",
      "flow": 0.2936170212765957,
      "Latitude": "40.7083391",
      "Longitude": "-74.0076543"
    },
    {
      "SegmentID": "15736",
      "RoadwayName": "Bay St",
      "From": "William St",
      "To": "Congress St",
      "Direction": "SB",
      "Date": "2019-09-21",
      "flow": 0.35319148936170214,
      "Latitude": "40.7083391",
      "Longitude": "-74.0076543"
    },
    {
      "SegmentID": "15540",
      "RoadwayName": "Beach St",
      "From": "Union Pl",
      "To": "Van Duzer St",
      "Direction": "EB",
      "Date": "2019-09-21",
      "flow": 0.10212765957446808,
      "Latitude": "40.6277638",
      "Longitude": "-74.0772802"
    },
    {
      "SegmentID": "15540",
      "RoadwayName": "Beach St",
      "From": "Union Pl",
      "To": "Van Duzer St",
      "Direction": "WB",
      "Date": "2019-09-21",
      "flow": 0.12340425531914893,
      "Latitude": "40.6277638",
      "Longitude": "-74.0772802"
    },
    {
      "SegmentID": "98338",
      "RoadwayName": "Bell Boulevard",
      "From": "45 Drive",
      "To": "46 Avenue",
      "Direction": "NB",
      "Date": "2019-09-21",
      "flow": 0.10638297872340426,
      "Latitude": "40.84097805",
      "Longitude": "-73.86140949"
    },
    {
      "SegmentID": "98338",
      "RoadwayName": "Bell Boulevard",
      "From": "45 Drive",
      "To": "46 Avenue",
      "Direction": "SB",
      "Date": "2019-09-21",
      "flow": 0.1276595744680851,
      "Latitude": "40.84097805",
      "Longitude": "-73.86140949"
    },
    {
      "SegmentID": "91014",
      "RoadwayName": "Booth Memorial Ave.",
      "From": "College Point Boulevard",
      "To": "133 Street",
      "Direction": "EB",
      "Date": "2019-09-21",
      "flow": 0.37872340425531914,
      "Latitude": "40.7525496",
      "Longitude": "-73.8325339"
    },
    {
      "SegmentID": "91014",
      "RoadwayName": "Booth Memorial Ave.",
      "From": "College Point Boulevard",
      "To": "133 Street",
      "Direction": "WB",
      "Date": "2019-09-21",
      "flow": 0.3829787234042553,
      "Latitude": "40.7525496",
      "Longitude": "-73.8325339"
    },
    {
      "SegmentID": "70939",
      "RoadwayName": "Broadway",
      "From": "West 174 St",
      "To": "West 175 St",
      "Direction": "NB",
      "Date": "2019-09-21",
      "flow": 0.4723404255319149,
      "Latitude": "40.8028269",
      "Longitude": "-73.9675054"
    },
    {
      "SegmentID": "70939",
      "RoadwayName": "Broadway",
      "From": "West 174 St",
      "To": "West 175 St",
      "Direction": "SB",
      "Date": "2019-09-21",
      "flow": 0.625531914893617,
      "Latitude": "40.8028269",
      "Longitude": "-73.9675054"
    },
    {
      "SegmentID": "74501",
      "RoadwayName": "Caldwell Avenue",
      "From": "72 Street",
      "To": "74 Street",
      "Direction": "WB",
      "Date": "2019-09-21",
      "flow": 0.05106382978723404,
      "Latitude": "40.7790162",
      "Longitude": "-73.9818557"
    },
    {
      "SegmentID": "22219",
      "RoadwayName": "Clinton Street",
      "From": "Sackett Street",
      "To": "Union Street",
      "Direction": "NB",
      "Date": "2019-09-21",
      "flow": 0.17872340425531916,
      "Latitude": "40.6857022",
      "Longitude": "-74.0049954"
    },
    {
      "SegmentID": "15047",
      "RoadwayName": "Clove Rd",
      "From": "Neckar Ave",
      "To": "Weser Ave",
      "Direction": "EB",
      "Date": "2019-09-21",
      "flow": 0.3446808510638298,
      "Latitude": "40.6139911",
      "Longitude": "-74.1012626"
    },
    {
      "SegmentID": "15047",
      "RoadwayName": "Clove Rd",
      "From": "Neckar Ave",
      "To": "Weser Ave",
      "Direction": "WB",
      "Date": "2019-09-21",
      "flow": 0.09787234042553192,
      "Latitude": "40.6139911",
      "Longitude": "-74.1012626"
    },
    {
      "SegmentID": "157129",
      "RoadwayName": "College Point Beoulevard",
      "From": "Dead End",
      "To": "Botanical Garden Bridge",
      "Direction": "NB",
      "Date": "2019-09-21",
      "flow": 0.23829787234042554,
      "Latitude": "40.8401745",
      "Longitude": "-73.82344175"
    },
    {
      "SegmentID": "156916",
      "RoadwayName": "College Point Boulevard",
      "From": "Dead End",
      "To": "Botanical Grdn Bridge",
      "Direction": "SB",
      "Date": "2019-09-21",
      "flow": 0.4723404255319149,
      "Latitude": "40.7525496",
      "Longitude": "-73.8325339"
    },
    {
      "SegmentID": "22023",
      "RoadwayName": "Columbia Street",
      "From": "Kane Street",
      "To": "Irving Street",
      "Direction": "NB",
      "Date": "2019-09-21",
      "flow": 0.0425531914893617,
      "Latitude": "40.6863978",
      "Longitude": "-73.9972781"
    },
    {
      "SegmentID": "22023",
      "RoadwayName": "Columbia Street",
      "From": "Kane Street",
      "To": "Irving Street",
      "Direction": "SB",
      "Date": "2019-09-21",
      "flow": 0.1829787234042553,
      "Latitude": "40.6863978",
      "Longitude": "-73.9972781"
    },
    {
      "SegmentID": "22409",
      "RoadwayName": "Court Street",
      "From": "De Graw Street",
      "To": "Sackett Street",
      "Direction": "SB",
      "Date": "2019-09-21",
      "flow": 0.548936170212766,
      "Latitude": "40.6941",
      "Longitude": "-73.991777"
    },
    {
      "SegmentID": "157208",
      "RoadwayName": "Francis Lewis Boulevard",
      "From": "Dead End",
      "To": "Dead End",
      "Direction": "EB",
      "Date": "2019-09-21",
      "flow": 0.1148936170212766,
      "Latitude": "40.7135593",
      "Longitude": "-73.753829"
    },
    {
      "SegmentID": "96010",
      "RoadwayName": "Fresh Meadow Lane",
      "From": "Horace Harding Expressway Sr. S",
      "To": "65 Avenue",
      "Direction": "NB",
      "Date": "2019-09-21",
      "flow": 0,
      "Latitude": "40.6336953",
      "Longitude": "-74.07832907"
    },
    {
      "SegmentID": "96010",
      "RoadwayName": "Fresh Meadow Lane",
      "From": "Horace Harding Expressway Sr. S",
      "To": "65 Avenue",
      "Direction": "SB",
      "Date": "2019-09-21",
      "flow": 0.06808510638297872,
      "Latitude": "40.6336953",
      "Longitude": "-74.07832907"
    },
    {
      "SegmentID": "21399",
      "RoadwayName": "Ft Hamilton Parkway",
      "From": "Chester Avenue",
      "To": "36 Street",
      "Direction": "NB",
      "Date": "2019-09-21",
      "flow": 0.4340425531914894,
      "Latitude": "40.6437651",
      "Longitude": "-73.9839445"
    },
    {
      "SegmentID": "21399",
      "RoadwayName": "Ft Hamilton Parkway",
      "From": "Chester Avenue",
      "To": "36 Street",
      "Direction": "SB",
      "Date": "2019-09-21",
      "flow": 0.5276595744680851,
      "Latitude": "40.6437651",
      "Longitude": "-73.9839445"
    },
    {
      "SegmentID": "19555",
      "RoadwayName": "Ft Hamilton Parkway",
      "From": "67 Street",
      "To": "68 Street",
      "Direction": "NB",
      "Date": "2019-09-21",
      "flow": 0.25957446808510637,
      "Latitude": "40.7285606",
      "Longitude": "-73.959184"
    },
    {
      "SegmentID": "19555",
      "RoadwayName": "Ft Hamilton Parkway",
      "From": "67 Street",
      "To": "68 Street",
      "Direction": "SB",
      "Date": "2019-09-21",
      "flow": 0.2127659574468085,
      "Latitude": "40.7285606",
      "Longitude": "-73.959184"
    },
    {
      "SegmentID": "182686",
      "RoadwayName": "Hewlett Street",
      "From": "Dead end",
      "To": "Union Turnpike",
      "Direction": "NB",
      "Date": "2019-09-21",
      "flow": 0.17872340425531916,
      "Latitude": "40.753754",
      "Longitude": "-73.704711"
    },
    {
      "SegmentID": "182686",
      "RoadwayName": "Hewlett Street",
      "From": "Dead End",
      "To": "Union Turnpike",
      "Direction": "SB",
      "Date": "2019-09-21",
      "flow": 0.16170212765957448,
      "Latitude": "40.753754",
      "Longitude": "-73.704711"
    },
    {
      "SegmentID": "22227",
      "RoadwayName": "Hicks Street",
      "From": "Kane Street",
      "To": "De Graw Street",
      "Direction": "NB",
      "Date": "2019-09-21",
      "flow": 0.2978723404255319,
      "Latitude": "40.6863978",
      "Longitude": "-73.9972781"
    },
    {
      "SegmentID": "22221",
      "RoadwayName": "Hicks Street",
      "From": "Kane Street",
      "To": "De Graw Street",
      "Direction": "SB",
      "Date": "2019-09-21",
      "flow": 0.13191489361702127,
      "Latitude": "40.6863978",
      "Longitude": "-73.9972781"
    },
    {
      "SegmentID": "114869",
      "RoadwayName": "Hylan Blvd South",
      "From": "Olga Pl",
      "To": "Olga Pl",
      "Direction": "NB",
      "Date": "2019-09-21",
      "flow": 0.3574468085106383,
      "Latitude": "40.603789",
      "Longitude": "-74.076663"
    },
    {
      "SegmentID": "14422",
      "RoadwayName": "Steuben St",
      "From": "Hylan Blvd North",
      "To": "Olga Place",
      "Direction": "SB",
      "Date": "2019-09-21",
      "flow": 0.676595744680851,
      "Latitude": "40.6067335",
      "Longitude": "-74.0758037"
    },
    {
      "SegmentID": "14602",
      "RoadwayName": "Hylan Blvd.",
      "From": "Fingerboard Rd",
      "To": "Dead End",
      "Direction": "NB",
      "Date": "2019-09-21",
      "flow": 0.1702127659574468,
      "Latitude": "40.602132",
      "Longitude": "-74.070593"
    },
    {
      "SegmentID": "14602",
      "RoadwayName": "Hylan Blvd.",
      "From": "Fingerboard St.",
      "To": "Dead End",
      "Direction": "SB",
      "Date": "2019-09-21",
      "flow": 0.17872340425531916,
      "Latitude": "40.600128",
      "Longitude": "-74.0915119"
    },
    {
      "SegmentID": "152334",
      "RoadwayName": "Hylan Boulevard",
      "From": "Ebbitts Street",
      "To": "Dead end",
      "Direction": "NB",
      "Date": "2019-09-21",
      "flow": 0.502127659574468,
      "Latitude": "40.563146",
      "Longitude": "-74.107869"
    },
    {
      "SegmentID": "155338",
      "RoadwayName": "Hylan Boulevard",
      "From": "Allison Avenue",
      "To": "Princeton Avenue",
      "Direction": "SB",
      "Date": "2019-09-21",
      "flow": 0.2723404255319149,
      "Latitude": "40.5675611",
      "Longitude": "-74.1157632"
    },
    {
      "SegmentID": "52940",
      "RoadwayName": "Jamaica Avenue",
      "From": "101 Street",
      "To": "102 Street",
      "Direction": "EB",
      "Date": "2019-09-21",
      "flow": 0.23404255319148937,
      "Latitude": "40.7023681",
      "Longitude": "-73.8036015"
    },
    {
      "SegmentID": "52940",
      "RoadwayName": "Jamaica Avenue",
      "From": "101 Street",
      "To": "102 Street",
      "Direction": "WB",
      "Date": "2019-09-21",
      "flow": 0.2425531914893617,
      "Latitude": "40.7023681",
      "Longitude": "-73.8036015"
    },
    {
      "SegmentID": "9007483",
      "RoadwayName": "Kissena Boulevard",
      "From": "Dead end",
      "To": "Melbourne Avenue",
      "Direction": "NB",
      "Date": "2019-09-21",
      "flow": 0.251063829787234,
      "Latitude": "40.8401745",
      "Longitude": "-73.82344175"
    },
    {
      "SegmentID": "9007488",
      "RoadwayName": "Kissena Boulevard",
      "From": "Dead End",
      "To": "Melbourne Ave.",
      "Direction": "SB",
      "Date": "2019-09-21",
      "flow": 0.26382978723404255,
      "Latitude": "40.8401745",
      "Longitude": "-73.82344175"
    },
    {
      "SegmentID": "57167",
      "RoadwayName": "Lakewood Avenue",
      "From": "Inwood Street",
      "To": "Princeton Street",
      "Direction": "EB",
      "Date": "2019-09-21",
      "flow": 0.10638297872340426,
      "Latitude": "40.6799541",
      "Longitude": "-73.7955745"
    },
    {
      "SegmentID": "57167",
      "RoadwayName": "Lakewood Avenue",
      "From": "Inwood Street",
      "To": "Princeton Street",
      "Direction": "WB",
      "Date": "2019-09-21",
      "flow": 0.059574468085106386,
      "Latitude": "40.6799541",
      "Longitude": "-73.7955745"
    },
    {
      "SegmentID": "9005244",
      "RoadwayName": "Manor Road",
      "From": "Dead end",
      "To": "Dead end",
      "Direction": "NB",
      "Date": "2019-09-21",
      "flow": 0.13617021276595745,
      "Latitude": "40.6092982",
      "Longitude": "-74.1212609"
    },
    {
      "SegmentID": "9005244",
      "RoadwayName": "Manor Road",
      "From": "Dead end",
      "To": "Dead end",
      "Direction": "SB",
      "Date": "2019-09-21",
      "flow": 0.08085106382978724,
      "Latitude": "40.6092982",
      "Longitude": "-74.1212609"
    },
    {
      "SegmentID": "275873",
      "RoadwayName": "Myrtle Avenue",
      "From": "Freedom Drive",
      "To": "Memorial Drive",
      "Direction": "EB",
      "Date": "2019-09-21",
      "flow": 0.3404255319148936,
      "Latitude": "40.700494",
      "Longitude": "-73.8481861"
    },
    {
      "SegmentID": "275873",
      "RoadwayName": "Myrtle Avenue",
      "From": "Freedom Drive",
      "To": "Memorial Drive",
      "Direction": "WB",
      "Date": "2019-09-21",
      "flow": 0.10212765957446808,
      "Latitude": "40.700494",
      "Longitude": "-73.8481861"
    },
    {
      "SegmentID": "97309",
      "RoadwayName": "Northern Boulevard",
      "From": "191 Street",
      "To": "192 Street",
      "Direction": "EB",
      "Date": "2019-09-21",
      "flow": 0.4808510638297872,
      "Latitude": "40.7530794",
      "Longitude": "-73.9062074"
    },
    {
      "SegmentID": "97309",
      "RoadwayName": "Northern Boulevard",
      "From": "191 Street",
      "To": "192 Street",
      "Direction": "WB",
      "Date": "2019-09-21",
      "flow": 0.33617021276595743,
      "Latitude": "40.7530794",
      "Longitude": "-73.9062074"
    },
    {
      "SegmentID": "98008",
      "RoadwayName": "Northern Boulevard",
      "From": "Oceania Street",
      "To": "Corporal Kennedy Street",
      "Direction": "EB",
      "Date": "2019-09-21",
      "flow": 0.39574468085106385,
      "Latitude": "40.7530794",
      "Longitude": "-73.9062074"
    },
    {
      "SegmentID": "98008",
      "RoadwayName": "Northern Boulevard",
      "From": "Oceania Street",
      "To": "Corporal Kennedy Stret",
      "Direction": "WB",
      "Date": "2019-09-21",
      "flow": 0.35319148936170214,
      "Latitude": "40.7530794",
      "Longitude": "-73.9062074"
    },
    {
      "SegmentID": "27577",
      "RoadwayName": "Nostrand Avenue",
      "From": "Avenue P",
      "To": "Stuart Street",
      "Direction": "NB",
      "Date": "2019-09-21",
      "flow": 0.2170212765957447,
      "Latitude": "40.608944",
      "Longitude": "-73.973022"
    },
    {
      "SegmentID": "27577",
      "RoadwayName": "Nostrand Avenue",
      "From": "Avenue P",
      "To": "Stuart Street",
      "Direction": "SB",
      "Date": "2019-09-21",
      "flow": 0.2936170212765957,
      "Latitude": "40.608944",
      "Longitude": "-73.973022"
    },
    {
      "SegmentID": "12946",
      "RoadwayName": "Ocean Terrace",
      "From": "Dead End",
      "To": "Milford Dr",
      "Direction": "NB",
      "Date": "2019-09-21",
      "flow": 0.05106382978723404,
      "Latitude": "40.6099752",
      "Longitude": "-74.1017632"
    },
    {
      "SegmentID": "12946",
      "RoadwayName": "Ocean Terrace",
      "From": "Dead End",
      "To": "Milford Dr",
      "Direction": "SB",
      "Date": "2019-09-21",
      "flow": 0.05106382978723404,
      "Latitude": "40.6099752",
      "Longitude": "-74.1017632"
    },
    {
      "SegmentID": "91425",
      "RoadwayName": "Parsons Boulevard",
      "From": "37 Avenue",
      "To": "38 Avenue",
      "Direction": "NB",
      "Date": "2019-09-21",
      "flow": 0.1702127659574468,
      "Latitude": "40.707564",
      "Longitude": "-73.803326"
    },
    {
      "SegmentID": "91425",
      "RoadwayName": "Parsons Boulevard",
      "From": "37 Avenue",
      "To": "38 Avenue",
      "Direction": "SB",
      "Date": "2019-09-21",
      "flow": 0.3574468085106383,
      "Latitude": "40.707564",
      "Longitude": "-73.803326"
    },
    {
      "SegmentID": "149278",
      "RoadwayName": "Richmond Ave",
      "From": "Yukon Ave",
      "To": "Dead End",
      "Direction": "SB",
      "Date": "2019-09-21",
      "flow": 0.28085106382978725,
      "Latitude": "40.5741893",
      "Longitude": "-74.1638395"
    },
    {
      "SegmentID": "155290",
      "RoadwayName": "Richmond Ave",
      "From": "Yukon Ave",
      "To": "Yukon Ave",
      "Direction": "NB",
      "Date": "2019-09-21",
      "flow": 0.4723404255319149,
      "Latitude": "40.5741893",
      "Longitude": "-74.1638395"
    },
    {
      "SegmentID": "112431",
      "RoadwayName": "Richmond Rd",
      "From": "Clove Rd",
      "To": "Dead End",
      "Direction": "SB",
      "Date": "2019-09-21",
      "flow": 0.6212765957446809,
      "Latitude": "40.5973154",
      "Longitude": "-74.0929447"
    },
    {
      "SegmentID": "111985",
      "RoadwayName": "Richmond Rd",
      "From": "Clove Rd",
      "To": "Dead End",
      "Direction": "SB",
      "Date": "2019-09-21",
      "flow": 0.5106382978723404,
      "Latitude": "40.5973154",
      "Longitude": "-74.0929447"
    },
    {
      "SegmentID": "98540",
      "RoadwayName": "Springfield Boulevard",
      "From": "219 Street",
      "To": "46 Avenue",
      "Direction": "NB",
      "Date": "2019-09-21",
      "flow": 0.0425531914893617,
      "Latitude": "40.7803531",
      "Longitude": "-73.9513584"
    },
    {
      "SegmentID": "98540",
      "RoadwayName": "Springfield Boulevard",
      "From": "219 Street",
      "To": "46 Avenue",
      "Direction": "SB",
      "Date": "2019-09-21",
      "flow": 0.05531914893617021,
      "Latitude": "40.7803531",
      "Longitude": "-73.9513584"
    },
    {
      "SegmentID": "101166",
      "RoadwayName": "Springfield Boulevard",
      "From": "64 Ave",
      "To": "67 Ave",
      "Direction": "NB",
      "Date": "2019-09-21",
      "flow": 0.0851063829787234,
      "Latitude": "41.7134121",
      "Longitude": "-73.9250864"
    },
    {
      "SegmentID": "101166",
      "RoadwayName": "Springfield Boulevard",
      "From": "64 Avenue",
      "To": "67 Avenue",
      "Direction": "SB",
      "Date": "2019-09-21",
      "flow": 0.11914893617021277,
      "Latitude": "40.7658729",
      "Longitude": "-73.9657559"
    },
    {
      "SegmentID": "70957",
      "RoadwayName": "St Nicholas Ave",
      "From": "Broadway/ 7 Ave Line",
      "To": "Broadway/ 7 Ave Line",
      "Direction": "NB",
      "Date": "2019-09-21",
      "flow": 0.8,
      "Latitude": "40.8241432",
      "Longitude": "-73.9446885"
    },
    {
      "SegmentID": "70957",
      "RoadwayName": "St Nicholas Ave",
      "From": "Broadway / 7 Ave Line",
      "To": "Broadway / 7 Ave Line",
      "Direction": "SB",
      "Date": "2019-09-21",
      "flow": 0.44680851063829785,
      "Latitude": "40.8241432",
      "Longitude": "-73.9446885"
    },
    {
      "SegmentID": "50660",
      "RoadwayName": "Sutter Avenue",
      "From": "Hemlock Street",
      "To": "Autumn Avenue",
      "Direction": "WB",
      "Date": "2019-09-21",
      "flow": 0.4595744680851064,
      "Latitude": "40.684704",
      "Longitude": "-73.8713701"
    },
    {
      "SegmentID": "114825",
      "RoadwayName": "Targee St",
      "From": "Columbus Ave",
      "To": "Richmond Rd",
      "Direction": "NB",
      "Date": "2019-09-21",
      "flow": 0.3021276595744681,
      "Latitude": "40.7998673",
      "Longitude": "-73.9624226"
    },
    {
      "SegmentID": "156721",
      "RoadwayName": "Union Turnpike",
      "From": "196 Street",
      "To": "196 Place",
      "Direction": "EB",
      "Date": "2019-09-21",
      "flow": 0.07659574468085106,
      "Latitude": "40.7454151",
      "Longitude": "-73.715169"
    },
    {
      "SegmentID": "145421",
      "RoadwayName": "Union Turnpike",
      "From": "Dead end",
      "To": "Dead end",
      "Direction": "WB",
      "Date": "2019-09-21",
      "flow": 0.059574468085106386,
      "Latitude": "40.7454151",
      "Longitude": "-73.715169"
    },
    {
      "SegmentID": "156045",
      "RoadwayName": "Utopia Parkway",
      "From": "Dead End",
      "To": "45 Avenue",
      "Direction": "NB",
      "Date": "2019-09-21",
      "flow": 0.1702127659574468,
      "Latitude": "40.8401745",
      "Longitude": "-73.82344175"
    },
    {
      "SegmentID": "152386",
      "RoadwayName": "Utopia Parkway",
      "From": "Dead End",
      "To": "45 Avenue",
      "Direction": "SB",
      "Date": "2019-09-21",
      "flow": 0.20425531914893616,
      "Latitude": "40.8401745",
      "Longitude": "-73.82344175"
    },
    {
      "SegmentID": "112566",
      "RoadwayName": "Van Duzer St",
      "From": "Broad St",
      "To": "Jake Court",
      "Direction": "SB",
      "Date": "2019-09-21",
      "flow": 0.3021276595744681,
      "Latitude": "40.6255943",
      "Longitude": "-74.0844979"
    },
    {
      "SegmentID": "160109",
      "RoadwayName": "Victory Boulevard",
      "From": "South Gannon Avenue",
      "To": "Dr M L King Ep Nb En Victory Bl",
      "Direction": "EB",
      "Date": "2019-09-21",
      "flow": 0.5319148936170213,
      "Latitude": "40.6377769",
      "Longitude": "-74.0758638"
    },
    {
      "SegmentID": "160109",
      "RoadwayName": "Victory Boulevard",
      "From": "South Gannon Avenue",
      "To": "Dr M L King Ep Nb En Victory Bl",
      "Direction": "WB",
      "Date": "2019-09-21",
      "flow": 0.39148936170212767,
      "Latitude": "40.6377769",
      "Longitude": "-74.0758638"
    },
    {
      "SegmentID": "218038",
      "RoadwayName": "Woodrow Road",
      "From": "Dead End",
      "To": "Everton Avenue",
      "Direction": "NB",
      "Date": "2019-09-21",
      "flow": 0.07234042553191489,
      "Latitude": "40.5416162",
      "Longitude": "-74.2097325"
    },
    {
      "SegmentID": "218038",
      "RoadwayName": "Woodrow Road",
      "From": "Dead end",
      "To": "Everton Avenue",
      "Direction": "SB",
      "Date": "2019-09-21",
      "flow": 0.0425531914893617,
      "Latitude": "40.5416162",
      "Longitude": "-74.2097325"
    },
    {
      "SegmentID": "103545",
      "RoadwayName": "Woolley Aveneue",
      "From": "Westwood Avenue",
      "To": "Dawson Street",
      "Direction": "SB",
      "Date": "2019-09-21",
      "flow": 0.2680851063829787,
      "Latitude": "40.6056918",
      "Longitude": "-74.1397543"
    },
    {
      "SegmentID": "103545",
      "RoadwayName": "Woolley Avenue",
      "From": "Westwood Avenue",
      "To": "Dawson Street",
      "Direction": "NB",
      "Date": "2019-09-21",
      "flow": 0.16170212765957448,
      "Latitude": "40.6056918",
      "Longitude": "-74.1397543"
    }
  ],
  "3:00-4:00AM": [
    {
      "SegmentID": "96671",
      "RoadwayName": "188 Street",
      "From": "Rio Drive",
      "To": "Henley Road",
      "Direction": "NB",
      "Date": "2019-09-21",
      "flow": 0.558974358974359,
      "Latitude": "40.7185067",
      "Longitude": "-73.7748952"
    },
    {
      "SegmentID": "96671",
      "RoadwayName": "188 Street",
      "From": "Rio Drive",
      "To": "Henley Road",
      "Direction": "SB",
      "Date": "2019-09-21",
      "flow": 0.5435897435897435,
      "Latitude": "40.7185067",
      "Longitude": "-73.7748952"
    },
    {
      "SegmentID": "117242",
      "RoadwayName": "200 Street",
      "From": "36 Avenue",
      "To": "Francis Lewis Boulevard",
      "Direction": "NB",
      "Date": "2019-09-21",
      "flow": 0.010256410256410256,
      "Latitude": "40.71364135",
      "Longitude": "-74.01482043"
    },
    {
      "SegmentID": "98876",
      "RoadwayName": "26 Avenue",
      "From": "201 Street",
      "To": "202 Street",
      "Direction": "EB",
      "Date": "2019-09-21",
      "flow": 0.020512820512820513,
      "Latitude": "42.4373576",
      "Longitude": "-76.4945086"
    },
    {
      "SegmentID": "98876",
      "RoadwayName": "26 Avenue",
      "From": "201 Street",
      "To": "202 Street",
      "Direction": "WB",
      "Date": "2019-09-21",
      "flow": 0.03076923076923077,
      "Latitude": "42.4373576",
      "Longitude": "-76.4945086"
    },
    {
      "SegmentID": "97492",
      "RoadwayName": "35 Avenue",
      "From": "Francis Lewis Boulevard",
      "To": "200 Street",
      "Direction": "EB",
      "Date": "2019-09-21",
      "flow": 0.09230769230769231,
      "Latitude": "40.7127281",
      "Longitude": "-74.0060152"
    },
    {
      "SegmentID": "97492",
      "RoadwayName": "35 Avenue",
      "From": "Francis Lewis Boulevard",
      "To": "200 Street",
      "Direction": "WB",
      "Date": "2019-09-21",
      "flow": 0.11794871794871795,
      "Latitude": "40.7127281",
      "Longitude": "-74.0060152"
    },
    {
      "SegmentID": "97525",
      "RoadwayName": "35 Avenue",
      "From": "203 Street",
      "To": "204 Street",
      "Direction": "EB",
      "Date": "2019-09-21",
      "flow": 0.14358974358974358,
      "Latitude": "40.7127281",
      "Longitude": "-74.0060152"
    },
    {
      "SegmentID": "97525",
      "RoadwayName": "35 Avenue",
      "From": "203 Street",
      "To": "204 Street",
      "Direction": "WB",
      "Date": "2019-09-21",
      "flow": 0.08205128205128205,
      "Latitude": "40.7127281",
      "Longitude": "-74.0060152"
    },
    {
      "SegmentID": "21331",
      "RoadwayName": "37 Street",
      "From": "12 Avenue",
      "To": "13 Avenue",
      "Direction": "EB",
      "Date": "2019-09-21",
      "flow": 0.09743589743589744,
      "Latitude": "40.8178841",
      "Longitude": "-73.9604648"
    },
    {
      "SegmentID": "21327",
      "RoadwayName": "39 Street",
      "From": "12 Avenue",
      "To": "13 Avenue",
      "Direction": "EB",
      "Date": "2019-09-21",
      "flow": 0.07179487179487179,
      "Latitude": "40.7583819",
      "Longitude": "-73.9984041"
    },
    {
      "SegmentID": "21327",
      "RoadwayName": "39 Street",
      "From": "12 Avenue",
      "To": "13 Avenue",
      "Direction": "WB",
      "Date": "2019-09-21",
      "flow": 0.07692307692307693,
      "Latitude": "40.7583819",
      "Longitude": "-73.9984041"
    },
    {
      "SegmentID": "97302",
      "RoadwayName": "45 Avenue",
      "From": "192 Street",
      "To": "193 Street",
      "Direction": "WB",
      "Date": "2019-09-21",
      "flow": 0,
      "Latitude": "40.54747245",
      "Longitude": "-74.21054678"
    },
    {
      "SegmentID": "97302",
      "RoadwayName": "45 Avenue",
      "From": "192 Street",
      "To": "193 Street",
      "Direction": "EB",
      "Date": "2019-09-21",
      "flow": 0.03076923076923077,
      "Latitude": "40.54747245",
      "Longitude": "-74.21054678"
    },
    {
      "SegmentID": "21164",
      "RoadwayName": "49 Street",
      "From": "12 Avenue",
      "To": "13 Avenue",
      "Direction": "WB",
      "Date": "2019-09-21",
      "flow": 0.07692307692307693,
      "Latitude": "40.8178841",
      "Longitude": "-73.9604648"
    },
    {
      "SegmentID": "28923",
      "RoadwayName": "5 Avenue",
      "From": "Douglass Street",
      "To": "De Graw Street",
      "Direction": "NB",
      "Date": "2019-09-21",
      "flow": 0.3076923076923077,
      "Latitude": "40.5467724",
      "Longitude": "-74.21034999"
    },
    {
      "SegmentID": "21148",
      "RoadwayName": "50 Street",
      "From": "New Utecht Avenue",
      "To": "13 Avenue",
      "Direction": "EB",
      "Date": "2019-09-21",
      "flow": 0.11282051282051282,
      "Latitude": "40.7616618",
      "Longitude": "-73.9838968"
    },
    {
      "SegmentID": "19805",
      "RoadwayName": "60 Street",
      "From": "11 Avenue",
      "To": "12 Avenue",
      "Direction": "EB",
      "Date": "2019-09-21",
      "flow": 0.3230769230769231,
      "Latitude": "40.5923764",
      "Longitude": "-73.7887383"
    },
    {
      "SegmentID": "19805",
      "RoadwayName": "60 Street",
      "From": "11 Avenue",
      "To": "12 Avenue",
      "Direction": "WB",
      "Date": "2019-09-21",
      "flow": 0.1076923076923077,
      "Latitude": "40.5923764",
      "Longitude": "-73.7887383"
    },
    {
      "SegmentID": "81815",
      "RoadwayName": "63 Drive",
      "From": "Wetherole St.",
      "To": "Booth Street",
      "Direction": "NB",
      "Date": "2019-09-21",
      "flow": 0.17435897435897435,
      "Latitude": "40.7279569",
      "Longitude": "-73.8635025"
    },
    {
      "SegmentID": "81815",
      "RoadwayName": "63 Drive",
      "From": "Wetherole St.",
      "To": "Booth Street",
      "Direction": "SB",
      "Date": "2019-09-21",
      "flow": 0.07692307692307693,
      "Latitude": "40.7279569",
      "Longitude": "-73.8635025"
    },
    {
      "SegmentID": "19566",
      "RoadwayName": "65 Street",
      "From": "10 Avenue",
      "To": "11 Avenue",
      "Direction": "EB",
      "Date": "2019-09-21",
      "flow": 1,
      "Latitude": "40.6682755",
      "Longitude": "-73.9946405"
    },
    {
      "SegmentID": "19566",
      "RoadwayName": "65 Street",
      "From": "10 Avenue",
      "To": "11 Avenue",
      "Direction": "WB",
      "Date": "2019-09-21",
      "flow": 0.6974358974358974,
      "Latitude": "40.6682755",
      "Longitude": "-73.9946405"
    },
    {
      "SegmentID": "20157",
      "RoadwayName": "65 Street",
      "From": "18 Avenue",
      "To": "19 Avenue",
      "Direction": "EB",
      "Date": "2019-09-21",
      "flow": 0.6,
      "Latitude": "40.6682755",
      "Longitude": "-73.9946405"
    },
    {
      "SegmentID": "20157",
      "RoadwayName": "65 Street",
      "From": "18 Avenue",
      "To": "19 Avenue",
      "Direction": "WB",
      "Date": "2019-09-21",
      "flow": 0.4717948717948718,
      "Latitude": "40.6682755",
      "Longitude": "-73.9946405"
    },
    {
      "SegmentID": "96615",
      "RoadwayName": "73 Avenue",
      "From": "194 Street",
      "To": "195 Street",
      "Direction": "WB",
      "Date": "2019-09-21",
      "flow": 0.03076923076923077,
      "Latitude": "40.72847335",
      "Longitude": "-73.89326198"
    },
    {
      "SegmentID": "96615",
      "RoadwayName": "73 Avenue",
      "From": "194 Street",
      "To": "195 Street",
      "Direction": "EB",
      "Date": "2019-09-21",
      "flow": 0.020512820512820513,
      "Latitude": "40.72847335",
      "Longitude": "-73.89326198"
    },
    {
      "SegmentID": "19461",
      "RoadwayName": "8 Avenue",
      "From": "67 Street",
      "To": "68 Street",
      "Direction": "NB",
      "Date": "2019-09-21",
      "flow": 0.1282051282051282,
      "Latitude": "40.7683107",
      "Longitude": "-73.96440596"
    },
    {
      "SegmentID": "19461",
      "RoadwayName": "8 Avenue",
      "From": "67 Street",
      "To": "68 Street",
      "Direction": "SB",
      "Date": "2019-09-21",
      "flow": 0.1282051282051282,
      "Latitude": "40.7683107",
      "Longitude": "-73.96440596"
    },
    {
      "SegmentID": "52297",
      "RoadwayName": "80 Street",
      "From": "68 Avenue",
      "To": "68 Road",
      "Direction": "NB",
      "Date": "2019-09-21",
      "flow": 0.15897435897435896,
      "Latitude": "40.7651325",
      "Longitude": "-73.9580265"
    },
    {
      "SegmentID": "52297",
      "RoadwayName": "80 Street",
      "From": "68 Avenue",
      "To": "68 Road",
      "Direction": "SB",
      "Date": "2019-09-21",
      "flow": 0.2358974358974359,
      "Latitude": "40.7651325",
      "Longitude": "-73.9580265"
    },
    {
      "SegmentID": "112136",
      "RoadwayName": "Amboy Road",
      "From": "3 Street",
      "To": "Dale Ave",
      "Direction": "NB",
      "Date": "2019-09-21",
      "flow": 0.18461538461538463,
      "Latitude": "40.57364435",
      "Longitude": "-74.00012135"
    },
    {
      "SegmentID": "112136",
      "RoadwayName": "Amboy Road",
      "From": "2 Street",
      "To": "Dale Ave.",
      "Direction": "SB",
      "Date": "2019-09-21",
      "flow": 0.1282051282051282,
      "Latitude": "40.5472181",
      "Longitude": "-74.21231751"
    },
    {
      "SegmentID": "22924",
      "RoadwayName": "Atlantic Avenue",
      "From": "3 Avenue",
      "To": "4 Avenue",
      "Direction": "WB",
      "Date": "2019-09-21",
      "flow": 0.8564102564102564,
      "Latitude": "40.54678755",
      "Longitude": "-74.21027354"
    },
    {
      "SegmentID": "22924",
      "RoadwayName": "Atlantic Avenue",
      "From": "3 Avenue",
      "To": "4 Avenue",
      "Direction": "EB",
      "Date": "2019-09-21",
      "flow": 0.9487179487179487,
      "Latitude": "40.54678755",
      "Longitude": "-74.21027354"
    },
    {
      "SegmentID": "70931",
      "RoadwayName": "Audubon Ave",
      "From": "West 172 St",
      "To": "West 173 St",
      "Direction": "NB",
      "Date": "2019-09-21",
      "flow": 0.2512820512820513,
      "Latitude": "43.0014991",
      "Longitude": "-76.1489914"
    },
    {
      "SegmentID": "70931",
      "RoadwayName": "Audubon Ave",
      "From": "West 172 St",
      "To": "West 173 St",
      "Direction": "SB",
      "Date": "2019-09-21",
      "flow": 0.37435897435897436,
      "Latitude": "43.0014991",
      "Longitude": "-76.1489914"
    },
    {
      "SegmentID": "27017",
      "RoadwayName": "Avenue J",
      "From": "East 12 Street",
      "To": "East 13 Street",
      "Direction": "EB",
      "Date": "2019-09-21",
      "flow": 0.2153846153846154,
      "Latitude": "40.625039",
      "Longitude": "-73.960803"
    },
    {
      "SegmentID": "27017",
      "RoadwayName": "Avenue J",
      "From": "East 12 Street",
      "To": "East 13 Street",
      "Direction": "WB",
      "Date": "2019-09-21",
      "flow": 0.18974358974358974,
      "Latitude": "40.625039",
      "Longitude": "-73.960803"
    },
    {
      "SegmentID": "27147",
      "RoadwayName": "Avenue M",
      "From": "Brighton Line",
      "To": "East 16 Street",
      "Direction": "EB",
      "Date": "2019-09-21",
      "flow": 0.2153846153846154,
      "Latitude": "40.6178971",
      "Longitude": "-73.959474"
    },
    {
      "SegmentID": "27147",
      "RoadwayName": "Avenue M",
      "From": "Brighton Line",
      "To": "East 16 Street",
      "Direction": "WB",
      "Date": "2019-09-21",
      "flow": 0.20512820512820512,
      "Latitude": "40.6178971",
      "Longitude": "-73.959474"
    },
    {
      "SegmentID": "27120",
      "RoadwayName": "Avenue N",
      "From": "East 15 Street",
      "To": "Brighton Line",
      "Direction": "EB",
      "Date": "2019-09-21",
      "flow": 0.30256410256410254,
      "Latitude": "40.7326744",
      "Longitude": "-73.9835879"
    },
    {
      "SegmentID": "26964",
      "RoadwayName": "Avenue P",
      "From": "East 12 Street",
      "To": "East 13 Street",
      "Direction": "EB",
      "Date": "2019-09-21",
      "flow": 0.22564102564102564,
      "Latitude": "40.608944",
      "Longitude": "-73.973022"
    },
    {
      "SegmentID": "26964",
      "RoadwayName": "Avenue P",
      "From": "East 12 Street",
      "To": "East 13 Street",
      "Direction": "WB",
      "Date": "2019-09-21",
      "flow": 0.22564102564102564,
      "Latitude": "40.608944",
      "Longitude": "-73.973022"
    },
    {
      "SegmentID": "20147",
      "RoadwayName": "Bay Ridge Avenue",
      "From": "19 Avenue",
      "To": "20 Avenue",
      "Direction": "EB",
      "Date": "2019-09-21",
      "flow": 0.035897435897435895,
      "Latitude": "40.6987989",
      "Longitude": "-73.97471527"
    },
    {
      "SegmentID": "15736",
      "RoadwayName": "Bay St",
      "From": "William St",
      "To": "Congress St",
      "Direction": "NB",
      "Date": "2019-09-21",
      "flow": 0.3128205128205128,
      "Latitude": "40.7083391",
      "Longitude": "-74.0076543"
    },
    {
      "SegmentID": "15736",
      "RoadwayName": "Bay St",
      "From": "William St",
      "To": "Congress St",
      "Direction": "SB",
      "Date": "2019-09-21",
      "flow": 0.37435897435897436,
      "Latitude": "40.7083391",
      "Longitude": "-74.0076543"
    },
    {
      "SegmentID": "15540",
      "RoadwayName": "Beach St",
      "From": "Union Pl",
      "To": "Van Duzer St",
      "Direction": "EB",
      "Date": "2019-09-21",
      "flow": 0.12307692307692308,
      "Latitude": "40.6277638",
      "Longitude": "-74.0772802"
    },
    {
      "SegmentID": "15540",
      "RoadwayName": "Beach St",
      "From": "Union Pl",
      "To": "Van Duzer St",
      "Direction": "WB",
      "Date": "2019-09-21",
      "flow": 0.12307692307692308,
      "Latitude": "40.6277638",
      "Longitude": "-74.0772802"
    },
    {
      "SegmentID": "98338",
      "RoadwayName": "Bell Boulevard",
      "From": "45 Drive",
      "To": "46 Avenue",
      "Direction": "NB",
      "Date": "2019-09-21",
      "flow": 0.06153846153846154,
      "Latitude": "40.84097805",
      "Longitude": "-73.86140949"
    },
    {
      "SegmentID": "98338",
      "RoadwayName": "Bell Boulevard",
      "From": "45 Drive",
      "To": "46 Avenue",
      "Direction": "SB",
      "Date": "2019-09-21",
      "flow": 0.1076923076923077,
      "Latitude": "40.84097805",
      "Longitude": "-73.86140949"
    },
    {
      "SegmentID": "91014",
      "RoadwayName": "Booth Memorial Ave.",
      "From": "College Point Boulevard",
      "To": "133 Street",
      "Direction": "EB",
      "Date": "2019-09-21",
      "flow": 0.2153846153846154,
      "Latitude": "40.7525496",
      "Longitude": "-73.8325339"
    },
    {
      "SegmentID": "91014",
      "RoadwayName": "Booth Memorial Ave.",
      "From": "College Point Boulevard",
      "To": "133 Street",
      "Direction": "WB",
      "Date": "2019-09-21",
      "flow": 0.31794871794871793,
      "Latitude": "40.7525496",
      "Longitude": "-73.8325339"
    },
    {
      "SegmentID": "70939",
      "RoadwayName": "Broadway",
      "From": "West 174 St",
      "To": "West 175 St",
      "Direction": "NB",
      "Date": "2019-09-21",
      "flow": 0.3076923076923077,
      "Latitude": "40.8028269",
      "Longitude": "-73.9675054"
    },
    {
      "SegmentID": "70939",
      "RoadwayName": "Broadway",
      "From": "West 174 St",
      "To": "West 175 St",
      "Direction": "SB",
      "Date": "2019-09-21",
      "flow": 0.5487179487179488,
      "Latitude": "40.8028269",
      "Longitude": "-73.9675054"
    },
    {
      "SegmentID": "74501",
      "RoadwayName": "Caldwell Avenue",
      "From": "72 Street",
      "To": "74 Street",
      "Direction": "WB",
      "Date": "2019-09-21",
      "flow": 0.041025641025641026,
      "Latitude": "40.7790162",
      "Longitude": "-73.9818557"
    },
    {
      "SegmentID": "22219",
      "RoadwayName": "Clinton Street",
      "From": "Sackett Street",
      "To": "Union Street",
      "Direction": "NB",
      "Date": "2019-09-21",
      "flow": 0.05641025641025641,
      "Latitude": "40.6857022",
      "Longitude": "-74.0049954"
    },
    {
      "SegmentID": "15047",
      "RoadwayName": "Clove Rd",
      "From": "Neckar Ave",
      "To": "Weser Ave",
      "Direction": "EB",
      "Date": "2019-09-21",
      "flow": 0.6256410256410256,
      "Latitude": "40.6139911",
      "Longitude": "-74.1012626"
    },
    {
      "SegmentID": "15047",
      "RoadwayName": "Clove Rd",
      "From": "Neckar Ave",
      "To": "Weser Ave",
      "Direction": "WB",
      "Date": "2019-09-21",
      "flow": 0.11794871794871795,
      "Latitude": "40.6139911",
      "Longitude": "-74.1012626"
    },
    {
      "SegmentID": "157129",
      "RoadwayName": "College Point Beoulevard",
      "From": "Dead End",
      "To": "Botanical Garden Bridge",
      "Direction": "NB",
      "Date": "2019-09-21",
      "flow": 0.29743589743589743,
      "Latitude": "40.8401745",
      "Longitude": "-73.82344175"
    },
    {
      "SegmentID": "156916",
      "RoadwayName": "College Point Boulevard",
      "From": "Dead End",
      "To": "Botanical Grdn Bridge",
      "Direction": "SB",
      "Date": "2019-09-21",
      "flow": 0.6564102564102564,
      "Latitude": "40.7525496",
      "Longitude": "-73.8325339"
    },
    {
      "SegmentID": "22023",
      "RoadwayName": "Columbia Street",
      "From": "Kane Street",
      "To": "Irving Street",
      "Direction": "NB",
      "Date": "2019-09-21",
      "flow": 0.035897435897435895,
      "Latitude": "40.6863978",
      "Longitude": "-73.9972781"
    },
    {
      "SegmentID": "22023",
      "RoadwayName": "Columbia Street",
      "From": "Kane Street",
      "To": "Irving Street",
      "Direction": "SB",
      "Date": "2019-09-21",
      "flow": 0.11282051282051282,
      "Latitude": "40.6863978",
      "Longitude": "-73.9972781"
    },
    {
      "SegmentID": "22409",
      "RoadwayName": "Court Street",
      "From": "De Graw Street",
      "To": "Sackett Street",
      "Direction": "SB",
      "Date": "2019-09-21",
      "flow": 0.31794871794871793,
      "Latitude": "40.6941",
      "Longitude": "-73.991777"
    },
    {
      "SegmentID": "157208",
      "RoadwayName": "Francis Lewis Boulevard",
      "From": "Dead End",
      "To": "Dead End",
      "Direction": "EB",
      "Date": "2019-09-21",
      "flow": 0.09743589743589744,
      "Latitude": "40.7135593",
      "Longitude": "-73.753829"
    },
    {
      "SegmentID": "96010",
      "RoadwayName": "Fresh Meadow Lane",
      "From": "Horace Harding Expressway Sr. S",
      "To": "65 Avenue",
      "Direction": "NB",
      "Date": "2019-09-21",
      "flow": 0,
      "Latitude": "40.6336953",
      "Longitude": "-74.07832907"
    },
    {
      "SegmentID": "96010",
      "RoadwayName": "Fresh Meadow Lane",
      "From": "Horace Harding Expressway Sr. S",
      "To": "65 Avenue",
      "Direction": "SB",
      "Date": "2019-09-21",
      "flow": 0.06153846153846154,
      "Latitude": "40.6336953",
      "Longitude": "-74.07832907"
    },
    {
      "SegmentID": "21399",
      "RoadwayName": "Ft Hamilton Parkway",
      "From": "Chester Avenue",
      "To": "36 Street",
      "Direction": "NB",
      "Date": "2019-09-21",
      "flow": 0.4564102564102564,
      "Latitude": "40.6437651",
      "Longitude": "-73.9839445"
    },
    {
      "SegmentID": "21399",
      "RoadwayName": "Ft Hamilton Parkway",
      "From": "Chester Avenue",
      "To": "36 Street",
      "Direction": "SB",
      "Date": "2019-09-21",
      "flow": 0.558974358974359,
      "Latitude": "40.6437651",
      "Longitude": "-73.9839445"
    },
    {
      "SegmentID": "19555",
      "RoadwayName": "Ft Hamilton Parkway",
      "From": "67 Street",
      "To": "68 Street",
      "Direction": "NB",
      "Date": "2019-09-21",
      "flow": 0.26666666666666666,
      "Latitude": "40.7285606",
      "Longitude": "-73.959184"
    },
    {
      "SegmentID": "19555",
      "RoadwayName": "Ft Hamilton Parkway",
      "From": "67 Street",
      "To": "68 Street",
      "Direction": "SB",
      "Date": "2019-09-21",
      "flow": 0.1076923076923077,
      "Latitude": "40.7285606",
      "Longitude": "-73.959184"
    },
    {
      "SegmentID": "182686",
      "RoadwayName": "Hewlett Street",
      "From": "Dead end",
      "To": "Union Turnpike",
      "Direction": "NB",
      "Date": "2019-09-21",
      "flow": 0.1641025641025641,
      "Latitude": "40.753754",
      "Longitude": "-73.704711"
    },
    {
      "SegmentID": "182686",
      "RoadwayName": "Hewlett Street",
      "From": "Dead End",
      "To": "Union Turnpike",
      "Direction": "SB",
      "Date": "2019-09-21",
      "flow": 0.13333333333333333,
      "Latitude": "40.753754",
      "Longitude": "-73.704711"
    },
    {
      "SegmentID": "22227",
      "RoadwayName": "Hicks Street",
      "From": "Kane Street",
      "To": "De Graw Street",
      "Direction": "NB",
      "Date": "2019-09-21",
      "flow": 0.23076923076923078,
      "Latitude": "40.6863978",
      "Longitude": "-73.9972781"
    },
    {
      "SegmentID": "22221",
      "RoadwayName": "Hicks Street",
      "From": "Kane Street",
      "To": "De Graw Street",
      "Direction": "SB",
      "Date": "2019-09-21",
      "flow": 0.035897435897435895,
      "Latitude": "40.6863978",
      "Longitude": "-73.9972781"
    },
    {
      "SegmentID": "114869",
      "RoadwayName": "Hylan Blvd South",
      "From": "Olga Pl",
      "To": "Olga Pl",
      "Direction": "NB",
      "Date": "2019-09-21",
      "flow": 0.3282051282051282,
      "Latitude": "40.603789",
      "Longitude": "-74.076663"
    },
    {
      "SegmentID": "14422",
      "RoadwayName": "Steuben St",
      "From": "Hylan Blvd North",
      "To": "Olga Place",
      "Direction": "SB",
      "Date": "2019-09-21",
      "flow": 0.6358974358974359,
      "Latitude": "40.6067335",
      "Longitude": "-74.0758037"
    },
    {
      "SegmentID": "14602",
      "RoadwayName": "Hylan Blvd.",
      "From": "Fingerboard Rd",
      "To": "Dead End",
      "Direction": "NB",
      "Date": "2019-09-21",
      "flow": 0.13846153846153847,
      "Latitude": "40.602132",
      "Longitude": "-74.070593"
    },
    {
      "SegmentID": "14602",
      "RoadwayName": "Hylan Blvd.",
      "From": "Fingerboard St.",
      "To": "Dead End",
      "Direction": "SB",
      "Date": "2019-09-21",
      "flow": 0.1641025641025641,
      "Latitude": "40.600128",
      "Longitude": "-74.0915119"
    },
    {
      "SegmentID": "152334",
      "RoadwayName": "Hylan Boulevard",
      "From": "Ebbitts Street",
      "To": "Dead end",
      "Direction": "NB",
      "Date": "2019-09-21",
      "flow": 0.29743589743589743,
      "Latitude": "40.563146",
      "Longitude": "-74.107869"
    },
    {
      "SegmentID": "155338",
      "RoadwayName": "Hylan Boulevard",
      "From": "Allison Avenue",
      "To": "Princeton Avenue",
      "Direction": "SB",
      "Date": "2019-09-21",
      "flow": 0.36923076923076925,
      "Latitude": "40.5675611",
      "Longitude": "-74.1157632"
    },
    {
      "SegmentID": "52940",
      "RoadwayName": "Jamaica Avenue",
      "From": "101 Street",
      "To": "102 Street",
      "Direction": "EB",
      "Date": "2019-09-21",
      "flow": 0.26153846153846155,
      "Latitude": "40.7023681",
      "Longitude": "-73.8036015"
    },
    {
      "SegmentID": "52940",
      "RoadwayName": "Jamaica Avenue",
      "From": "101 Street",
      "To": "102 Street",
      "Direction": "WB",
      "Date": "2019-09-21",
      "flow": 0.3230769230769231,
      "Latitude": "40.7023681",
      "Longitude": "-73.8036015"
    },
    {
      "SegmentID": "9007483",
      "RoadwayName": "Kissena Boulevard",
      "From": "Dead end",
      "To": "Melbourne Avenue",
      "Direction": "NB",
      "Date": "2019-09-21",
      "flow": 0.3487179487179487,
      "Latitude": "40.8401745",
      "Longitude": "-73.82344175"
    },
    {
      "SegmentID": "9007488",
      "RoadwayName": "Kissena Boulevard",
      "From": "Dead End",
      "To": "Melbourne Ave.",
      "Direction": "SB",
      "Date": "2019-09-21",
      "flow": 0.29743589743589743,
      "Latitude": "40.8401745",
      "Longitude": "-73.82344175"
    },
    {
      "SegmentID": "57167",
      "RoadwayName": "Lakewood Avenue",
      "From": "Inwood Street",
      "To": "Princeton Street",
      "Direction": "EB",
      "Date": "2019-09-21",
      "flow": 0.12307692307692308,
      "Latitude": "40.6799541",
      "Longitude": "-73.7955745"
    },
    {
      "SegmentID": "57167",
      "RoadwayName": "Lakewood Avenue",
      "From": "Inwood Street",
      "To": "Princeton Street",
      "Direction": "WB",
      "Date": "2019-09-21",
      "flow": 0.13846153846153847,
      "Latitude": "40.6799541",
      "Longitude": "-73.7955745"
    },
    {
      "SegmentID": "9005244",
      "RoadwayName": "Manor Road",
      "From": "Dead end",
      "To": "Dead end",
      "Direction": "NB",
      "Date": "2019-09-21",
      "flow": 0.11282051282051282,
      "Latitude": "40.6092982",
      "Longitude": "-74.1212609"
    },
    {
      "SegmentID": "9005244",
      "RoadwayName": "Manor Road",
      "From": "Dead end",
      "To": "Dead end",
      "Direction": "SB",
      "Date": "2019-09-21",
      "flow": 0.13846153846153847,
      "Latitude": "40.6092982",
      "Longitude": "-74.1212609"
    },
    {
      "SegmentID": "275873",
      "RoadwayName": "Myrtle Avenue",
      "From": "Freedom Drive",
      "To": "Memorial Drive",
      "Direction": "EB",
      "Date": "2019-09-21",
      "flow": 0.21025641025641026,
      "Latitude": "40.700494",
      "Longitude": "-73.8481861"
    },
    {
      "SegmentID": "275873",
      "RoadwayName": "Myrtle Avenue",
      "From": "Freedom Drive",
      "To": "Memorial Drive",
      "Direction": "WB",
      "Date": "2019-09-21",
      "flow": 0.12307692307692308,
      "Latitude": "40.700494",
      "Longitude": "-73.8481861"
    },
    {
      "SegmentID": "97309",
      "RoadwayName": "Northern Boulevard",
      "From": "191 Street",
      "To": "192 Street",
      "Direction": "EB",
      "Date": "2019-09-21",
      "flow": 0.3641025641025641,
      "Latitude": "40.7530794",
      "Longitude": "-73.9062074"
    },
    {
      "SegmentID": "97309",
      "RoadwayName": "Northern Boulevard",
      "From": "191 Street",
      "To": "192 Street",
      "Direction": "WB",
      "Date": "2019-09-21",
      "flow": 0.358974358974359,
      "Latitude": "40.7530794",
      "Longitude": "-73.9062074"
    },
    {
      "SegmentID": "98008",
      "RoadwayName": "Northern Boulevard",
      "From": "Oceania Street",
      "To": "Corporal Kennedy Street",
      "Direction": "EB",
      "Date": "2019-09-21",
      "flow": 0.2923076923076923,
      "Latitude": "40.7530794",
      "Longitude": "-73.9062074"
    },
    {
      "SegmentID": "98008",
      "RoadwayName": "Northern Boulevard",
      "From": "Oceania Street",
      "To": "Corporal Kennedy Stret",
      "Direction": "WB",
      "Date": "2019-09-21",
      "flow": 0.41025641025641024,
      "Latitude": "40.7530794",
      "Longitude": "-73.9062074"
    },
    {
      "SegmentID": "27577",
      "RoadwayName": "Nostrand Avenue",
      "From": "Avenue P",
      "To": "Stuart Street",
      "Direction": "NB",
      "Date": "2019-09-21",
      "flow": 0.20512820512820512,
      "Latitude": "40.608944",
      "Longitude": "-73.973022"
    },
    {
      "SegmentID": "27577",
      "RoadwayName": "Nostrand Avenue",
      "From": "Avenue P",
      "To": "Stuart Street",
      "Direction": "SB",
      "Date": "2019-09-21",
      "flow": 0.22564102564102564,
      "Latitude": "40.608944",
      "Longitude": "-73.973022"
    },
    {
      "SegmentID": "12946",
      "RoadwayName": "Ocean Terrace",
      "From": "Dead End",
      "To": "Milford Dr",
      "Direction": "NB",
      "Date": "2019-09-21",
      "flow": 0.020512820512820513,
      "Latitude": "40.6099752",
      "Longitude": "-74.1017632"
    },
    {
      "SegmentID": "12946",
      "RoadwayName": "Ocean Terrace",
      "From": "Dead End",
      "To": "Milford Dr",
      "Direction": "SB",
      "Date": "2019-09-21",
      "flow": 0,
      "Latitude": "40.6099752",
      "Longitude": "-74.1017632"
    },