{
  "1:00-2:00AM": [
    {
      "SegmentID": "8152",
      "RoadwayName": "BRIELLE AVENUE",
      "From": "Suffolk Avenue",
      "To": "Livingston Avenue",
      "Direction": "EB",
      "Date": "2020-10-04",
      "flow": 0.05273069679849341,
      "Latitude": "40.5989787",
      "Longitude": "-74.1230537"
    },
    {
      "SegmentID": "8152",
      "RoadwayName": "BRIELLE AVENUE",
      "From": "Suffolk Avenue",
      "To": "Livingston Avenue",
      "Direction": "WB",
      "Date": "2020-10-04",
      "flow": 0.009416195856873822,
      "Latitude": "40.5989787",
      "Longitude": "-74.1230537"
    },
    {
      "SegmentID": "147673",
      "RoadwayName": "BROADWAY",
      "From": "Van Cortlandt Park South",
      "To": "West 242nd Street",
      "Direction": "SB",
      "Date": "2020-10-04",
      "flow": 0.18832391713747645,
      "Latitude": "40.8020029",
      "Longitude": "-73.9679456"
    },
    {
      "SegmentID": "255653",
      "RoadwayName": "BROADWAY",
      "From": "Broadway/ 7 Avenue Line",
      "To": "Broadway/ 7 Avenue Line",
      "Direction": "SB",
      "Date": "2020-10-04",
      "flow": 0.07532956685499058,
      "Latitude": "40.8020029",
      "Longitude": "-73.9679456"
    },
    {
      "SegmentID": "158447",
      "RoadwayName": "BROADWAY",
      "From": "West 242nd Street",
      "To": "Van Cortlandt Park South",
      "Direction": "NB",
      "Date": "2020-10-04",
      "flow": 0.23163841807909605,
      "Latitude": "40.8020029",
      "Longitude": "-73.9679456"
    },
    {
      "SegmentID": "221955",
      "RoadwayName": "BROADWAY",
      "From": "West 260th Street",
      "To": "West 261st Street",
      "Direction": "NB",
      "Date": "2020-10-04",
      "flow": 0.5649717514124294,
      "Latitude": "40.8020029",
      "Longitude": "-73.9679456"
    },
    {
      "SegmentID": "221955",
      "RoadwayName": "BROADWAY",
      "From": "West 260th Street",
      "To": "West 261st Street",
      "Direction": "SB",
      "Date": "2020-10-04",
      "flow": 0.3728813559322034,
      "Latitude": "40.8020029",
      "Longitude": "-73.9679456"
    },
    {
      "SegmentID": "9003976",
      "RoadwayName": "BURKE AVENUE",
      "From": "Yates Avenue",
      "To": "Bouck Avenue",
      "Direction": "EB",
      "Date": "2020-10-04",
      "flow": 0.08662900188323917,
      "Latitude": "40.8714348",
      "Longitude": "-73.8671748"
    },
    {
      "SegmentID": "9003976",
      "RoadwayName": "BURKE AVENUE",
      "From": "Yates Avenue",
      "To": "Bouck Avenue",
      "Direction": "WB",
      "Date": "2020-10-04",
      "flow": 0.05273069679849341,
      "Latitude": "40.8714348",
      "Longitude": "-73.8671748"
    },
    {
      "SegmentID": "9002977",
      "RoadwayName": "CALHOUN AVENUE",
      "From": "East 177th Street",
      "To": "Dewey Avenue",
      "Direction": "NB",
      "Date": "2020-10-04",
      "flow": 0,
      "Latitude": "40.8363101",
      "Longitude": "-73.874253"
    },
    {
      "SegmentID": "9002977",
      "RoadwayName": "CALHOUN AVENUE",
      "From": "East 177th Street",
      "To": "Dewey Avenue",
      "Direction": "SB",
      "Date": "2020-10-04",
      "flow": 0.05649717514124294,
      "Latitude": "40.8363101",
      "Longitude": "-73.874253"
    },
    {
      "SegmentID": "160467",
      "RoadwayName": "CLOVE ROAD",
      "From": "Narrows Road North",
      "To": "Staten Island Expressway",
      "Direction": "NB",
      "Date": "2020-10-04",
      "flow": 0.1638418079096045,
      "Latitude": "40.6139911",
      "Longitude": "-74.1012626"
    },
    {
      "SegmentID": "160467",
      "RoadwayName": "CLOVE ROAD",
      "From": "Narrows Road North",
      "To": "Staten Island Expressway",
      "Direction": "SB",
      "Date": "2020-10-04",
      "flow": 0.2128060263653484,
      "Latitude": "40.6139911",
      "Longitude": "-74.1012626"
    },
    {
      "SegmentID": "95624",
      "RoadwayName": "DYRE AVENUE",
      "From": "Lustre Street",
      "To": "West Kingsbridge Road",
      "Direction": "NB",
      "Date": "2020-10-04",
      "flow": 0.06591337099811675,
      "Latitude": "40.8906855",
      "Longitude": "-73.8311288"
    },
    {
      "SegmentID": "95624",
      "RoadwayName": "DYRE AVENUE",
      "From": "Lustre Street",
      "To": "West Kingsbridge Road",
      "Direction": "SB",
      "Date": "2020-10-04",
      "flow": 0.10922787193973635,
      "Latitude": "40.8906855",
      "Longitude": "-73.8311288"
    },
    {
      "SegmentID": "89278",
      "RoadwayName": "EAST 241st STREET",
      "From": "Carpenter Avenue",
      "To": "Matilda Avenue",
      "Direction": "EB",
      "Date": "2020-10-04",
      "flow": 0.2278719397363465,
      "Latitude": "40.886608",
      "Longitude": "-73.864505"
    },
    {
      "SegmentID": "89278",
      "RoadwayName": "EAST 241st STREET",
      "From": "Carpenter Avenue",
      "To": "Matilda Avenue",
      "Direction": "WB",
      "Date": "2020-10-04",
      "flow": 0.2278719397363465,
      "Latitude": "40.886608",
      "Longitude": "-73.864505"
    },
    {
      "SegmentID": "133279",
      "RoadwayName": "EAST FORDHAM ROAD",
      "From": "Bronx River Shoreline",
      "To": "Pelham Parkway",
      "Direction": "EB",
      "Date": "2020-10-04",
      "flow": 1,
      "Latitude": "40.8554124",
      "Longitude": "-73.8767367"
    },
    {
      "SegmentID": "88518",
      "RoadwayName": "EASTCHESTER ROAD",
      "From": "Givan Avenue",
      "To": "Tillotson Avenue",
      "Direction": "NB",
      "Date": "2020-10-04",
      "flow": 0.15630885122410546,
      "Latitude": "40.8775139",
      "Longitude": "-73.8364539"
    },
    {
      "SegmentID": "88518",
      "RoadwayName": "EASTCHESTER ROAD",
      "From": "Givan Avenue",
      "To": "Tillotson Avenue",
      "Direction": "SB",
      "Date": "2020-10-04",
      "flow": 0.1487758945386064,
      "Latitude": "40.8775139",
      "Longitude": "-73.8364539"
    },
    {
      "SegmentID": "226748",
      "RoadwayName": "EDSON AVENUE",
      "From": "New England Thruway/ Edson Avenue",
      "To": "Bartow Avenue",
      "Direction": "SB",
      "Date": "2020-10-04",
      "flow": 0.3314500941619586,
      "Latitude": "40.8682393",
      "Longitude": "-73.8335456"
    },
    {
      "SegmentID": "154911",
      "RoadwayName": "ESPLANADE",
      "From": "Hone Avenue",
      "To": "Lurting Avenue",
      "Direction": "NB",
      "Date": "2020-10-04",
      "flow": 0.018832391713747645,
      "Latitude": "40.8562345",
      "Longitude": "-73.8598498"
    },
    {
      "SegmentID": "154664",
      "RoadwayName": "ESPLANADE",
      "From": "Hone Avenue",
      "To": "Lurting Avenue",
      "Direction": "SB",
      "Date": "2020-10-04",
      "flow": 0.026365348399246705,
      "Latitude": "40.8562345",
      "Longitude": "-73.8598498"
    },
    {
      "SegmentID": "19259",
      "RoadwayName": "NEPTUNE AVENUE",
      "From": "West 12th Street",
      "To": "West End/ Sea Beach Line",
      "Direction": "EB",
      "Date": "2020-10-04",
      "flow": 0.12994350282485875,
      "Latitude": "40.5747728",
      "Longitude": "-73.9796628"
    },
    {
      "SegmentID": "19259",
      "RoadwayName": "NEPTUNE AVENUE",
      "From": "West 12th Street",
      "To": "West End/ Sea Beach Line",
      "Direction": "WB",
      "Date": "2020-10-04",
      "flow": 0.0583804143126177,
      "Latitude": "40.5747728",
      "Longitude": "-73.9796628"
    },
    {
      "SegmentID": "120618",
      "RoadwayName": "POLY PLACE",
      "From": "7th Avenue",
      "To": "Cropsey Avenue",
      "Direction": "EB",
      "Date": "2020-10-04",
      "flow": 0.096045197740113,
      "Latitude": "40.7509212",
      "Longitude": "-73.9906766"
    },
    {
      "SegmentID": "120618",
      "RoadwayName": "POLY PLACE",
      "From": "7th Avenue",
      "To": "Cropsey Avenue",
      "Direction": "WB",
      "Date": "2020-10-04",
      "flow": 0.06779661016949153,
      "Latitude": "40.7509212",
      "Longitude": "-73.9906766"
    },
    {
      "SegmentID": "192425",
      "RoadwayName": "PROVOST AVENUE",
      "From": "East 233rd Street",
      "To": "East Kingsbridge Road",
      "Direction": "NB",
      "Date": "2020-10-04",
      "flow": 0.128060263653484,
      "Latitude": "40.8943484",
      "Longitude": "-73.8603418"
    },
    {
      "SegmentID": "192425",
      "RoadwayName": "PROVOST AVENUE",
      "From": "East 233rd Street",
      "To": "East Kingsbridge Road",
      "Direction": "SB",
      "Date": "2020-10-04",
      "flow": 0.06779661016949153,
      "Latitude": "40.8943484",
      "Longitude": "-73.8603418"
    },
    {
      "SegmentID": "179513",
      "RoadwayName": "RANDALL AVENUE",
      "From": "East 177th Street",
      "To": "Cross Bronx Expressway",
      "Direction": "EB",
      "Date": "2020-10-04",
      "flow": 0.3804143126177024,
      "Latitude": "40.8363101",
      "Longitude": "-73.874253"
    },
    {
      "SegmentID": "179513",
      "RoadwayName": "RANDALL AVENUE",
      "From": "East 177th Street",
      "To": "Cross Bronx Expressway",
      "Direction": "WB",
      "Date": "2020-10-04",
      "flow": 0.05273069679849341,
      "Latitude": "40.8363101",
      "Longitude": "-73.874253"
    },
    {
      "SegmentID": "149201",
      "RoadwayName": "RICHMOND AVENUE",
      "From": "Forest Hill Road",
      "To": "Forest Hill Bridge",
      "Direction": "SB",
      "Date": "2020-10-04",
      "flow": 0.2824858757062147,
      "Latitude": "40.5864271",
      "Longitude": "-74.1462521"
    },
    {
      "SegmentID": "155387",
      "RoadwayName": "RICHMOND AVENUE",
      "From": "Forest Hill Road",
      "To": "Forest Hill Bridge",
      "Direction": "NB",
      "Date": "2020-10-04",
      "flow": 0.3163841807909605,
      "Latitude": "40.5864271",
      "Longitude": "-74.1462521"
    },
    {
      "SegmentID": "8288",
      "RoadwayName": "RICHMOND",
      "From": "Hillman Avenue",
      "To": "Akron Street",
      "Direction": "NB",
      "Date": "2020-10-04",
      "flow": 0.09981167608286252,
      "Latitude": "40.612573",
      "Longitude": "-74.160427"
    },
    {
      "SegmentID": "8288",
      "RoadwayName": "RICHMOND",
      "From": "Hillman Avenue",
      "To": "Akron Street",
      "Direction": "SB",
      "Date": "2020-10-04",
      "flow": 0.15065913370998116,
      "Latitude": "40.612573",
      "Longitude": "-74.160427"
    },
    {
      "SegmentID": "73436",
      "RoadwayName": "RIVERDALE AVENUE",
      "From": "West 238th Street",
      "To": "West 239th Street",
      "Direction": "NB",
      "Date": "2020-10-04",
      "flow": 0.0847457627118644,
      "Latitude": "40.9122215",
      "Longitude": "-73.9026588"
    },
    {
      "SegmentID": "73436",
      "RoadwayName": "RIVERDALE AVENUE",
      "From": "West 238th Street",
      "To": "West 239th Street",
      "Direction": "SB",
      "Date": "2020-10-04",
      "flow": 0.07156308851224105,
      "Latitude": "40.9122215",
      "Longitude": "-73.9026588"
    },
    {
      "SegmentID": "150579",
      "RoadwayName": "SOUTH AVENUE",
      "From": "Lois Lane",
      "To": "Fahy Avenue",
      "Direction": "SB",
      "Date": "2020-10-04",
      "flow": 0.08097928436911488,
      "Latitude": "40.6156603",
      "Longitude": "-74.1728195"
    },
    {
      "SegmentID": "150578",
      "RoadwayName": "SOUTH AVENUE",
      "From": "Lois Lane",
      "To": "Fahy Avenue",
      "Direction": "NB",
      "Date": "2020-10-04",
      "flow": 0.04143126177024482,
      "Latitude": "40.6156603",
      "Longitude": "-74.1728195"
    },
    {
      "SegmentID": "112206",
      "RoadwayName": "TODT HILL ROAD",
      "From": "Sussex Avenue",
      "To": "Ocean Terrace",
      "Direction": "NB",
      "Date": "2020-10-04",
      "flow": 0.11487758945386065,
      "Latitude": "40.60327",
      "Longitude": "-74.115893"
    },
    {
      "SegmentID": "112206",
      "RoadwayName": "TODT HILL ROAD",
      "From": "Sussex Avenue",
      "To": "Ocean Terrace",
      "Direction": "SB",
      "Date": "2020-10-04",
      "flow": 0.09227871939736347,
      "Latitude": "40.60327",
      "Longitude": "-74.115893"
    },
    {
      "SegmentID": "114953",
      "RoadwayName": "VAN DUZER STREET",
      "From": "Court Street",
      "To": "Gordon Street",
      "Direction": "EB",
      "Date": "2020-10-04",
      "flow": 0.14689265536723164,
      "Latitude": "40.6255943",
      "Longitude": "-74.0844979"
    },
    {
      "SegmentID": "4832",
      "RoadwayName": "VICTORY BOULEVARD",
      "From": "Dinsmore Street",
      "To": "Signs Road",
      "Direction": "EB",
      "Date": "2020-10-04",
      "flow": 0.05273069679849341,
      "Latitude": "40.6042894",
      "Longitude": "-74.1701652"
    },
    {
      "SegmentID": "4832",
      "RoadwayName": "VICTORY BOULEVARD",
      "From": "Dinsmore Street",
      "To": "Signs Road",
      "Direction": "WB",
      "Date": "2020-10-04",
      "flow": 0.04331450094161959,
      "Latitude": "40.6042894",
      "Longitude": "-74.1701652"
    },
    {
      "SegmentID": "256800",
      "RoadwayName": "WEBSTER AVENUE",
      "From": "East 233rd Street",
      "To": "Orio J. Palmer Way",
      "Direction": "NB",
      "Date": "2020-10-04",
      "flow": 0.3804143126177024,
      "Latitude": "40.8943484",
      "Longitude": "-73.8603418"
    },
    {
      "SegmentID": "256800",
      "RoadwayName": "WEBSTER AVENUE",
      "From": "East 233rd Street",
      "To": "Orio J. Palmer Way",
      "Direction": "SB",
      "Date": "2020-10-04",
      "flow": 0.224105461393597,
      "Latitude": "40.8943484",
      "Longitude": "-73.8603418"
    },
    {
      "SegmentID": "81384",
      "RoadwayName": "WEBSTER AVENUE",
      "From": "Woodlawn Cemetery Boundary",
      "To": "East Gun Hill Rd",
      "Direction": "NB",
      "Date": "2020-10-04",
      "flow": 0.12994350282485875,
      "Latitude": "40.8640107",
      "Longitude": "-73.8339775"
    },
    {
      "SegmentID": "81384",
      "RoadwayName": "WEBSTER AVENUE",
      "From": "Woodlawn Cemetery Boundary",
      "To": "East Gun Hill Rd",
      "Direction": "SB",
      "Date": "2020-10-04",
      "flow": 0.1487758945386064,
      "Latitude": "40.8640107",
      "Longitude": "-73.8339775"
    },
    {
      "SegmentID": "95195",
      "RoadwayName": "WESTCHESTER AVENUE",
      "From": "Bruckner Boulevard",
      "To": "Burr Avenue",
      "Direction": "SB",
      "Date": "2020-10-04",
      "flow": 0.2919020715630885,
      "Latitude": "40.8301747",
      "Longitude": "-73.8375135"
    },
    {
      "SegmentID": "147032",
      "RoadwayName": "WHITE PLAINS ROAD",
      "From": "East 215th Street",
      "To": "East 216th Street",
      "Direction": "NB",
      "Date": "2020-10-04",
      "flow": 0.24105461393596986,
      "Latitude": "40.8941458",
      "Longitude": "-73.8569108"
    },
    {
      "SegmentID": "132595",
      "RoadwayName": "WHITE PLAINS ROAD",
      "From": "East 215th Street",
      "To": "East 216th Street",
      "Direction": "SB",
      "Date": "2020-10-04",
      "flow": 0.4576271186440678,
      "Latitude": "40.8941458",
      "Longitude": "-73.8569108"
    }
  ],
  "2:00-3:00AM": [
    {
      "SegmentID": "8152",
      "RoadwayName": "BRIELLE AVENUE",
      "From": "Suffolk Avenue",
      "To": "Livingston Avenue",
      "Direction": "EB",
      "Date": "2020-10-04",
      "flow": 0.03664921465968586,
      "Latitude": "40.5989787",
      "Longitude": "-74.1230537"
    },
    {
      "SegmentID": "8152",
      "RoadwayName": "BRIELLE AVENUE",
      "From": "Suffolk Avenue",
      "To": "Livingston Avenue",
      "Direction": "WB",
      "Date": "2020-10-04",
      "flow": 0.017452006980802792,
      "Latitude": "40.5989787",
      "Longitude": "-74.1230537"
    },
    {
      "SegmentID": "147673",
      "RoadwayName": "BROADWAY",
      "From": "Van Cortlandt Park South",
      "To": "West 242nd Street",
      "Direction": "SB",
      "Date": "2020-10-04",
      "flow": 0.11518324607329843,
      "Latitude": "40.8020029",
      "Longitude": "-73.9679456"
    },
    {
      "SegmentID": "255653",
      "RoadwayName": "BROADWAY",
      "From": "Broadway/ 7 Avenue Line",
      "To": "Broadway/ 7 Avenue Line",
      "Direction": "SB",
      "Date": "2020-10-04",
      "flow": 0.02268760907504363,
      "Latitude": "40.8020029",
      "Longitude": "-73.9679456"
    },
    {
      "SegmentID": "158447",
      "RoadwayName": "BROADWAY",
      "From": "West 242nd Street",
      "To": "Van Cortlandt Park South",
      "Direction": "NB",
      "Date": "2020-10-04",
      "flow": 0.1273996509598604,
      "Latitude": "40.8020029",
      "Longitude": "-73.9679456"
    },
    {
      "SegmentID": "221955",
      "RoadwayName": "BROADWAY",
      "From": "West 260th Street",
      "To": "West 261st Street",
      "Direction": "NB",
      "Date": "2020-10-04",
      "flow": 0.28097731239092494,
      "Latitude": "40.8020029",
      "Longitude": "-73.9679456"
    },
    {
      "SegmentID": "221955",
      "RoadwayName": "BROADWAY",
      "From": "West 260th Street",
      "To": "West 261st Street",
      "Direction": "SB",
      "Date": "2020-10-04",
      "flow": 0.2198952879581152,
      "Latitude": "40.8020029",
      "Longitude": "-73.9679456"
    },
    {
      "SegmentID": "9003976",
      "RoadwayName": "BURKE AVENUE",
      "From": "Yates Avenue",
      "To": "Bouck Avenue",
      "Direction": "EB",
      "Date": "2020-10-04",
      "flow": 0.08027923211169284,
      "Latitude": "40.8714348",
      "Longitude": "-73.8671748"
    },
    {
      "SegmentID": "9003976",
      "RoadwayName": "BURKE AVENUE",
      "From": "Yates Avenue",
      "To": "Bouck Avenue",
      "Direction": "WB",
      "Date": "2020-10-04",
      "flow": 0.031413612565445025,
      "Latitude": "40.8714348",
      "Longitude": "-73.8671748"
    },
    {
      "SegmentID": "9002977",
      "RoadwayName": "CALHOUN AVENUE",
      "From": "East 177th Street",
      "To": "Dewey Avenue",
      "Direction": "NB",
      "Date": "2020-10-04",
      "flow": 0,
      "Latitude": "40.8363101",
      "Longitude": "-73.874253"
    },
    {
      "SegmentID": "9002977",
      "RoadwayName": "CALHOUN AVENUE",
      "From": "East 177th Street",
      "To": "Dewey Avenue",
      "Direction": "SB",
      "Date": "2020-10-04",
      "flow": 0.027923211169284468,
      "Latitude": "40.8363101",
      "Longitude": "-73.874253"
    },
    {
      "SegmentID": "160467",
      "RoadwayName": "CLOVE ROAD",
      "From": "Narrows Road North",
      "To": "Staten Island Expressway",
      "Direction": "NB",
      "Date": "2020-10-04",
      "flow": 0.1518324607329843,
      "Latitude": "40.6139911",
      "Longitude": "-74.1012626"
    },
    {
      "SegmentID": "160467",
      "RoadwayName": "CLOVE ROAD",
      "From": "Narrows Road North",
      "To": "Staten Island Expressway",
      "Direction": "SB",
      "Date": "2020-10-04",
      "flow": 0.15532286212914484,
      "Latitude": "40.6139911",
      "Longitude": "-74.1012626"
    },
    {
      "SegmentID": "95624",
      "RoadwayName": "DYRE AVENUE",
      "From": "Lustre Street",
      "To": "West Kingsbridge Road",
      "Direction": "NB",
      "Date": "2020-10-04",
      "flow": 0.055846422338568937,
      "Latitude": "40.8906855",
      "Longitude": "-73.8311288"
    },
    {
      "SegmentID": "95624",
      "RoadwayName": "DYRE AVENUE",
      "From": "Lustre Street",
      "To": "West Kingsbridge Road",
      "Direction": "SB",
      "Date": "2020-10-04",
      "flow": 0.08551483420593368,
      "Latitude": "40.8906855",
      "Longitude": "-73.8311288"
    },
    {
      "SegmentID": "89278",
      "RoadwayName": "EAST 241st STREET",
      "From": "Carpenter Avenue",
      "To": "Matilda Avenue",
      "Direction": "EB",
      "Date": "2020-10-04",
      "flow": 0.14136125654450263,
      "Latitude": "40.886608",
      "Longitude": "-73.864505"
    },
    {
      "SegmentID": "89278",
      "RoadwayName": "EAST 241st STREET",
      "From": "Carpenter Avenue",
      "To": "Matilda Avenue",
      "Direction": "WB",
      "Date": "2020-10-04",
      "flow": 0.18324607329842932,
      "Latitude": "40.886608",
      "Longitude": "-73.864505"
    },
    {
      "SegmentID": "133279",
      "RoadwayName": "EAST FORDHAM ROAD",
      "From": "Bronx River Shoreline",
      "To": "Pelham Parkway",
      "Direction": "EB",
      "Date": "2020-10-04",
      "flow": 1,
      "Latitude": "40.8554124",
      "Longitude": "-73.8767367"
    },
    {
      "SegmentID": "88518",
      "RoadwayName": "EASTCHESTER ROAD",
      "From": "Givan Avenue",
      "To": "Tillotson Avenue",
      "Direction": "NB",
      "Date": "2020-10-04",
      "flow": 0.1273996509598604,
      "Latitude": "40.8775139",
      "Longitude": "-73.8364539"
    },
    {
      "SegmentID": "88518",
      "RoadwayName": "EASTCHESTER ROAD",
      "From": "Givan Avenue",
      "To": "Tillotson Avenue",
      "Direction": "SB",
      "Date": "2020-10-04",
      "flow": 0.13089005235602094,
      "Latitude": "40.8775139",
      "Longitude": "-73.8364539"
    },
    {
      "SegmentID": "226748",
      "RoadwayName": "EDSON AVENUE",
      "From": "New England Thruway/ Edson Avenue",
      "To": "Bartow Avenue",
      "Direction": "SB",
      "Date": "2020-10-04",
      "flow": 0.21465968586387435,
      "Latitude": "40.8682393",
      "Longitude": "-73.8335456"
    },
    {
      "SegmentID": "154911",
      "RoadwayName": "ESPLANADE",
      "From": "Hone Avenue",
      "To": "Lurting Avenue",
      "Direction": "NB",
      "Date": "2020-10-04",
      "flow": 0.015706806282722512,
      "Latitude": "40.8562345",
      "Longitude": "-73.8598498"
    },
    {
      "SegmentID": "154664",
      "RoadwayName": "ESPLANADE",
      "From": "Hone Avenue",
      "To": "Lurting Avenue",
      "Direction": "SB",
      "Date": "2020-10-04",
      "flow": 0.015706806282722512,
      "Latitude": "40.8562345",
      "Longitude": "-73.8598498"
    },
    {
      "SegmentID": "19259",
      "RoadwayName": "NEPTUNE AVENUE",
      "From": "West 12th Street",
      "To": "West End/ Sea Beach Line",
      "Direction": "EB",
      "Date": "2020-10-04",
      "flow": 0.11518324607329843,
      "Latitude": "40.5747728",
      "Longitude": "-73.9796628"
    },
    {
      "SegmentID": "19259",
      "RoadwayName": "NEPTUNE AVENUE",
      "From": "West 12th Street",
      "To": "West End/ Sea Beach Line",
      "Direction": "WB",
      "Date": "2020-10-04",
      "flow": 0.04013961605584642,
      "Latitude": "40.5747728",
      "Longitude": "-73.9796628"
    },
    {
      "SegmentID": "120618",
      "RoadwayName": "POLY PLACE",
      "From": "7th Avenue",
      "To": "Cropsey Avenue",
      "Direction": "EB",
      "Date": "2020-10-04",
      "flow": 0.06980802792321117,
      "Latitude": "40.7509212",
      "Longitude": "-73.9906766"
    },
    {
      "SegmentID": "120618",
      "RoadwayName": "POLY PLACE",
      "From": "7th Avenue",
      "To": "Cropsey Avenue",
      "Direction": "WB",
      "Date": "2020-10-04",
      "flow": 0.038394415357766144,
      "Latitude": "40.7509212",
      "Longitude": "-73.9906766"
    },
    {
      "SegmentID": "192425",
      "RoadwayName": "PROVOST AVENUE",
      "From": "East 233rd Street",
      "To": "East Kingsbridge Road",
      "Direction": "NB",
      "Date": "2020-10-04",
      "flow": 0.09075043630017451,
      "Latitude": "40.8943484",
      "Longitude": "-73.8603418"
    },
    {
      "SegmentID": "192425",
      "RoadwayName": "PROVOST AVENUE",
      "From": "East 233rd Street",
      "To": "East Kingsbridge Road",
      "Direction": "SB",
      "Date": "2020-10-04",
      "flow": 0.0506108202443281,
      "Latitude": "40.8943484",
      "Longitude": "-73.8603418"
    },
    {
      "SegmentID": "179513",
      "RoadwayName": "RANDALL AVENUE",
      "From": "East 177th Street",
      "To": "Cross Bronx Expressway",
      "Direction": "EB",
      "Date": "2020-10-04",
      "flow": 0.2949389179755672,
      "Latitude": "40.8363101",
      "Longitude": "-73.874253"
    },
    {
      "SegmentID": "179513",
      "RoadwayName": "RANDALL AVENUE",
      "From": "East 177th Street",
      "To": "Cross Bronx Expressway",
      "Direction": "WB",
      "Date": "2020-10-04",
      "flow": 0.041884816753926704,
      "Latitude": "40.8363101",
      "Longitude": "-73.874253"
    },
    {
      "SegmentID": "149201",
      "RoadwayName": "RICHMOND AVENUE",
      "From": "Forest Hill Road",
      "To": "Forest Hill Bridge",
      "Direction": "SB",
      "Date": "2020-10-04",
      "flow": 0.17452006980802792,
      "Latitude": "40.5864271",
      "Longitude": "-74.1462521"
    },
    {
      "SegmentID": "155387",
      "RoadwayName": "RICHMOND AVENUE",
      "From": "Forest Hill Road",
      "To": "Forest Hill Bridge",
      "Direction": "NB",
      "Date": "2020-10-04",
      "flow": 0.22164048865619546,
      "Latitude": "40.5864271",
      "Longitude": "-74.1462521"
    },
    {
      "SegmentID": "8288",
      "RoadwayName": "RICHMOND",
      "From": "Hillman Avenue",
      "To": "Akron Street",
      "Direction": "NB",
      "Date": "2020-10-04",
      "flow": 0.05235602094240838,
      "Latitude": "40.612573",
      "Longitude": "-74.160427"
    },
    {
      "SegmentID": "8288",
      "RoadwayName": "RICHMOND",
      "From": "Hillman Avenue",
      "To": "Akron Street",
      "Direction": "SB",
      "Date": "2020-10-04",
      "flow": 0.09075043630017451,
      "Latitude": "40.612573",
      "Longitude": "-74.160427"
    },
    {
      "SegmentID": "73436",
      "RoadwayName": "RIVERDALE AVENUE",
      "From": "West 238th Street",
      "To": "West 239th Street",
      "Direction": "NB",
      "Date": "2020-10-04",
      "flow": 0.07155322862129145,
      "Latitude": "40.9122215",
      "Longitude": "-73.9026588"
    },
    {
      "SegmentID": "73436",
      "RoadwayName": "RIVERDALE AVENUE",
      "From": "West 238th Street",
      "To": "West 239th Street",
      "Direction": "SB",
      "Date": "2020-10-04",
      "flow": 0.06457242582897033,
      "Latitude": "40.9122215",
      "Longitude": "-73.9026588"
    },
    {
      "SegmentID": "150579",
      "RoadwayName": "SOUTH AVENUE",
      "From": "Lois Lane",
      "To": "Fahy Avenue",
      "Direction": "SB",
      "Date": "2020-10-04",
      "flow": 0.04013961605584642,
      "Latitude": "40.6156603",
      "Longitude": "-74.1728195"
    },
    {
      "SegmentID": "150578",
      "RoadwayName": "SOUTH AVENUE",
      "From": "Lois Lane",
      "To": "Fahy Avenue",
      "Direction": "NB",
      "Date": "2020-10-04",
      "flow": 0.02617801047120419,
      "Latitude": "40.6156603",
      "Longitude": "-74.1728195"
    },
    {
      "SegmentID": "112206",
      "RoadwayName": "TODT HILL ROAD",
      "From": "Sussex Avenue",
      "To": "Ocean Terrace",
      "Direction": "NB",
      "Date": "2020-10-04",
      "flow": 0.06631762652705062,
      "Latitude": "40.60327",
      "Longitude": "-74.115893"
    },
    {
      "SegmentID": "112206",
      "RoadwayName": "TODT HILL ROAD",
      "From": "Sussex Avenue",
      "To": "Ocean Terrace",
      "Direction": "SB",
      "Date": "2020-10-04",
      "flow": 0.06282722513089005,
      "Latitude": "40.60327",
      "Longitude": "-74.115893"
    },
    {
      "SegmentID": "114953",
      "RoadwayName": "VAN DUZER STREET",
      "From": "Court Street",
      "To": "Gordon Street",
      "Direction": "EB",
      "Date": "2020-10-04",
      "flow": 0.13787085514834205,
      "Latitude": "40.6255943",
      "Longitude": "-74.0844979"
    },
    {
      "SegmentID": "4832",
      "RoadwayName": "VICTORY BOULEVARD",
      "From": "Dinsmore Street",
      "To": "Signs Road",
      "Direction": "EB",
      "Date": "2020-10-04",
      "flow": 0.029668411867364748,
      "Latitude": "40.6042894",
      "Longitude": "-74.1701652"
    },
    {
      "SegmentID": "4832",
      "RoadwayName": "VICTORY BOULEVARD",
      "From": "Dinsmore Street",
      "To": "Signs Road",
      "Direction": "WB",
      "Date": "2020-10-04",
      "flow": 0.031413612565445025,
      "Latitude": "40.6042894",
      "Longitude": "-74.1701652"
    },
    {
      "SegmentID": "256800",
      "RoadwayName": "WEBSTER AVENUE",
      "From": "East 233rd Street",
      "To": "Orio J. Palmer Way",
      "Direction": "NB",
      "Date": "2020-10-04",
      "flow": 0.2198952879581152,
      "Latitude": "40.8943484",
      "Longitude": "-73.8603418"
    },
    {
      "SegmentID": "256800",
      "RoadwayName": "WEBSTER AVENUE",
      "From": "East 233rd Street",
      "To": "Orio J. Palmer Way",
      "Direction": "SB",
      "Date": "2020-10-04",
      "flow": 0.17102966841186737,
      "Latitude": "40.8943484",
      "Longitude": "-73.8603418"
    },
    {
      "SegmentID": "81384",
      "RoadwayName": "WEBSTER AVENUE",
      "From": "Woodlawn Cemetery Boundary",
      "To": "East Gun Hill Rd",
      "Direction": "NB",
      "Date": "2020-10-04",
      "flow": 0.09424083769633508,
      "Latitude": "40.8640107",
      "Longitude": "-73.8339775"
    },
    {
      "SegmentID": "81384",
      "RoadwayName": "WEBSTER AVENUE",
      "From": "Woodlawn Cemetery Boundary",
      "To": "East Gun Hill Rd",
      "Direction": "SB",
      "Date": "2020-10-04",
      "flow": 0.1099476439790576,
      "Latitude": "40.8640107",
      "Longitude": "-73.8339775"
    },
    {
      "SegmentID": "95195",
      "RoadwayName": "WESTCHESTER AVENUE",
      "From": "Bruckner Boulevard",
      "To": "Burr Avenue",
      "Direction": "SB",
      "Date": "2020-10-04",
      "flow": 0.16055846422338568,
      "Latitude": "40.8301747",
      "Longitude": "-73.8375135"
    },
    {
      "SegmentID": "147032",
      "RoadwayName": "WHITE PLAINS ROAD",
      "From": "East 215th Street",
      "To": "East 216th Street",
      "Direction": "NB",
      "Date": "2020-10-04",
      "flow": 0.19720767888307156,
      "Latitude": "40.8941458",
      "Longitude": "-73.8569108"
    },
    {
      "SegmentID": "132595",
      "RoadwayName": "WHITE PLAINS ROAD",
      "From": "East 215th Street",
      "To": "East 216th Street",
      "Direction": "SB",
      "Date": "2020-10-04",
      "flow": 0.3525305410122164,
      "Latitude": "40.8941458",
      "Longitude": "-73.8569108"
    }
  ],
  "3:00-4:00AM": [
    {
      "SegmentID": "8152",
      "RoadwayName": "BRIELLE AVENUE",
      "From": "Suffolk Avenue",
      "To": "Livingston Avenue",
      "Direction": "EB",
      "Date": "2020-10-04",
      "flow": 0.022556390977443608,
      "Latitude": "40.5989787",
      "Longitude": "-74.1230537"
    },
    {
      "SegmentID": "8152",
      "RoadwayName": "BRIELLE AVENUE",
      "From": "Suffolk Avenue",
      "To": "Livingston Avenue",
      "Direction": "WB",
      "Date": "2020-10-04",
      "flow": 0.03258145363408521,
      "Latitude": "40.5989787",
      "Longitude": "-74.1230537"
    },
    {
      "SegmentID": "147673",
      "RoadwayName": "BROADWAY",
      "From": "Van Cortlandt Park South",
      "To": "West 242nd Street",
      "Direction": "SB",
      "Date": "2020-10-04",
      "flow": 0.11278195488721804,
      "Latitude": "40.8020029",
      "Longitude": "-73.9679456"
    },
    {
      "SegmentID": "255653",
      "RoadwayName": "BROADWAY",
      "From": "Broadway/ 7 Avenue Line",
      "To": "Broadway/ 7 Avenue Line",
      "Direction": "SB",
      "Date": "2020-10-04",
      "flow": 0.03258145363408521,
      "Latitude": "40.8020029",
      "Longitude": "-73.9679456"
    },
    {
      "SegmentID": "158447",
      "RoadwayName": "BROADWAY",
      "From": "West 242nd Street",
      "To": "Van Cortlandt Park South",
      "Direction": "NB",
      "Date": "2020-10-04",
      "flow": 0.12531328320802004,
      "Latitude": "40.8020029",
      "Longitude": "-73.9679456"
    },
    {
      "SegmentID": "221955",
      "RoadwayName": "BROADWAY",
      "From": "West 260th Street",
      "To": "West 261st Street",
      "Direction": "NB",
      "Date": "2020-10-04",
      "flow": 0.3057644110275689,
      "Latitude": "40.8020029",
      "Longitude": "-73.9679456"
    },
    {
      "SegmentID": "221955",
      "RoadwayName": "BROADWAY",
      "From": "West 260th Street",
      "To": "West 261st Street",
      "Direction": "SB",
      "Date": "2020-10-04",
      "flow": 0.47117794486215536,
      "Latitude": "40.8020029",
      "Longitude": "-73.9679456"
    },
    {
      "SegmentID": "9003976",
      "RoadwayName": "BURKE AVENUE",
      "From": "Yates Avenue",
      "To": "Bouck Avenue",
      "Direction": "EB",
      "Date": "2020-10-04",
      "flow": 0.09022556390977443,
      "Latitude": "40.8714348",
      "Longitude": "-73.8671748"
    },
    {
      "SegmentID": "9003976",
      "RoadwayName": "BURKE AVENUE",
      "From": "Yates Avenue",
      "To": "Bouck Avenue",
      "Direction": "WB",
      "Date": "2020-10-04",
      "flow": 0.045112781954887216,
      "Latitude": "40.8714348",
      "Longitude": "-73.8671748"
    },
    {
      "SegmentID": "9002977",
      "RoadwayName": "CALHOUN AVENUE",
      "From": "East 177th Street",
      "To": "Dewey Avenue",
      "Direction": "NB",
      "Date": "2020-10-04",
      "flow": 0,
      "Latitude": "40.8363101",
      "Longitude": "-73.874253"
    },
    {
      "SegmentID": "9002977",
      "RoadwayName": "CALHOUN AVENUE",
      "From": "East 177th Street",
      "To": "Dewey Avenue",
      "Direction": "SB",
      "Date": "2020-10-04",
      "flow": 0.02506265664160401,
      "Latitude": "40.8363101",
      "Longitude": "-73.874253"
    },
    {
      "SegmentID": "160467",
      "RoadwayName": "CLOVE ROAD",
      "From": "Narrows Road North",
      "To": "Staten Island Expressway",
      "Direction": "NB",
      "Date": "2020-10-04",
      "flow": 0.13533834586466165,
      "Latitude": "40.6139911",
      "Longitude": "-74.1012626"
    },
    {
      "SegmentID": "160467",
      "RoadwayName": "CLOVE ROAD",
      "From": "Narrows Road North",
      "To": "Staten Island Expressway",
      "Direction": "SB",
      "Date": "2020-10-04",
      "flow": 0.20802005012531327,
      "Latitude": "40.6139911",
      "Longitude": "-74.1012626"
    },
    {
      "SegmentID": "95624",
      "RoadwayName": "DYRE AVENUE",
      "From": "Lustre Street",
      "To": "West Kingsbridge Road",
      "Direction": "NB",
      "Date": "2020-10-04",
      "flow": 0.05513784461152882,
      "Latitude": "40.8906855",
      "Longitude": "-73.8311288"
    },
    {
      "SegmentID": "95624",
      "RoadwayName": "DYRE AVENUE",
      "From": "Lustre Street",
      "To": "West Kingsbridge Road",
      "Direction": "SB",
      "Date": "2020-10-04",
      "flow": 0.07268170426065163,
      "Latitude": "40.8906855",
      "Longitude": "-73.8311288"
    },
    {
      "SegmentID": "89278",
      "RoadwayName": "EAST 241st STREET",
      "From": "Carpenter Avenue",
      "To": "Matilda Avenue",
      "Direction": "EB",
      "Date": "2020-10-04",
      "flow": 0.14536340852130325,
      "Latitude": "40.886608",
      "Longitude": "-73.864505"
    },
    {
      "SegmentID": "89278",
      "RoadwayName": "EAST 241st STREET",
      "From": "Carpenter Avenue",
      "To": "Matilda Avenue",
      "Direction": "WB",
      "Date": "2020-10-04",
      "flow": 0.23809523809523808,
      "Latitude": "40.886608",
      "Longitude": "-73.864505"
    },
    {
      "SegmentID": "133279",
      "RoadwayName": "EAST FORDHAM ROAD",
      "From": "Bronx River Shoreline",
      "To": "Pelham Parkway",
      "Direction": "EB",
      "Date": "2020-10-04",
      "flow": 1,
      "Latitude": "40.8554124",
      "Longitude": "-73.8767367"
    },
    {
      "SegmentID": "88518",
      "RoadwayName": "EASTCHESTER ROAD",
      "From": "Givan Avenue",
      "To": "Tillotson Avenue",
      "Direction": "NB",
      "Date": "2020-10-04",
      "flow": 0.12531328320802004,
      "Latitude": "40.8775139",
      "Longitude": "-73.8364539"
    },
    {
      "SegmentID": "88518",
      "RoadwayName": "EASTCHESTER ROAD",
      "From": "Givan Avenue",
      "To": "Tillotson Avenue",
      "Direction": "SB",
      "Date": "2020-10-04",
      "flow": 0.09273182957393483,
      "Latitude": "40.8775139",
      "Longitude": "-73.8364539"
    },
    {
      "SegmentID": "226748",
      "RoadwayName": "EDSON AVENUE",
      "From": "New England Thruway/ Edson Avenue",
      "To": "Bartow Avenue",
      "Direction": "SB",
      "Date": "2020-10-04",
      "flow": 0.19548872180451127,
      "Latitude": "40.8682393",
      "Longitude": "-73.8335456"
    },
    {
      "SegmentID": "154911",
      "RoadwayName": "ESPLANADE",
      "From": "Hone Avenue",
      "To": "Lurting Avenue",
      "Direction": "NB",
      "Date": "2020-10-04",
      "flow": 0.005012531328320802,
      "Latitude": "40.8562345",
      "Longitude": "-73.8598498"
    },
    {
      "SegmentID": "154664",
      "RoadwayName": "ESPLANADE",
      "From": "Hone Avenue",
      "To": "Lurting Avenue",
      "Direction": "SB",
      "Date": "2020-10-04",
      "flow": 0.015037593984962405,
      "Latitude": "40.8562345",
      "Longitude": "-73.8598498"
    },
    {
      "SegmentID": "19259",
      "RoadwayName": "NEPTUNE AVENUE",
      "From": "West 12th Street",
      "To": "West End/ Sea Beach Line",
      "Direction": "EB",
      "Date": "2020-10-04",
      "flow": 0.10776942355889724,
      "Latitude": "40.5747728",
      "Longitude": "-73.9796628"
    },
    {
      "SegmentID": "19259",
      "RoadwayName": "NEPTUNE AVENUE",
      "From": "West 12th Street",
      "To": "West End/ Sea Beach Line",
      "Direction": "WB",
      "Date": "2020-10-04",
      "flow": 0.07017543859649122,
      "Latitude": "40.5747728",
      "Longitude": "-73.9796628"
    },
    {
      "SegmentID": "120618",
      "RoadwayName": "POLY PLACE",
      "From": "7th Avenue",
      "To": "Cropsey Avenue",
      "Direction": "EB",
      "Date": "2020-10-04",
      "flow": 0.007518796992481203,
      "Latitude": "40.7509212",
      "Longitude": "-73.9906766"
    },
    {
      "SegmentID": "120618",
      "RoadwayName": "POLY PLACE",
      "From": "7th Avenue",
      "To": "Cropsey Avenue",
      "Direction": "WB",
      "Date": "2020-10-04",
      "flow": 0.042606516290726815,
      "Latitude": "40.7509212",
      "Longitude": "-73.9906766"
    },
    {
      "SegmentID": "192425",
      "RoadwayName": "PROVOST AVENUE",
      "From": "East 233rd Street",
      "To": "East Kingsbridge Road",
      "Direction": "NB",
      "Date": "2020-10-04",
      "flow": 0.10776942355889724,
      "Latitude": "40.8943484",
      "Longitude": "-73.8603418"
    },
    {
      "SegmentID": "192425",
      "RoadwayName": "PROVOST AVENUE",
      "From": "East 233rd Street",
      "To": "East Kingsbridge Road",
      "Direction": "SB",
      "Date": "2020-10-04",
      "flow": 0.05012531328320802,
      "Latitude": "40.8943484",
      "Longitude": "-73.8603418"
    },
    {
      "SegmentID": "179513",
      "RoadwayName": "RANDALL AVENUE",
      "From": "East 177th Street",
      "To": "Cross Bronx Expressway",
      "Direction": "EB",
      "Date": "2020-10-04",
      "flow": 0.2781954887218045,
      "Latitude": "40.8363101",
      "Longitude": "-73.874253"
    },
    {
      "SegmentID": "179513",
      "RoadwayName": "RANDALL AVENUE",
      "From": "East 177th Street",
      "To": "Cross Bronx Expressway",
      "Direction": "WB",
      "Date": "2020-10-04",
      "flow": 0.02506265664160401,
      "Latitude": "40.8363101",
      "Longitude": "-73.874253"
    },
    {
      "SegmentID": "149201",
      "RoadwayName": "RICHMOND AVENUE",
      "From": "Forest Hill Road",
      "To": "Forest Hill Bridge",
      "Direction": "SB",
      "Date": "2020-10-04",
      "flow": 0.10025062656641603,
      "Latitude": "40.5864271",
      "Longitude": "-74.1462521"
    },
    {
      "SegmentID": "155387",
      "RoadwayName": "RICHMOND AVENUE",
      "From": "Forest Hill Road",
      "To": "Forest Hill Bridge",
      "Direction": "NB",
      "Date": "2020-10-04",
      "flow": 0.13283208020050125,
      "Latitude": "40.5864271",
      "Longitude": "-74.1462521"
    },
    {
      "SegmentID": "8288",
      "RoadwayName": "RICHMOND",
      "From": "Hillman Avenue",
      "To": "Akron Street",
      "Direction": "NB",
      "Date": "2020-10-04",
      "flow": 0.08771929824561403,
      "Latitude": "40.612573",
      "Longitude": "-74.160427"
    },
    {
      "SegmentID": "8288",
      "RoadwayName": "RICHMOND",
      "From": "Hillman Avenue",
      "To": "Akron Street",
      "Direction": "SB",
      "Date": "2020-10-04",
      "flow": 0.08020050125313283,
      "Latitude": "40.612573",
      "Longitude": "-74.160427"
    },
    {
      "SegmentID": "73436",
      "RoadwayName": "RIVERDALE AVENUE",
      "From": "West 238th Street",
      "To": "West 239th Street",
      "Direction": "NB",
      "Date": "2020-10-04",
      "flow": 0.02506265664160401,
      "Latitude": "40.9122215",
      "Longitude": "-73.9026588"
    },
    {
      "SegmentID": "73436",
      "RoadwayName": "RIVERDALE AVENUE",
      "From": "West 238th Street",
      "To": "West 239th Street",
      "Direction": "SB",
      "Date": "2020-10-04",
      "flow": 0.045112781954887216,
      "Latitude": "40.9122215",
      "Longitude": "-73.9026588"
    },
    {
      "SegmentID": "150579",
      "RoadwayName": "SOUTH AVENUE",
      "From": "Lois Lane",
      "To": "Fahy Avenue",
      "Direction": "SB",
      "Date": "2020-10-04",
      "flow": 0.05012531328320802,
      "Latitude": "40.6156603",
      "Longitude": "-74.1728195"
    },
    {
      "SegmentID": "150578",
      "RoadwayName": "SOUTH AVENUE",
      "From": "Lois Lane",
      "To": "Fahy Avenue",
      "Direction": "NB",
      "Date": "2020-10-04",
      "flow": 0.03007518796992481,
      "Latitude": "40.6156603",
      "Longitude": "-74.1728195"
    },
    {
      "SegmentID": "112206",
      "RoadwayName": "TODT HILL ROAD",
      "From": "Sussex Avenue",
      "To": "Ocean Terrace",
      "Direction": "NB",
      "Date": "2020-10-04",
      "flow": 0.05263157894736842,
      "Latitude": "40.60327",
      "Longitude": "-74.115893"
    },
    {
      "SegmentID": "112206",
      "RoadwayName": "TODT HILL ROAD",
      "From": "Sussex Avenue",
      "To": "Ocean Terrace",
      "Direction": "SB",
      "Date": "2020-10-04",
      "flow": 0.06265664160401002,
      "Latitude": "40.60327",
      "Longitude": "-74.115893"
    },
    {
      "SegmentID": "114953",
      "RoadwayName": "VAN DUZER STREET",
      "From": "Court Street",
      "To": "Gordon Street",
      "Direction": "EB",
      "Date": "2020-10-04",
      "flow": 0.09523809523809523,
      "Latitude": "40.6255943",
      "Longitude": "-74.0844979"
    },
    {
      "SegmentID": "4832",
      "RoadwayName": "VICTORY BOULEVARD",
      "From": "Dinsmore Street",
      "To": "Signs Road",
      "Direction": "EB",
      "Date": "2020-10-04",
      "flow": 0.022556390977443608,
      "Latitude": "40.6042894",
      "Longitude": "-74.1701652"
    },
    {
      "SegmentID": "4832",
      "RoadwayName": "VICTORY BOULEVARD",
      "From": "Dinsmore Street",
      "To": "Signs Road",
      "Direction": "WB",
      "Date": "2020-10-04",
      "flow": 0.02756892230576441,
      "Latitude": "40.6042894",
      "Longitude": "-74.1701652"
    },
    {
      "SegmentID": "256800",
      "RoadwayName": "WEBSTER AVENUE",
      "From": "East 233rd Street",
      "To": "Orio J. Palmer Way",
      "Direction": "NB",
      "Date": "2020-10-04",
      "flow": 0.2631578947368421,
      "Latitude": "40.8943484",
      "Longitude": "-73.8603418"
    },
    {
      "SegmentID": "256800",
      "RoadwayName": "WEBSTER AVENUE",
      "From": "East 233rd Street",
      "To": "Orio J. Palmer Way",
      "Direction": "SB",
      "Date": "2020-10-04",
      "flow": 0.18796992481203006,
      "Latitude": "40.8943484",
      "Longitude": "-73.8603418"
    },
    {
      "SegmentID": "81384",
      "RoadwayName": "WEBSTER AVENUE",
      "From": "Woodlawn Cemetery Boundary",
      "To": "East Gun Hill Rd",
      "Direction": "NB",
      "Date": "2020-10-04",
      "flow": 0.08521303258145363,
      "Latitude": "40.8640107",
      "Longitude": "-73.8339775"
    },
    {
      "SegmentID": "81384",
      "RoadwayName": "WEBSTER AVENUE",
      "From": "Woodlawn Cemetery Boundary",
      "To": "East Gun Hill Rd",
      "Direction": "SB",
      "Date": "2020-10-04",
      "flow": 0.13784461152882205,
      "Latitude": "40.8640107",
      "Longitude": "-73.8339775"
    },
    {
      "SegmentID": "95195",
      "RoadwayName": "WESTCHESTER AVENUE",
      "From": "Bruckner Boulevard",
      "To": "Burr Avenue",
      "Direction": "SB",
      "Date": "2020-10-04",
      "flow": 0.18045112781954886,
      "Latitude": "40.8301747",
      "Longitude": "-73.8375135"
    },
    {
      "SegmentID": "147032",
      "RoadwayName": "WHITE PLAINS ROAD",
      "From": "East 215th Street",
      "To": "East 216th Street",
      "Direction": "NB",
      "Date": "2020-10-04",
      "flow": 0.2781954887218045,
      "Latitude": "40.8941458",
      "Longitude": "-73.8569108"
    },
    {
      "SegmentID": "132595",
      "RoadwayName": "WHITE PLAINS ROAD",
      "From": "East 215th Street",
      "To": "East 216th Street",
      "Direction": "SB",
      "Date": "2020-10-04",
      "flow": 0.40350877192982454,
      "Latitude": "40.8941458",
      "Longitude": "-73.8569108"
    }
  ],
  "4:00-5:00AM": [
    {
      "SegmentID": "8152",
      "RoadwayName": "BRIELLE AVENUE",
      "From": "Suffolk Avenue",
      "To": "Livingston Avenue",
      "Direction": "EB",
      "Date": "2020-10-04",
      "flow": 0.026706231454005934,
      "Latitude": "40.5989787",
      "Longitude": "-74.1230537"
    },
    {
      "SegmentID": "8152",
      "RoadwayName": "BRIELLE AVENUE",
      "From": "Suffolk Avenue",
      "To": "Livingston Avenue",
      "Direction": "WB",
      "Date": "2020-10-04",
      "flow": 0.03857566765578635,
      "Latitude": "40.5989787",
      "Longitude": "-74.1230537"
    },
    {
      "SegmentID": "147673",
      "RoadwayName": "BROADWAY",
      "From": "Van Cortlandt Park South",
      "To": "West 242nd Street",
      "Direction": "SB",
      "Date": "2020-10-04",
      "flow": 0.1394658753709199,
      "Latitude": "40.8020029",
      "Longitude": "-73.9679456"
    },
    {
      "SegmentID": "255653",
      "RoadwayName": "BROADWAY",
      "From": "Broadway/ 7 Avenue Line",
      "To": "Broadway/ 7 Avenue Line",
      "Direction": "SB",
      "Date": "2020-10-04",
      "flow": 0.06824925816023739,
      "Latitude": "40.8020029",
      "Longitude": "-73.9679456"
    },
    {
      "SegmentID": "158447",
      "RoadwayName": "BROADWAY",
      "From": "West 242nd Street",
      "To": "Van Cortlandt Park South",
      "Direction": "NB",
      "Date": "2020-10-04",
      "flow": 0.19584569732937684,
      "Latitude": "40.8020029",
      "Longitude": "-73.9679456"
    },
    {
      "SegmentID": "221955",
      "RoadwayName": "BROADWAY",
      "From": "West 260th Street",
      "To": "West 261st Street",
      "Direction": "NB",
      "Date": "2020-10-04",
      "flow": 0.3293768545994065,
      "Latitude": "40.8020029",
      "Longitude": "-73.9679456"
    },
    {
      "SegmentID": "221955",
      "RoadwayName": "BROADWAY",
      "From": "West 260th Street",
      "To": "West 261st Street",
      "Direction": "SB",
      "Date": "2020-10-04",
      "flow": 0.36795252225519287,
      "Latitude": "40.8020029",
      "Longitude": "-73.9679456"
    },
    {
      "SegmentID": "9003976",
      "RoadwayName": "BURKE AVENUE",
      "From": "Yates Avenue",
      "To": "Bouck Avenue",
      "Direction": "EB",
      "Date": "2020-10-04",
      "flow": 0.09495548961424333,
      "Latitude": "40.8714348",
      "Longitude": "-73.8671748"
    },
    {
      "SegmentID": "9003976",
      "RoadwayName": "BURKE AVENUE",
      "From": "Yates Avenue",
      "To": "Bouck Avenue",
      "Direction": "WB",
      "Date": "2020-10-04",
      "flow": 0.05637982195845697,
      "Latitude": "40.8714348",
      "Longitude": "-73.8671748"
    },
    {
      "SegmentID": "9002977",
      "RoadwayName": "CALHOUN AVENUE",
      "From": "East 177th Street",
      "To": "Dewey Avenue",
      "Direction": "NB",
      "Date": "2020-10-04",
      "flow": 0,
      "Latitude": "40.8363101",
      "Longitude": "-73.874253"
    },
    {
      "SegmentID": "9002977",
      "RoadwayName": "CALHOUN AVENUE",
      "From": "East 177th Street",
      "To": "Dewey Avenue",
      "Direction": "SB",
      "Date": "2020-10-04",
      "flow": 0.03560830860534125,
      "Latitude": "40.8363101",
      "Longitude": "-73.874253"
    },
    {
      "SegmentID": "160467",
      "RoadwayName": "CLOVE ROAD",
      "From": "Narrows Road North",
      "To": "Staten Island Expressway",
      "Direction": "NB",
      "Date": "2020-10-04",
      "flow": 0.14540059347181009,
      "Latitude": "40.6139911",
      "Longitude": "-74.1012626"
    },
    {
      "SegmentID": "160467",
      "RoadwayName": "CLOVE ROAD",
      "From": "Narrows Road North",
      "To": "Staten Island Expressway",
      "Direction": "SB",
      "Date": "2020-10-04",
      "flow": 0.19287833827893175,
      "Latitude": "40.6139911",
      "Longitude": "-74.1012626"
    },
    {
      "SegmentID": "95624",
      "RoadwayName": "DYRE AVENUE",
      "From": "Lustre Street",
      "To": "West Kingsbridge Road",
      "Direction": "NB",
      "Date": "2020-10-04",
      "flow": 0.07418397626112759,
      "Latitude": "40.8906855",
      "Longitude": "-73.8311288"
    },
    {
      "SegmentID": "95624",
      "RoadwayName": "DYRE AVENUE",
      "From": "Lustre Street",
      "To": "West Kingsbridge Road",
      "Direction": "SB",
      "Date": "2020-10-04",
      "flow": 0.06231454005934718,
      "Latitude": "40.8906855",
      "Longitude": "-73.8311288"
    },
    {
      "SegmentID": "89278",
      "RoadwayName": "EAST 241st STREET",
      "From": "Carpenter Avenue",
      "To": "Matilda Avenue",
      "Direction": "EB",
      "Date": "2020-10-04",
      "flow": 0.1513353115727003,
      "Latitude": "40.886608",
      "Longitude": "-73.864505"
    },
    {
      "SegmentID": "89278",
      "RoadwayName": "EAST 241st STREET",
      "From": "Carpenter Avenue",
      "To": "Matilda Avenue",
      "Direction": "WB",
      "Date": "2020-10-04",
      "flow": 0.14836795252225518,
      "Latitude": "40.886608",
      "Longitude": "-73.864505"
    },
    {
      "SegmentID": "133279",
      "RoadwayName": "EAST FORDHAM ROAD",
      "From": "Bronx River Shoreline",
      "To": "Pelham Parkway",
      "Direction": "EB",
      "Date": "2020-10-04",
      "flow": 1,
      "Latitude": "40.8554124",
      "Longitude": "-73.8767367"
    },
    {
      "SegmentID": "88518",
      "RoadwayName": "EASTCHESTER ROAD",
      "From": "Givan Avenue",
      "To": "Tillotson Avenue",
      "Direction": "NB",
      "Date": "2020-10-04",
      "flow": 0.08902077151335312,
      "Latitude": "40.8775139",
      "Longitude": "-73.8364539"
    },
    {
      "SegmentID": "88518",
      "RoadwayName": "EASTCHESTER ROAD",
      "From": "Givan Avenue",
      "To": "Tillotson Avenue",
      "Direction": "SB",
      "Date": "2020-10-04",
      "flow": 0.08902077151335312,
      "Latitude": "40.8775139",
      "Longitude": "-73.8364539"
    },
    {
      "SegmentID": "226748",
      "RoadwayName": "EDSON AVENUE",
      "From": "New England Thruway/ Edson Avenue",
      "To": "Bartow Avenue",
      "Direction": "SB",
      "Date": "2020-10-04",
      "flow": 0.20771513353115728,
      "Latitude": "40.8682393",
      "Longitude": "-73.8335456"
    },
    {
      "SegmentID": "154911",
      "RoadwayName": "ESPLANADE",
      "From": "Hone Avenue",
      "To": "Lurting Avenue",
      "Direction": "NB",
      "Date": "2020-10-04",
      "flow": 0.017804154302670624,
      "Latitude": "40.8562345",
      "Longitude": "-73.8598498"
    },
    {
      "SegmentID": "154664",
      "RoadwayName": "ESPLANADE",
      "From": "Hone Avenue",
      "To": "Lurting Avenue",
      "Direction": "SB",
      "Date": "2020-10-04",
      "flow": 0.01483679525222552,
      "Latitude": "40.8562345",
      "Longitude": "-73.8598498"
    },
    {
      "SegmentID": "19259",
      "RoadwayName": "NEPTUNE AVENUE",
      "From": "West 12th Street",
      "To": "West End/ Sea Beach Line",
      "Direction": "EB",
      "Date": "2020-10-04",
      "flow": 0.142433234421365,
      "Latitude": "40.5747728",
      "Longitude": "-73.9796628"
    },
    {
      "SegmentID": "19259",
      "RoadwayName": "NEPTUNE AVENUE",
      "From": "West 12th Street",
      "To": "West End/ Sea Beach Line",
      "Direction": "WB",
      "Date": "2020-10-04",
      "flow": 0.02967359050445104,
      "Latitude": "40.5747728",
      "Longitude": "-73.9796628"
    },
    {
      "SegmentID": "120618",
      "RoadwayName": "POLY PLACE",
      "From": "7th Avenue",
      "To": "Cropsey Avenue",
      "Direction": "EB",
      "Date": "2020-10-04",
      "flow": 0.0771513353115727,
      "Latitude": "40.7509212",
      "Longitude": "-73.9906766"
    },
    {
      "SegmentID": "120618",
      "RoadwayName": "POLY PLACE",
      "From": "7th Avenue",
      "To": "Cropsey Avenue",
      "Direction": "WB",
      "Date": "2020-10-04",
      "flow": 0.04451038575667656,
      "Latitude": "40.7509212",
      "Longitude": "-73.9906766"
    },
    {
      "SegmentID": "192425",
      "RoadwayName": "PROVOST AVENUE",
      "From": "East 233rd Street",
      "To": "East Kingsbridge Road",
      "Direction": "NB",
      "Date": "2020-10-04",
      "flow": 0.09495548961424333,
      "Latitude": "40.8943484",
      "Longitude": "-73.8603418"
    },
    {
      "SegmentID": "192425",
      "RoadwayName": "PROVOST AVENUE",
      "From": "East 233rd Street",
      "To": "East Kingsbridge Road",
      "Direction": "SB",
      "Date": "2020-10-04",
      "flow": 0.0712166172106825,
      "Latitude": "40.8943484",
      "Longitude": "-73.8603418"
    },
    {
      "SegmentID": "179513",
      "RoadwayName": "RANDALL AVENUE",
      "From": "East 177th Street",
      "To": "Cross Bronx Expressway",
      "Direction": "EB",
      "Date": "2020-10-04",
      "flow": 0.2166172106824926,
      "Latitude": "40.8363101",
      "Longitude": "-73.874253"
    },
    {
      "SegmentID": "179513",
      "RoadwayName": "RANDALL AVENUE",
      "From": "East 177th Street",
      "To": "Cross Bronx Expressway",
      "Direction": "WB",
      "Date": "2020-10-04",
      "flow": 0.02373887240356083,
      "Latitude": "40.8363101",
      "Longitude": "-73.874253"
    },
    {
      "SegmentID": "149201",
      "RoadwayName": "RICHMOND AVENUE",
      "From": "Forest Hill Road",
      "To": "Forest Hill Bridge",
      "Direction": "SB",
      "Date": "2020-10-04",
      "flow": 0.12462908011869436,
      "Latitude": "40.5864271",
      "Longitude": "-74.1462521"
    },
    {
      "SegmentID": "155387",
      "RoadwayName": "RICHMOND AVENUE",
      "From": "Forest Hill Road",
      "To": "Forest Hill Bridge",
      "Direction": "NB",
      "Date": "2020-10-04",
      "flow": 0.2433234421364985,
      "Latitude": "40.5864271",
      "Longitude": "-74.1462521"
    },
    {
      "SegmentID": "8288",
      "RoadwayName": "RICHMOND",
      "From": "Hillman Avenue",
      "To": "Akron Street",
      "Direction": "NB",
      "Date": "2020-10-04",
      "flow": 0.1632047477744807,
      "Latitude": "40.612573",
      "Longitude": "-74.160427"
    },
    {
      "SegmentID": "8288",
      "RoadwayName": "RICHMOND",
      "From": "Hillman Avenue",
      "To": "Akron Street",
      "Direction": "SB",
      "Date": "2020-10-04",
      "flow": 0.10089020771513353,
      "Latitude": "40.612573",
      "Longitude": "-74.160427"
    },
    {
      "SegmentID": "73436",
      "RoadwayName": "RIVERDALE AVENUE",
      "From": "West 238th Street",
      "To": "West 239th Street",
      "Direction": "NB",
      "Date": "2020-10-04",
      "flow": 0.02967359050445104,
      "Latitude": "40.9122215",
      "Longitude": "-73.9026588"
    },
    {
      "SegmentID": "73436",
      "RoadwayName": "RIVERDALE AVENUE",
      "From": "West 238th Street",
      "To": "West 239th Street",
      "Direction": "SB",
      "Date": "2020-10-04",
      "flow": 0.04154302670623145,
      "Latitude": "40.9122215",
      "Longitude": "-73.9026588"
    },
    {
      "SegmentID": "150579",
      "RoadwayName": "SOUTH AVENUE",
      "From": "Lois Lane",
      "To": "Fahy Avenue",
      "Direction": "SB",
      "Date": "2020-10-04",
      "flow": 0.05934718100890208,
      "Latitude": "40.6156603",
      "Longitude": "-74.1728195"
    },
    {
      "SegmentID": "150578",
      "RoadwayName": "SOUTH AVENUE",
      "From": "Lois Lane",
      "To": "Fahy Avenue",
      "Direction": "NB",
      "Date": "2020-10-04",
      "flow": 0.050445103857566766,
      "Latitude": "40.6156603",
      "Longitude": "-74.1728195"
    },
    {
      "SegmentID": "112206",
      "RoadwayName": "TODT HILL ROAD",
      "From": "Sussex Avenue",
      "To": "Ocean Terrace",
      "Direction": "NB",
      "Date": "2020-10-04",
      "flow": 0.08605341246290801,
      "Latitude": "40.60327",
      "Longitude": "-74.115893"
    },
    {
      "SegmentID": "112206",
      "RoadwayName": "TODT HILL ROAD",
      "From": "Sussex Avenue",
      "To": "Ocean Terrace",
      "Direction": "SB",
      "Date": "2020-10-04",
      "flow": 0.08605341246290801,
      "Latitude": "40.60327",
      "Longitude": "-74.115893"
    },
    {
      "SegmentID": "114953",
      "RoadwayName": "VAN DUZER STREET",
      "From": "Court Street",
      "To": "Gordon Street",
      "Direction": "EB",
      "Date": "2020-10-04",
      "flow": 0.10682492581602374,
      "Latitude": "40.6255943",
      "Longitude": "-74.0844979"
    },
    {
      "SegmentID": "4832",
      "RoadwayName": "VICTORY BOULEVARD",
      "From": "Dinsmore Street",
      "To": "Signs Road",
      "Direction": "EB",
      "Date": "2020-10-04",
      "flow": 0.02967359050445104,
      "Latitude": "40.6042894",
      "Longitude": "-74.1701652"
    },
    {
      "SegmentID": "4832",
      "RoadwayName": "VICTORY BOULEVARD",
      "From": "Dinsmore Street",
      "To": "Signs Road",
      "Direction": "WB",
      "Date": "2020-10-04",
      "flow": 0.032640949554896145,
      "Latitude": "40.6042894",
      "Longitude": "-74.1701652"
    },
    {
      "SegmentID": "256800",
      "RoadwayName": "WEBSTER AVENUE",
      "From": "East 233rd Street",
      "To": "Orio J. Palmer Way",
      "Direction": "NB",
      "Date": "2020-10-04",
      "flow": 0.2551928783382789,
      "Latitude": "40.8943484",
      "Longitude": "-73.8603418"
    },
    {
      "SegmentID": "256800",
      "RoadwayName": "WEBSTER AVENUE",
      "From": "East 233rd Street",
      "To": "Orio J. Palmer Way",
      "Direction": "SB",
      "Date": "2020-10-04",
      "flow": 0.20178041543026706,
      "Latitude": "40.8943484",
      "Longitude": "-73.8603418"
    },
    {
      "SegmentID": "81384",
      "RoadwayName": "WEBSTER AVENUE",
      "From": "Woodlawn Cemetery Boundary",
      "To": "East Gun Hill Rd",
      "Direction": "NB",
      "Date": "2020-10-04",
      "flow": 0.10979228486646884,
      "Latitude": "40.8640107",
      "Longitude": "-73.8339775"
    },
    {
      "SegmentID": "81384",
      "RoadwayName": "WEBSTER AVENUE",
      "From": "Woodlawn Cemetery Boundary",
      "To": "East Gun Hill Rd",
      "Direction": "SB",
      "Date": "2020-10-04",
      "flow": 0.10089020771513353,
      "Latitude": "40.8640107",
      "Longitude": "-73.8339775"
    },
    {
      "SegmentID": "95195",
      "RoadwayName": "WESTCHESTER AVENUE",
      "From": "Bruckner Boulevard",
      "To": "Burr Avenue",
      "Direction": "SB",
      "Date": "2020-10-04",
      "flow": 0.2522255192878338,
      "Latitude": "40.8301747",
      "Longitude": "-73.8375135"
    },
    {
      "SegmentID": "147032",
      "RoadwayName": "WHITE PLAINS ROAD",
      "From": "East 215th Street",
      "To": "East 216th Street",
      "Direction": "NB",
      "Date": "2020-10-04",
      "flow": 0.2433234421364985,
      "Latitude": "40.8941458",
      "Longitude": "-73.8569108"
    },
    {
      "SegmentID": "132595",
      "RoadwayName": "WHITE PLAINS ROAD",
      "From": "East 215th Street",
      "To": "East 216th Street",
      "Direction": "SB",
      "Date": "2020-10-04",
      "flow": 0.45103857566765576,
      "Latitude": "40.8941458",
      "Longitude": "-73.8569108"
    }
  ],
  "5:00-6:00AM": [
    {
      "SegmentID": "8152",
      "RoadwayName": "BRIELLE AVENUE",
      "From": "Suffolk Avenue",
      "To": "Livingston Avenue",
      "Direction": "EB",
      "Date": "2020-10-04",
      "flow": 0.0027100271002710027,
      "Latitude": "40.5989787",
      "Longitude": "-74.1230537"
    },
    {
      "SegmentID": "8152",
      "RoadwayName": "BRIELLE AVENUE",
      "From": "Suffolk Avenue",
      "To": "Livingston Avenue",
      "Direction": "WB",
      "Date": "2020-10-04",
      "flow": 0.01084010840108401,
      "Latitude": "40.5989787",
      "Longitude": "-74.1230537"
    },
    {
      "SegmentID": "147673",
      "RoadwayName": "BROADWAY",
      "From": "Van Cortlandt Park South",
      "To": "West 242nd Street",
      "Direction": "SB",
      "Date": "2020-10-04",
      "flow": 0.0921409214092141,
      "Latitude": "40.8020029",
      "Longitude": "-73.9679456"
    },
    {
      "SegmentID": "255653",
      "RoadwayName": "BROADWAY",
      "From": "Broadway/ 7 Avenue Line",
      "To": "Broadway/ 7 Avenue Line",
      "Direction": "SB",
      "Date": "2020-10-04",
      "flow": 0.04878048780487805,
      "Latitude": "40.8020029",
      "Longitude": "-73.9679456"
    },
    {
      "SegmentID": "158447",
      "RoadwayName": "BROADWAY",
      "From": "West 242nd Street",
      "To": "Van Cortlandt Park South",
      "Direction": "NB",
      "Date": "2020-10-04",
      "flow": 0.17615176151761516,
      "Latitude": "40.8020029",
      "Longitude": "-73.9679456"
    },
    {
      "SegmentID": "221955",
      "RoadwayName": "BROADWAY",
      "From": "West 260th Street",
      "To": "West 261st Street",
      "Direction": "NB",
      "Date": "2020-10-04",
      "flow": 0.2222222222222222,
      "Latitude": "40.8020029",
      "Longitude": "-73.9679456"
    },
    {
      "SegmentID": "221955",
      "RoadwayName": "BROADWAY",
      "From": "West 260th Street",
      "To": "West 261st Street",
      "Direction": "SB",
      "Date": "2020-10-04",
      "flow": 0.24390243902439024,
      "Latitude": "40.8020029",
      "Longitude": "-73.9679456"
    },
    {
      "SegmentID": "9003976",
      "RoadwayName": "BURKE AVENUE",
      "From": "Yates Avenue",
      "To": "Bouck Avenue",
      "Direction": "EB",
      "Date": "2020-10-04",
      "flow": 0.07317073170731707,
      "Latitude": "40.8714348",
      "Longitude": "-73.8671748"
    },
    {
      "SegmentID": "9003976",
      "RoadwayName": "BURKE AVENUE",
      "From": "Yates Avenue",
      "To": "Bouck Avenue",
      "Direction": "WB",
      "Date": "2020-10-04",
      "flow": 0.037940379403794036,
      "Latitude": "40.8714348",
      "Longitude": "-73.8671748"
    },
    {
      "SegmentID": "9002977",
      "RoadwayName": "CALHOUN AVENUE",
      "From": "East 177th Street",
      "To": "Dewey Avenue",
      "Direction": "NB",
      "Date": "2020-10-04",
      "flow": 0,
      "Latitude": "40.8363101",
      "Longitude": "-73.874253"
    },
    {
      "SegmentID": "9002977",
      "RoadwayName": "CALHOUN AVENUE",
      "From": "East 177th Street",
      "To": "Dewey Avenue",
      "Direction": "SB",
      "Date": "2020-10-04",
      "flow": 0.018970189701897018,
      "Latitude": "40.8363101",
      "Longitude": "-73.874253"
    },
    {
      "SegmentID": "160467",
      "RoadwayName": "CLOVE ROAD",
      "From": "Narrows Road North",
      "To": "Staten Island Expressway",
      "Direction": "NB",
      "Date": "2020-10-04",
      "flow": 0.14092140921409213,
      "Latitude": "40.6139911",
      "Longitude": "-74.1012626"
    },
    {
      "SegmentID": "160467",
      "RoadwayName": "CLOVE ROAD",
      "From": "Narrows Road North",
      "To": "Staten Island Expressway",
      "Direction": "SB",
      "Date": "2020-10-04",
      "flow": 0.2953929539295393,
      "Latitude": "40.6139911",
      "Longitude": "-74.1012626"
    },
    {
      "SegmentID": "95624",
      "RoadwayName": "DYRE AVENUE",
      "From": "Lustre Street",
      "To": "West Kingsbridge Road",
      "Direction": "NB",
      "Date": "2020-10-04",
      "flow": 0.02981029810298103,
      "Latitude": "40.8906855",
      "Longitude": "-73.8311288"
    },
    {
      "SegmentID": "95624",
      "RoadwayName": "DYRE AVENUE",
      "From": "Lustre Street",
      "To": "West Kingsbridge Road",
      "Direction": "SB",
      "Date": "2020-10-04",
      "flow": 0.04607046070460705,
      "Latitude": "40.8906855",
      "Longitude": "-73.8311288"
    },
    {
      "SegmentID": "89278",
      "RoadwayName": "EAST 241st STREET",
      "From": "Carpenter Avenue",
      "To": "Matilda Avenue",
      "Direction": "EB",
      "Date": "2020-10-04",
      "flow": 0.12466124661246612,
      "Latitude": "40.886608",
      "Longitude": "-73.864505"
    },
    {
      "SegmentID": "89278",
      "RoadwayName": "EAST 241st STREET",
      "From": "Carpenter Avenue",
      "To": "Matilda Avenue",
      "Direction": "WB",
      "Date": "2020-10-04",
      "flow": 0.17615176151761516,
      "Latitude": "40.886608",
      "Longitude": "-73.864505"
    },
    {
      "SegmentID": "133279",
      "RoadwayName": "EAST FORDHAM ROAD",
      "From": "Bronx River Shoreline",
      "To": "Pelham Parkway",
      "Direction": "EB",
      "Date": "2020-10-04",
      "flow": 1,
      "Latitude": "40.8554124",
      "Longitude": "-73.8767367"
    },
    {
      "SegmentID": "88518",
      "RoadwayName": "EASTCHESTER ROAD",
      "From": "Givan Avenue",
      "To": "Tillotson Avenue",
      "Direction": "NB",
      "Date": "2020-10-04",
      "flow": 0.08401084010840108,
      "Latitude": "40.8775139",
      "Longitude": "-73.8364539"
    },
    {
      "SegmentID": "88518",
      "RoadwayName": "EASTCHESTER ROAD",
      "From": "Givan Avenue",
      "To": "Tillotson Avenue",
      "Direction": "SB",
      "Date": "2020-10-04",
      "flow": 0.08672086720867209,
      "Latitude": "40.8775139",
      "Longitude": "-73.8364539"
    },
    {
      "SegmentID": "226748",
      "RoadwayName": "EDSON AVENUE",
      "From": "New England Thruway/ Edson Avenue",
      "To": "Bartow Avenue",
      "Direction": "SB",
      "Date": "2020-10-04",
      "flow": 0.36314363143631434,
      "Latitude": "40.8682393",
      "Longitude": "-73.8335456"
    },
    {
      "SegmentID": "154911",
      "RoadwayName": "ESPLANADE",
      "From": "Hone Avenue",
      "To": "Lurting Avenue",
      "Direction": "NB",
      "Date": "2020-10-04",
      "flow": 0,
      "Latitude": "40.8562345",
      "Longitude": "-73.8598498"
    },
    {
      "SegmentID": "154664",
      "RoadwayName": "ESPLANADE",
      "From": "Hone Avenue",
      "To": "Lurting Avenue",
      "Direction": "SB",
      "Date": "2020-10-04",
      "flow": 0.02168021680216802,
      "Latitude": "40.8562345",
      "Longitude": "-73.8598498"
    },
    {
      "SegmentID": "19259",
      "RoadwayName": "NEPTUNE AVENUE",
      "From": "West 12th Street",
      "To": "West End/ Sea Beach Line",
      "Direction": "EB",
      "Date": "2020-10-04",
      "flow": 0.15447154471544716,
      "Latitude": "40.5747728",
      "Longitude": "-73.9796628"
    },
    {
      "SegmentID": "19259",
      "RoadwayName": "NEPTUNE AVENUE",
      "From": "West 12th Street",
      "To": "West End/ Sea Beach Line",
      "Direction": "WB",
      "Date": "2020-10-04",
      "flow": 0.07046070460704607,
      "Latitude": "40.5747728",
      "Longitude": "-73.9796628"
    },
    {
      "SegmentID": "120618",
      "RoadwayName": "POLY PLACE",
      "From": "7th Avenue",
      "To": "Cropsey Avenue",
      "Direction": "EB",
      "Date": "2020-10-04",
      "flow": 0.11924119241192412,
      "Latitude": "40.7509212",
      "Longitude": "-73.9906766"
    },
    {
      "SegmentID": "120618",
      "RoadwayName": "POLY PLACE",
      "From": "7th Avenue",
      "To": "Cropsey Avenue",
      "Direction": "WB",
      "Date": "2020-10-04",
      "flow": 0.04878048780487805,
      "Latitude": "40.7509212",
      "Longitude": "-73.9906766"
    },
    {
      "SegmentID": "192425",
      "RoadwayName": "PROVOST AVENUE",
      "From": "East 233rd Street",
      "To": "East Kingsbridge Road",
      "Direction": "NB",
      "Date": "2020-10-04",
      "flow": 0.05962059620596206,
      "Latitude": "40.8943484",
      "Longitude": "-73.8603418"
    },
    {
      "SegmentID": "192425",
      "RoadwayName": "PROVOST AVENUE",
      "From": "East 233rd Street",
      "To": "East Kingsbridge Road",
      "Direction": "SB",
      "Date": "2020-10-04",
      "flow": 0.04878048780487805,
      "Latitude": "40.8943484",
      "Longitude": "-73.8603418"
    },
    {
      "SegmentID": "179513",
      "RoadwayName": "RANDALL AVENUE",
      "From": "East 177th Street",
      "To": "Cross Bronx Expressway",
      "Direction": "EB",
      "Date": "2020-10-04",
      "flow": 0.26287262872628725,
      "Latitude": "40.8363101",
      "Longitude": "-73.874253"
    },
    {
      "SegmentID": "179513",
      "RoadwayName": "RANDALL AVENUE",
      "From": "East 177th Street",
      "To": "Cross Bronx Expressway",
      "Direction": "WB",
      "Date": "2020-10-04",
      "flow": 0.04878048780487805,
      "Latitude": "40.8363101",
      "Longitude": "-73.874253"
    },
    {
      "SegmentID": "149201",
      "RoadwayName": "RICHMOND AVENUE",
      "From": "Forest Hill Road",
      "To": "Forest Hill Bridge",
      "Direction": "SB",
      "Date": "2020-10-04",
      "flow": 0.14905149051490515,
      "Latitude": "40.5864271",
      "Longitude": "-74.1462521"
    },
    {
      "SegmentID": "155387",
      "RoadwayName": "RICHMOND AVENUE",
      "From": "Forest Hill Road",
      "To": "Forest Hill Bridge",
      "Direction": "NB",
      "Date": "2020-10-04",
      "flow": 0.38482384823848237,
      "Latitude": "40.5864271",
      "Longitude": "-74.1462521"
    },
    {
      "SegmentID": "8288",
      "RoadwayName": "RICHMOND",
      "From": "Hillman Avenue",
      "To": "Akron Street",
      "Direction": "NB",
      "Date": "2020-10-04",
      "flow": 0.2601626016260163,
      "Latitude": "40.612573",
      "Longitude": "-74.160427"
    },
    {
      "SegmentID": "8288",
      "RoadwayName": "RICHMOND",
      "From": "Hillman Avenue",
      "To": "Akron Street",
      "Direction": "SB",
      "Date": "2020-10-04",
      "flow": 0.11382113821138211,
      "Latitude": "40.612573",
      "Longitude": "-74.160427"
    },
    {
      "SegmentID": "73436",
      "RoadwayName": "RIVERDALE AVENUE",
      "From": "West 238th Street",
      "To": "West 239th Street",
      "Direction": "NB",
      "Date": "2020-10-04",
      "flow": 0.06504065040650407,
      "Latitude": "40.9122215",
      "Longitude": "-73.9026588"
    },
    {
      "SegmentID": "73436",
      "RoadwayName": "RIVERDALE AVENUE",
      "From": "West 238th Street",
      "To": "West 239th Street",
      "Direction": "SB",
      "Date": "2020-10-04",
      "flow": 0.051490514905149054,
      "Latitude": "40.9122215",
      "Longitude": "-73.9026588"
    },
    {
      "SegmentID": "150579",
      "RoadwayName": "SOUTH AVENUE",
      "From": "Lois Lane",
      "To": "Fahy Avenue",
      "Direction": "SB",
      "Date": "2020-10-04",
      "flow": 0.14363143631436315,
      "Latitude": "40.6156603",
      "Longitude": "-74.1728195"
    },
    {
      "SegmentID": "150578",
      "RoadwayName": "SOUTH AVENUE",
      "From": "Lois Lane",
      "To": "Fahy Avenue",
      "Direction": "NB",
      "Date": "2020-10-04",
      "flow": 0.08401084010840108,
      "Latitude": "40.6156603",
      "Longitude": "-74.1728195"
    },
    {
      "SegmentID": "112206",
      "RoadwayName": "TODT HILL ROAD",
      "From": "Sussex Avenue",
      "To": "Ocean Terrace",
      "Direction": "NB",
      "Date": "2020-10-04",
      "flow": 0.12737127371273713,
      "Latitude": "40.60327",
      "Longitude": "-74.115893"
    },
    {
      "SegmentID": "112206",
      "RoadwayName": "TODT HILL ROAD",
      "From": "Sussex Avenue",
      "To": "Ocean Terrace",
      "Direction": "SB",
      "Date": "2020-10-04",
      "flow": 0.11653116531165311,
      "Latitude": "40.60327",
      "Longitude": "-74.115893"
    },
    {
      "SegmentID": "114953",
      "RoadwayName": "VAN DUZER STREET",
      "From": "Court Street",
      "To": "Gordon Street",
      "Direction": "EB",
      "Date": "2020-10-04",
      "flow": 0.13821138211382114,
      "Latitude": "40.6255943",
      "Longitude": "-74.0844979"
    },
    {
      "SegmentID": "4832",
      "RoadwayName": "VICTORY BOULEVARD",
      "From": "Dinsmore Street",
      "To": "Signs Road",
      "Direction": "EB",
      "Date": "2020-10-04",
      "flow": 0.04878048780487805,
      "Latitude": "40.6042894",
      "Longitude": "-74.1701652"
    },
    {
      "SegmentID": "4832",
      "RoadwayName": "VICTORY BOULEVARD",
      "From": "Dinsmore Street",
      "To": "Signs Road",
      "Direction": "WB",
      "Date": "2020-10-04",
      "flow": 0.06504065040650407,
      "Latitude": "40.6042894",
      "Longitude": "-74.1701652"
    },
    {
      "SegmentID": "256800",
      "RoadwayName": "WEBSTER AVENUE",
      "From": "East 233rd Street",
      "To": "Orio J. Palmer Way",
      "Direction": "NB",
      "Date": "2020-10-04",
      "flow": 0.27371273712737126,
      "Latitude": "40.8943484",
      "Longitude": "-73.8603418"
    },
    {
      "SegmentID": "256800",
      "RoadwayName": "WEBSTER AVENUE",
      "From": "East 233rd Street",
      "To": "Orio J. Palmer Way",
      "Direction": "SB",
      "Date": "2020-10-04",
      "flow": 0.19241192411924118,
      "Latitude": "40.8943484",
      "Longitude": "-73.8603418"
    },
    {
      "SegmentID": "81384",
      "RoadwayName": "WEBSTER AVENUE",
      "From": "Woodlawn Cemetery Boundary",
      "To": "East Gun Hill Rd",
      "Direction": "NB",
      "Date": "2020-10-04",
      "flow": 0.06233062330623306,
      "Latitude": "40.8640107",
      "Longitude": "-73.8339775"
    },
    {
      "SegmentID": "81384",
      "RoadwayName": "WEBSTER AVENUE",
      "From": "Woodlawn Cemetery Boundary",
      "To": "East Gun Hill Rd",
      "Direction": "SB",
      "Date": "2020-10-04",
      "flow": 0.07317073170731707,
      "Latitude": "40.8640107",
      "Longitude": "-73.8339775"
    },
    {
      "SegmentID": "95195",
      "RoadwayName": "WESTCHESTER AVENUE",
      "From": "Bruckner Boulevard",
      "To": "Burr Avenue",
      "Direction": "SB",
      "Date": "2020-10-04",
      "flow": 0.25203252032520324,
      "Latitude": "40.8301747",
      "Longitude": "-73.8375135"
    },
    {
      "SegmentID": "147032",
      "RoadwayName": "WHITE PLAINS ROAD",
      "From": "East 215th Street",
      "To": "East 216th Street",
      "Direction": "NB",
      "Date": "2020-10-04",
      "flow": 0.24390243902439024,
      "Latitude": "40.8941458",
      "Longitude": "-73.8569108"
    },
    {
      "SegmentID": "132595",
      "RoadwayName": "WHITE PLAINS ROAD",
      "From": "East 215th Street",
      "To": "East 216th Street",
      "Direction": "SB",
      "Date": "2020-10-04",
      "flow": 0.4363143631436314,
      "Latitude": "40.8941458",
      "Longitude": "-73.8569108"
    }
  ],
  "6:00-7:00AM": [
    {
      "SegmentID": "8152",
      "RoadwayName": "BRIELLE AVENUE",
      "From": "Suffolk Avenue",
      "To": "Livingston Avenue",
      "Direction": "EB",
      "Date": "2020-10-04",
      "flow": 0.034482758620689655,
      "Latitude": "40.5989787",
      "Longitude": "-74.1230537"
    },
    {
      "SegmentID": "8152",
      "RoadwayName": "BRIELLE AVENUE",
      "From": "Suffolk Avenue",
      "To": "Livingston Avenue",
      "Direction": "WB",
      "Date": "2020-10-04",
      "flow": 0.03908045977011494,
      "Latitude": "40.5989787",
      "Longitude": "-74.1230537"
    },
    {
      "SegmentID": "147673",
      "RoadwayName": "BROADWAY",
      "From": "Van Cortlandt Park South",
      "To": "West 242nd Street",
      "Direction": "SB",
      "Date": "2020-10-04",
      "flow": 0.16091954022988506,
      "Latitude": "40.8020029",
      "Longitude": "-73.9679456"
    },
    {
      "SegmentID": "255653",
      "RoadwayName": "BROADWAY",
      "From": "Broadway/ 7 Avenue Line",
      "To": "Broadway/ 7 Avenue Line",
      "Direction": "SB",
      "Date": "2020-10-04",
      "flow": 0.09885057471264368,
      "Latitude": "40.8020029",
      "Longitude": "-73.9679456"
    },
    {
      "SegmentID": "158447",
      "RoadwayName": "BROADWAY",
      "From": "West 242nd Street",
      "To": "Van Cortlandt Park South",
      "Direction": "NB",
      "Date": "2020-10-04",
      "flow": 0.26436781609195403,
      "Latitude": "40.8020029",
      "Longitude": "-73.9679456"
    },
    {
      "SegmentID": "221955",
      "RoadwayName": "BROADWAY",
      "From": "West 260th Street",
      "To": "West 261st Street",
      "Direction": "NB",
      "Date": "2020-10-04",
      "flow": 0.2482758620689655,
      "Latitude": "40.8020029",
      "Longitude": "-73.9679456"
    },
    {
      "SegmentID": "221955",
      "RoadwayName": "BROADWAY",
      "From": "West 260th Street",
      "To": "West 261st Street",
      "Direction": "SB",
      "Date": "2020-10-04",
      "flow": 0.35172413793103446,
      "Latitude": "40.8020029",
      "Longitude": "-73.9679456"
    },
    {
      "SegmentID": "9003976",
      "RoadwayName": "BURKE AVENUE",
      "From": "Yates Avenue",
      "To": "Bouck Avenue",
      "Direction": "EB",
      "Date": "2020-10-04",
      "flow": 0.12873563218390804,
      "Latitude": "40.8714348",
      "Longitude": "-73.8671748"
    },
    {
      "SegmentID": "9003976",
      "RoadwayName": "BURKE AVENUE",
      "From": "Yates Avenue",
      "To": "Bouck Avenue",
      "Direction": "WB",
      "Date": "2020-10-04",
      "flow": 0.04367816091954023,
      "Latitude": "40.8714348",
      "Longitude": "-73.8671748"
    },
    {
      "SegmentID": "9002977",
      "RoadwayName": "CALHOUN AVENUE",
      "From": "East 177th Street",
      "To": "Dewey Avenue",
      "Direction": "NB",
      "Date": "2020-10-04",
      "flow": 0,
      "Latitude": "40.8363101",
      "Longitude": "-73.874253"
    },
    {
      "SegmentID": "9002977",
      "RoadwayName": "CALHOUN AVENUE",
      "From": "East 177th Street",
      "To": "Dewey Avenue",
      "Direction": "SB",
      "Date": "2020-10-04",
      "flow": 0.016091954022988506,
      "Latitude": "40.8363101",
      "Longitude": "-73.874253"
    },
    {
      "SegmentID": "160467",
      "RoadwayName": "CLOVE ROAD",
      "From": "Narrows Road North",
      "To": "Staten Island Expressway",
      "Direction": "NB",
      "Date": "2020-10-04",
      "flow": 0.2942528735632184,
      "Latitude": "40.6139911",
      "Longitude": "-74.1012626"
    },
    {
      "SegmentID": "160467",
      "RoadwayName": "CLOVE ROAD",
      "From": "Narrows Road North",
      "To": "Staten Island Expressway",
      "Direction": "SB",
      "Date": "2020-10-04",
      "flow": 0.43448275862068964,
      "Latitude": "40.6139911",
      "Longitude": "-74.1012626"
    },
    {
      "SegmentID": "95624",
      "RoadwayName": "DYRE AVENUE",
      "From": "Lustre Street",
      "To": "West Kingsbridge Road",
      "Direction": "NB",
      "Date": "2020-10-04",
      "flow": 0.034482758620689655,
      "Latitude": "40.8906855",
      "Longitude": "-73.8311288"
    },
    {
      "SegmentID": "95624",
      "RoadwayName": "DYRE AVENUE",
      "From": "Lustre Street",
      "To": "West Kingsbridge Road",
      "Direction": "SB",
      "Date": "2020-10-04",
      "flow": 0.13793103448275862,
      "Latitude": "40.8906855",
      "Longitude": "-73.8311288"
    },
    {
      "SegmentID": "89278",
      "RoadwayName": "EAST 241st STREET",
      "From": "Carpenter Avenue",
      "To": "Matilda Avenue",
      "Direction": "EB",
      "Date": "2020-10-04",
      "flow": 0.167816091954023,
      "Latitude": "40.886608",
      "Longitude": "-73.864505"
    },
    {
      "SegmentID": "89278",
      "RoadwayName": "EAST 241st STREET",
      "From": "Carpenter Avenue",
      "To": "Matilda Avenue",
      "Direction": "WB",
      "Date": "2020-10-04",
      "flow": 0.22298850574712645,
      "Latitude": "40.886608",
      "Longitude": "-73.864505"
    },
    {
      "SegmentID": "133279",
      "RoadwayName": "EAST FORDHAM ROAD",
      "From": "Bronx River Shoreline",
      "To": "Pelham Parkway",
      "Direction": "EB",
      "Date": "2020-10-04",
      "flow": 1,
      "Latitude": "40.8554124",
      "Longitude": "-73.8767367"
    },
    {
      "SegmentID": "88518",
      "RoadwayName": "EASTCHESTER ROAD",
      "From": "Givan Avenue",
      "To": "Tillotson Avenue",
      "Direction": "NB",
      "Date": "2020-10-04",
      "flow": 0.11494252873563218,
      "Latitude": "40.8775139",
      "Longitude": "-73.8364539"
    },
    {
      "SegmentID": "88518",
      "RoadwayName": "EASTCHESTER ROAD",
      "From": "Givan Avenue",
      "To": "Tillotson Avenue",
      "Direction": "SB",
      "Date": "2020-10-04",
      "flow": 0.16091954022988506,
      "Latitude": "40.8775139",
      "Longitude": "-73.8364539"
    },
    {
      "SegmentID": "226748",
      "RoadwayName": "EDSON AVENUE",
      "From": "New England Thruway/ Edson Avenue",
      "To": "Bartow Avenue",
      "Direction": "SB",
      "Date": "2020-10-04",
      "flow": 0.5241379310344828,
      "Latitude": "40.8682393",
      "Longitude": "-73.8335456"
    },
    {
      "SegmentID": "154911",
      "RoadwayName": "ESPLANADE",
      "From": "Hone Avenue",
      "To": "Lurting Avenue",
      "Direction": "NB",
      "Date": "2020-10-04",
      "flow": 0.009195402298850575,
      "Latitude": "40.8562345",
      "Longitude": "-73.8598498"
    },
    {
      "SegmentID": "154664",
      "RoadwayName": "ESPLANADE",
      "From": "Hone Avenue",
      "To": "Lurting Avenue",
      "Direction": "SB",
      "Date": "2020-10-04",
      "flow": 0.034482758620689655,
      "Latitude": "40.8562345",
      "Longitude": "-73.8598498"
    },
    {
      "SegmentID": "19259",
      "RoadwayName": "NEPTUNE AVENUE",
      "From": "West 12th Street",
      "To": "West End/ Sea Beach Line",
      "Direction": "EB",
      "Date": "2020-10-04",
      "flow": 0.19540229885057472,
      "Latitude": "40.5747728",
      "Longitude": "-73.9796628"
    },
    {
      "SegmentID": "19259",
      "RoadwayName": "NEPTUNE AVENUE",
      "From": "West 12th Street",
      "To": "West End/ Sea Beach Line",
      "Direction": "WB",
      "Date": "2020-10-04",
      "flow": 0.020689655172413793,
      "Latitude": "40.5747728",
      "Longitude": "-73.9796628"
    },
    {
      "SegmentID": "120618",
      "RoadwayName": "POLY PLACE",
      "From": "7th Avenue",
      "To": "Cropsey Avenue",
      "Direction": "EB",
      "Date": "2020-10-04",
      "flow": 0.1310344827586207,
      "Latitude": "40.7509212",
      "Longitude": "-73.9906766"
    },
    {
      "SegmentID": "120618",
      "RoadwayName": "POLY PLACE",
      "From": "7th Avenue",
      "To": "Cropsey Avenue",
      "Direction": "WB",
      "Date": "2020-10-04",
      "flow": 0.12413793103448276,
      "Latitude": "40.7509212",
      "Longitude": "-73.9906766"
    },
    {
      "SegmentID": "192425",
      "RoadwayName": "PROVOST AVENUE",
      "From": "East 233rd Street",
      "To": "East Kingsbridge Road",
      "Direction": "NB",
      "Date": "2020-10-04",
      "flow": 0.08045977011494253,
      "Latitude": "40.8943484",
      "Longitude": "-73.8603418"
    },
    {
      "SegmentID": "192425",
      "RoadwayName": "PROVOST AVENUE",
      "From": "East 233rd Street",
      "To": "East Kingsbridge Road",
      "Direction": "SB",
      "Date": "2020-10-04",
      "flow": 0.08735632183908046,
      "Latitude": "40.8943484",
      "Longitude": "-73.8603418"
    },
    {
      "SegmentID": "179513",
      "RoadwayName": "RANDALL AVENUE",
      "From": "East 177th Street",
      "To": "Cross Bronx Expressway",
      "Direction": "EB",
      "Date": "2020-10-04",
      "flow": 0.2735632183908046,
      "Latitude": "40.8363101",
      "Longitude": "-73.874253"
    },
    {
      "SegmentID": "179513",
      "RoadwayName": "RANDALL AVENUE",
      "From": "East 177th Street",
      "To": "Cross Bronx Expressway",
      "Direction": "WB",
      "Date": "2020-10-04",
      "flow": 0.05057471264367816,
      "Latitude": "40.8363101",
      "Longitude": "-73.874253"
    },
    {
      "SegmentID": "149201",
      "RoadwayName": "RICHMOND AVENUE",
      "From": "Forest Hill Road",
      "To": "Forest Hill Bridge",
      "Direction": "SB",
      "Date": "2020-10-04",
      "flow": 0.30344827586206896,
      "Latitude": "40.5864271",
      "Longitude": "-74.1462521"
    },
    {
      "SegmentID": "155387",
      "RoadwayName": "RICHMOND AVENUE",
      "From": "Forest Hill Road",
      "To": "Forest Hill Bridge",
      "Direction": "NB",
      "Date": "2020-10-04",
      "flow": 0.6735632183908046,
      "Latitude": "40.5864271",
      "Longitude": "-74.1462521"
    },
    {
      "SegmentID": "8288",
      "RoadwayName": "RICHMOND",
      "From": "Hillman Avenue",
      "To": "Akron Street",
      "Direction": "NB",
      "Date": "2020-10-04",
      "flow": 0.2896551724137931,
      "Latitude": "40.612573",
      "Longitude": "-74.160427"
    },
    {
      "SegmentID": "8288",
      "RoadwayName": "RICHMOND",
      "From": "Hillman Avenue",
      "To": "Akron Street",
      "Direction": "SB",
      "Date": "2020-10-04",
      "flow": 0.15402298850574714,
      "Latitude": "40.612573",
      "Longitude": "-74.160427"
    },
    {
      "SegmentID": "73436",
      "RoadwayName": "RIVERDALE AVENUE",
      "From": "West 238th Street",
      "To": "West 239th Street",
      "Direction": "NB",
      "Date": "2020-10-04",
      "flow": 0.07126436781609195,
      "Latitude": "40.9122215",
      "Longitude": "-73.9026588"
    },
    {
      "SegmentID": "73436",
      "RoadwayName": "RIVERDALE AVENUE",
      "From": "West 238th Street",
      "To": "West 239th Street",
      "Direction": "SB",
      "Date": "2020-10-04",
      "flow": 0.10114942528735632,
      "Latitude": "40.9122215",
      "Longitude": "-73.9026588"
    },
    {
      "SegmentID": "150579",
      "RoadwayName": "SOUTH AVENUE",
      "From": "Lois Lane",
      "To": "Fahy Avenue",
      "Direction": "SB",
      "Date": "2020-10-04",
      "flow": 0.2597701149425287,
      "Latitude": "40.6156603",
      "Longitude": "-74.1728195"
    },
    {
      "SegmentID": "150578",
      "RoadwayName": "SOUTH AVENUE",
      "From": "Lois Lane",
      "To": "Fahy Avenue",
      "Direction": "NB",
      "Date": "2020-10-04",
      "flow": 0.14022988505747128,
      "Latitude": "40.6156603",
      "Longitude": "-74.1728195"
    },
    {
      "SegmentID": "112206",
      "RoadwayName": "TODT HILL ROAD",
      "From": "Sussex Avenue",
      "To": "Ocean Terrace",
      "Direction": "NB",
      "Date": "2020-10-04",
      "flow": 0.18160919540229886,
      "Latitude": "40.60327",
      "Longitude": "-74.115893"
    },
    {
      "SegmentID": "112206",
      "RoadwayName": "TODT HILL ROAD",
      "From": "Sussex Avenue",
      "To": "Ocean Terrace",
      "Direction": "SB",
      "Date": "2020-10-04",
      "flow": 0.23908045977011494,
      "Latitude": "40.60327",
      "Longitude": "-74.115893"
    },
    {
      "SegmentID": "114953",
      "RoadwayName": "VAN DUZER STREET",
      "From": "Court Street",
      "To": "Gordon Street",
      "Direction": "EB",
      "Date": "2020-10-04",
      "flow": 0.11724137931034483,
      "Latitude": "40.6255943",
      "Longitude": "-74.0844979"
    },
    {
      "SegmentID": "4832",
      "RoadwayName": "VICTORY BOULEVARD",
      "From": "Dinsmore Street",
      "To": "Signs Road",
      "Direction": "EB",
      "Date": "2020-10-04",
      "flow": 0.06436781609195402,
      "Latitude": "40.6042894",
      "Longitude": "-74.1701652"
    },
    {
      "SegmentID": "4832",
      "RoadwayName": "VICTORY BOULEVARD",
      "From": "Dinsmore Street",
      "To": "Signs Road",
      "Direction": "WB",
      "Date": "2020-10-04",
      "flow": 0.0896551724137931,
      "Latitude": "40.6042894",
      "Longitude": "-74.1701652"
    },
    {
      "SegmentID": "256800",
      "RoadwayName": "WEBSTER AVENUE",
      "From": "East 233rd Street",
      "To": "Orio J. Palmer Way",
      "Direction": "NB",
      "Date": "2020-10-04",
      "flow": 0.3563218390804598,
      "Latitude": "40.8943484",
      "Longitude": "-73.8603418"
    },
    {
      "SegmentID": "256800",
      "RoadwayName": "WEBSTER AVENUE",
      "From": "East 233rd Street",
      "To": "Orio J. Palmer Way",
      "Direction": "SB",
      "Date": "2020-10-04",
      "flow": 0.335632183908046,
      "Latitude": "40.8943484",
      "Longitude": "-73.8603418"
    },
    {
      "SegmentID": "81384",
      "RoadwayName": "WEBSTER AVENUE",
      "From": "Woodlawn Cemetery Boundary",
      "To": "East Gun Hill Rd",
      "Direction": "NB",
      "Date": "2020-10-04",
      "flow": 0.11494252873563218,
      "Latitude": "40.8640107",
      "Longitude": "-73.8339775"
    },
    {
      "SegmentID": "81384",
      "RoadwayName": "WEBSTER AVENUE",
      "From": "Woodlawn Cemetery Boundary",
      "To": "East Gun Hill Rd",
      "Direction": "SB",
      "Date": "2020-10-04",
      "flow": 0.1793103448275862,
      "Latitude": "40.8640107",
      "Longitude": "-73.8339775"
    },
    {
      "SegmentID": "95195",
      "RoadwayName": "WESTCHESTER AVENUE",
      "From": "Bruckner Boulevard",
      "To": "Burr Avenue",
      "Direction": "SB",
      "Date": "2020-10-04",
      "flow": 0.3816091954022989,
      "Latitude": "40.8301747",
      "Longitude": "-73.8375135"
    },
    {
      "SegmentID": "147032",
      "RoadwayName": "WHITE PLAINS ROAD",
      "From": "East 215th Street",
      "To": "East 216th Street",
      "Direction": "NB",
      "Date": "2020-10-04",
      "flow": 0.2206896551724138,
      "Latitude": "40.8941458",
      "Longitude": "-73.8569108"
    },
    {
      "SegmentID": "132595",
      "RoadwayName": "WHITE PLAINS ROAD",
      "From": "East 215th Street",
      "To": "East 216th Street",
      "Direction": "SB",
      "Date": "2020-10-04",
      "flow": 0.40229885057471265,
      "Latitude": "40.8941458",
      "Longitude": "-73.8569108"
    }
  ],
  "7:00-8:00AM": [
    {
      "SegmentID": "8152",
      "RoadwayName": "BRIELLE AVENUE",
      "From": "Suffolk Avenue",
      "To": "Livingston Avenue",
      "Direction": "EB",
      "Date": "2020-10-04",
      "flow": 0.05398110661268556,
      "Latitude": "40.5989787",
      "Longitude": "-74.1230537"
    },
    {
      "SegmentID": "8152",
      "RoadwayName": "BRIELLE AVENUE",
      "From": "Suffolk Avenue",
      "To": "Livingston Avenue",
      "Direction": "WB",
      "Date": "2020-10-04",
      "flow": 0.04588394062078273,
      "Latitude": "40.5989787",
      "Longitude": "-74.1230537"
    },
    {
      "SegmentID": "147673",
      "RoadwayName": "BROADWAY",
      "From": "Van Cortlandt Park South",
      "To": "West 242nd Street",
      "Direction": "SB",
      "Date": "2020-10-04",
      "flow": 0.1524966261808367,
      "Latitude": "40.8020029",
      "Longitude": "-73.9679456"
    },
    {
      "SegmentID": "255653",
      "RoadwayName": "BROADWAY",
      "From": "Broadway/ 7 Avenue Line",
      "To": "Broadway/ 7 Avenue Line",
      "Direction": "SB",
      "Date": "2020-10-04",
      "flow": 0.07152496626180836,
      "Latitude": "40.8020029",
      "Longitude": "-73.9679456"
    },
    {
      "SegmentID": "158447",
      "RoadwayName": "BROADWAY",
      "From": "West 242nd Street",
      "To": "Van Cortlandt Park South",
      "Direction": "NB",
      "Date": "2020-10-04",
      "flow": 0.22807017543859648,
      "Latitude": "40.8020029",
      "Longitude": "-73.9679456"
    },
    {
      "SegmentID": "221955",
      "RoadwayName": "BROADWAY",
      "From": "West 260th Street",
      "To": "West 261st Street",
      "Direction": "NB",
      "Date": "2020-10-04",
      "flow": 0.22807017543859648,
      "Latitude": "40.8020029",
      "Longitude": "-73.9679456"
    },
    {
      "SegmentID": "221955",
      "RoadwayName": "BROADWAY",
      "From": "West 260th Street",
      "To": "West 261st Street",
      "Direction": "SB",
      "Date": "2020-10-04",
      "flow": 0.29959514170040485,
      "Latitude": "40.8020029",
      "Longitude": "-73.9679456"
    },
    {
      "SegmentID": "9003976",
      "RoadwayName": "BURKE AVENUE",
      "From": "Yates Avenue",
      "To": "Bouck Avenue",
      "Direction": "EB",
      "Date": "2020-10-04",
      "flow": 0.10121457489878542,
      "Latitude": "40.8714348",
      "Longitude": "-73.8671748"
    },
    {
      "SegmentID": "9003976",
      "RoadwayName": "BURKE AVENUE",
      "From": "Yates Avenue",
      "To": "Bouck Avenue",
      "Direction": "WB",
      "Date": "2020-10-04",
      "flow": 0.0553306342780027,
      "Latitude": "40.8714348",
      "Longitude": "-73.8671748"
    },
    {
      "SegmentID": "9002977",
      "RoadwayName": "CALHOUN AVENUE",
      "From": "East 177th Street",
      "To": "Dewey Avenue",
      "Direction": "NB",
      "Date": "2020-10-04",
      "flow": 0,
      "Latitude": "40.8363101",
      "Longitude": "-73.874253"
    },
    {
      "SegmentID": "9002977",
      "RoadwayName": "CALHOUN AVENUE",
      "From": "East 177th Street",
      "To": "Dewey Avenue",
      "Direction": "SB",
      "Date": "2020-10-04",
      "flow": 0.03508771929824561,
      "Latitude": "40.8363101",
      "Longitude": "-73.874253"
    },
    {
      "SegmentID": "160467",
      "RoadwayName": "CLOVE ROAD",
      "From": "Narrows Road North",
      "To": "Staten Island Expressway",
      "Direction": "NB",
      "Date": "2020-10-04",
      "flow": 0.24426450742240216,
      "Latitude": "40.6139911",
      "Longitude": "-74.1012626"
    },
    {
      "SegmentID": "160467",
      "RoadwayName": "CLOVE ROAD",
      "From": "Narrows Road North",
      "To": "Staten Island Expressway",
      "Direction": "SB",
      "Date": "2020-10-04",
      "flow": 0.30364372469635625,
      "Latitude": "40.6139911",
      "Longitude": "-74.1012626"
    },
    {
      "SegmentID": "95624",
      "RoadwayName": "DYRE AVENUE",
      "From": "Lustre Street",
      "To": "West Kingsbridge Road",
      "Direction": "NB",
      "Date": "2020-10-04",
      "flow": 0.08232118758434548,
      "Latitude": "40.8906855",
      "Longitude": "-73.8311288"
    },
    {
      "SegmentID": "95624",
      "RoadwayName": "DYRE AVENUE",
      "From": "Lustre Street",
      "To": "West Kingsbridge Road",
      "Direction": "SB",
      "Date": "2020-10-04",
      "flow": 0.10526315789473684,
      "Latitude": "40.8906855",
      "Longitude": "-73.8311288"
    },
    {
      "SegmentID": "89278",
      "RoadwayName": "EAST 241st STREET",
      "From": "Carpenter Avenue",
      "To": "Matilda Avenue",
      "Direction": "EB",
      "Date": "2020-10-04",
      "flow": 0.20917678812415655,
      "Latitude": "40.886608",
      "Longitude": "-73.864505"
    },
    {
      "SegmentID": "89278",
      "RoadwayName": "EAST 241st STREET",
      "From": "Carpenter Avenue",
      "To": "Matilda Avenue",
      "Direction": "WB",
      "Date": "2020-10-04",
      "flow": 0.17813765182186234,
      "Latitude": "40.886608",
      "Longitude": "-73.864505"
    },
    {
      "SegmentID": "133279",
      "RoadwayName": "EAST FORDHAM ROAD",
      "From": "Bronx River Shoreline",
      "To": "Pelham Parkway",
      "Direction": "EB",
      "Date": "2020-10-04",
      "flow": 1,
      "Latitude": "40.8554124",
      "Longitude": "-73.8767367"
    },
    {
      "SegmentID": "88518",
      "RoadwayName": "EASTCHESTER ROAD",
      "From": "Givan Avenue",
      "To": "Tillotson Avenue",
      "Direction": "NB",
      "Date": "2020-10-04",
      "flow": 0.15384615384615385,
      "Latitude": "40.8775139",
      "Longitude": "-73.8364539"
    },
    {
      "SegmentID": "88518",
      "RoadwayName": "EASTCHESTER ROAD",
      "From": "Givan Avenue",
      "To": "Tillotson Avenue",
      "Direction": "SB",
      "Date": "2020-10-04",
      "flow": 0.11740890688259109,
      "Latitude": "40.8775139",
      "Longitude": "-73.8364539"
    },
    {
      "SegmentID": "226748",
      "RoadwayName": "EDSON AVENUE",
      "From": "New England Thruway/ Edson Avenue",
      "To": "Bartow Avenue",
      "Direction": "SB",
      "Date": "2020-10-04",
      "flow": 0.3940620782726046,
      "Latitude": "40.8682393",
      "Longitude": "-73.8335456"
    },
    {
      "SegmentID": "154911",
      "RoadwayName": "ESPLANADE",
      "From": "Hone Avenue",
      "To": "Lurting Avenue",
      "Direction": "NB",
      "Date": "2020-10-04",
      "flow": 0.02564102564102564,
      "Latitude": "40.8562345",
      "Longitude": "-73.8598498"
    },
    {
      "SegmentID": "154664",
      "RoadwayName": "ESPLANADE",
      "From": "Hone Avenue",
      "To": "Lurting Avenue",
      "Direction": "SB",
      "Date": "2020-10-04",
      "flow": 0.043184885290148446,
      "Latitude": "40.8562345",
      "Longitude": "-73.8598498"
    },
    {
      "SegmentID": "19259",
      "RoadwayName": "NEPTUNE AVENUE",
      "From": "West 12th Street",
      "To": "West End/ Sea Beach Line",
      "Direction": "EB",
      "Date": "2020-10-04",
      "flow": 0.16734143049932523,
      "Latitude": "40.5747728",
      "Longitude": "-73.9796628"
    },
    {
      "SegmentID": "19259",
      "RoadwayName": "NEPTUNE AVENUE",
      "From": "West 12th Street",
      "To": "West End/ Sea Beach Line",
      "Direction": "WB",
      "Date": "2020-10-04",
      "flow": 0.10796221322537113,
      "Latitude": "40.5747728",
      "Longitude": "-73.9796628"
    },
    {
      "SegmentID": "120618",
      "RoadwayName": "POLY PLACE",
      "From": "7th Avenue",
      "To": "Cropsey Avenue",
      "Direction": "EB",
      "Date": "2020-10-04",
      "flow": 0.14709851551956815,
      "Latitude": "40.7509212",
      "Longitude": "-73.9906766"
    },
    {
      "SegmentID": "120618",
      "RoadwayName": "POLY PLACE",
      "From": "7th Avenue",
      "To": "Cropsey Avenue",
      "Direction": "WB",
      "Date": "2020-10-04",
      "flow": 0.09851551956815115,
      "Latitude": "40.7509212",
      "Longitude": "-73.9906766"
    },
    {
      "SegmentID": "192425",
      "RoadwayName": "PROVOST AVENUE",
      "From": "East 233rd Street",
      "To": "East Kingsbridge Road",
      "Direction": "NB",
      "Date": "2020-10-04",
      "flow": 0.11470985155195682,
      "Latitude": "40.8943484",
      "Longitude": "-73.8603418"
    },
    {
      "SegmentID": "192425",
      "RoadwayName": "PROVOST AVENUE",
      "From": "East 233rd Street",
      "To": "East Kingsbridge Road",
      "Direction": "SB",
      "Date": "2020-10-04",
      "flow": 0.09716599190283401,
      "Latitude": "40.8943484",
      "Longitude": "-73.8603418"
    },