{
  "1:00-2:00AM": [
    {
      "SegmentID": "158764",
      "RoadwayName": "ADAM C POWELL BOULEVARD",
      "From": "West 122nd Street",
      "To": "West 123rd Street",
      "Direction": "NB",
      "Date": "2020-11-08",
      "flow": 0.2910284463894967,
      "Latitude": "40.8122569",
      "Longitude": "-73.9621024"
    },
    {
      "SegmentID": "159196",
      "RoadwayName": "ADAM C POWELL BOULEVARD",
      "From": "West 122nd Street",
      "To": "West 123rd Street",
      "Direction": "SB",
      "Date": "2020-11-08",
      "flow": 0.2363238512035011,
      "Latitude": "40.8122569",
      "Longitude": "-73.9621024"
    },
    {
      "SegmentID": "159048",
      "RoadwayName": "ADAM C POWELL BOULEVARD",
      "From": "West 148th Street",
      "To": "West 149th Street",
      "Direction": "SB",
      "Date": "2020-11-08",
      "flow": 0.2188183807439825,
      "Latitude": "40.8272148",
      "Longitude": "-73.9463406"
    },
    {
      "SegmentID": "133984",
      "RoadwayName": "ADAM C POWELL BOULEVARD",
      "From": "West 148th Street",
      "To": "West 149th Street",
      "Direction": "NB",
      "Date": "2020-11-08",
      "flow": 0.3785557986870897,
      "Latitude": "40.8272148",
      "Longitude": "-73.9463406"
    },
    {
      "SegmentID": "38361",
      "RoadwayName": "AMSTERDAM AVENUE",
      "From": "West 118th Street",
      "To": "West 119th Street",
      "Direction": "NB",
      "Date": "2020-11-08",
      "flow": 0.4989059080962801,
      "Latitude": "40.8076281",
      "Longitude": "-73.9589165"
    },
    {
      "SegmentID": "38361",
      "RoadwayName": "AMSTERDAM AVENUE",
      "From": "West 118th Street",
      "To": "West 119th Street",
      "Direction": "SB",
      "Date": "2020-11-08",
      "flow": 0.11816192560175055,
      "Latitude": "40.8076281",
      "Longitude": "-73.9589165"
    },
    {
      "SegmentID": "39011",
      "RoadwayName": "AMSTERDAM AVENUE",
      "From": "West 147th Street",
      "To": "West 148th Street",
      "Direction": "NB",
      "Date": "2020-11-08",
      "flow": 0.4814004376367615,
      "Latitude": "40.8282447",
      "Longitude": "-73.9507349"
    },
    {
      "SegmentID": "39011",
      "RoadwayName": "AMSTERDAM AVENUE",
      "From": "West 147th Street",
      "To": "West 148th Street",
      "Direction": "SB",
      "Date": "2020-11-08",
      "flow": 0.47921225382932164,
      "Latitude": "40.8282447",
      "Longitude": "-73.9507349"
    },
    {
      "SegmentID": "152668",
      "RoadwayName": "BROADWAY",
      "From": "West 147th Street",
      "To": "West 148th Street",
      "Direction": "SB",
      "Date": "2020-11-08",
      "flow": 0.5514223194748359,
      "Latitude": "40.8020029",
      "Longitude": "-73.9679456"
    },
    {
      "SegmentID": "158602",
      "RoadwayName": "BROADWAY",
      "From": "West 147th Street",
      "To": "West 148th Street",
      "Direction": "NB",
      "Date": "2020-11-08",
      "flow": 0.30196936542669583,
      "Latitude": "40.8020029",
      "Longitude": "-73.9679456"
    },
    {
      "SegmentID": "72608",
      "RoadwayName": "BROADWAY",
      "From": "Cumming Street",
      "To": "Dyckman Street",
      "Direction": "EB",
      "Date": "2020-11-08",
      "flow": 1,
      "Latitude": "40.8020029",
      "Longitude": "-73.9679456"
    },
    {
      "SegmentID": "72608",
      "RoadwayName": "BROADWAY",
      "From": "Cumming Street",
      "To": "Dyckman Street",
      "Direction": "WB",
      "Date": "2020-11-08",
      "flow": 0.2910284463894967,
      "Latitude": "40.8020029",
      "Longitude": "-73.9679456"
    },
    {
      "SegmentID": "31783",
      "RoadwayName": "BROADWAY",
      "From": "Leonard Street",
      "To": "Worth Street",
      "Direction": "SB",
      "Date": "2020-11-08",
      "flow": 0.9102844638949672,
      "Latitude": "40.8020029",
      "Longitude": "-73.9679456"
    },
    {
      "SegmentID": "32364",
      "RoadwayName": "BROADWAY",
      "From": "Prince Street",
      "To": "Spring Street",
      "Direction": "SB",
      "Date": "2020-11-08",
      "flow": 0.6542669584245077,
      "Latitude": "40.8020029",
      "Longitude": "-73.9679456"
    },
    {
      "SegmentID": "162555",
      "RoadwayName": "CHERRY STREET",
      "From": "Market Street",
      "To": "Catherine Street",
      "Direction": "WB",
      "Date": "2020-11-08",
      "flow": 0,
      "Latitude": "40.7123927",
      "Longitude": "-73.9781019"
    },
    {
      "SegmentID": "72596",
      "RoadwayName": "DYCKMAN STREET",
      "From": "Sherman Avenue",
      "To": "Vermilyea Avenue",
      "Direction": "NB",
      "Date": "2020-11-08",
      "flow": 0.1772428884026258,
      "Latitude": "40.8652769",
      "Longitude": "-73.9277986"
    },
    {
      "SegmentID": "72596",
      "RoadwayName": "DYCKMAN STREET",
      "From": "Sherman Avenue",
      "To": "Vermilyea Avenue",
      "Direction": "SB",
      "Date": "2020-11-08",
      "flow": 0.47921225382932164,
      "Latitude": "40.8652769",
      "Longitude": "-73.9277986"
    },
    {
      "SegmentID": "32651",
      "RoadwayName": "FORSYTH STREET",
      "From": "Grand Street",
      "To": "Broome Street",
      "Direction": "NB",
      "Date": "2020-11-08",
      "flow": 0.12472647702407003,
      "Latitude": "40.7132751",
      "Longitude": "-73.9776678"
    },
    {
      "SegmentID": "38619",
      "RoadwayName": "FREDERICK DOUGLASS BOULEVARD",
      "From": "West 123rd Street",
      "To": "West 124th Street",
      "Direction": "NB",
      "Date": "2020-11-08",
      "flow": 0.29321663019693656,
      "Latitude": "40.8112717",
      "Longitude": "-73.957805"
    },
    {
      "SegmentID": "38619",
      "RoadwayName": "FREDERICK DOUGLASS BOULEVARD",
      "From": "West 123rd Street",
      "To": "West 124th Street",
      "Direction": "SB",
      "Date": "2020-11-08",
      "flow": 0.14442013129102846,
      "Latitude": "40.8112717",
      "Longitude": "-73.957805"
    },
    {
      "SegmentID": "69154",
      "RoadwayName": "FREDERICK DOUGLASS BOULEVARD",
      "From": "West 147th Street",
      "To": "West 148th Street",
      "Direction": "NB",
      "Date": "2020-11-08",
      "flow": 0.2844638949671772,
      "Latitude": "40.8282447",
      "Longitude": "-73.9507349"
    },
    {
      "SegmentID": "69154",
      "RoadwayName": "FREDERICK DOUGLASS BOULEVARD",
      "From": "West 147th Street",
      "To": "West 148th Street",
      "Direction": "SB",
      "Date": "2020-11-08",
      "flow": 0.2844638949671772,
      "Latitude": "40.8282447",
      "Longitude": "-73.9507349"
    },
    {
      "SegmentID": "31914",
      "RoadwayName": "HUDSON STREET",
      "From": "Charlton Street",
      "To": "King Street",
      "Direction": "NB",
      "Date": "2020-11-08",
      "flow": 0.3544857768052516,
      "Latitude": "40.726941",
      "Longitude": "-74.003278"
    },
    {
      "SegmentID": "110941",
      "RoadwayName": "LAFAYETTE STREET",
      "From": "Cleveland Place",
      "To": "Prince Street",
      "Direction": "NB",
      "Date": "2020-11-08",
      "flow": 0.21663019693654267,
      "Latitude": "40.7267105",
      "Longitude": "-73.9940763"
    },
    {
      "SegmentID": "38489",
      "RoadwayName": "MANHATTAN AVENUE",
      "From": "West 119th Street",
      "To": "West 120th Street",
      "Direction": "NB",
      "Date": "2020-11-08",
      "flow": 0.03938730853391685,
      "Latitude": "40.7214035",
      "Longitude": "-73.9490041"
    },
    {
      "SegmentID": "38489",
      "RoadwayName": "MANHATTAN AVENUE",
      "From": "West 119th Street",
      "To": "West 120 Street",
      "Direction": "SB",
      "Date": "2020-11-08",
      "flow": 0.05908096280087528,
      "Latitude": "40.7214035",
      "Longitude": "-73.9490041"
    },
    {
      "SegmentID": "38369",
      "RoadwayName": "MORNINGSIDE DRIVE",
      "From": "West 120th Street",
      "To": "West 121 Street",
      "Direction": "NB",
      "Date": "2020-11-08",
      "flow": 0.0175054704595186,
      "Latitude": "40.8113373",
      "Longitude": "-73.9639549"
    },
    {
      "SegmentID": "38369",
      "RoadwayName": "MORNINGSIDE DRIVE",
      "From": "West 120th Street",
      "To": "West 121st Street",
      "Direction": "SB",
      "Date": "2020-11-08",
      "flow": 0.02188183807439825,
      "Latitude": "40.8113373",
      "Longitude": "-73.9639549"
    },
    {
      "SegmentID": "38839",
      "RoadwayName": "MT MORRIS PARK WEST",
      "From": "West 122nd Street",
      "To": "West 123 Street",
      "Direction": "SB",
      "Date": "2020-11-08",
      "flow": 0.12253829321663019,
      "Latitude": "40.8122569",
      "Longitude": "-73.9621024"
    },
    {
      "SegmentID": "164341",
      "RoadwayName": "NORFOLK STREET",
      "From": "Delancey Street",
      "To": "Rivington Street",
      "Direction": "NB",
      "Date": "2020-11-08",
      "flow": 0.02188183807439825,
      "Latitude": "40.5784139",
      "Longitude": "-73.9388723"
    },
    {
      "SegmentID": "9000265",
      "RoadwayName": "PITT STREET",
      "From": "Stanton Street",
      "To": "Rivington Street",
      "Direction": "NB",
      "Date": "2020-11-08",
      "flow": 0.1050328227571116,
      "Latitude": "40.7215865",
      "Longitude": "-73.9889254"
    },
    {
      "SegmentID": "38613",
      "RoadwayName": "ST NICHOLAS AVENUE",
      "From": "West 122nd Street",
      "To": "West 123rd Street",
      "Direction": "NB",
      "Date": "2020-11-08",
      "flow": 0.06783369803063458,
      "Latitude": "40.8241432",
      "Longitude": "-73.9446885"
    },
    {
      "SegmentID": "38613",
      "RoadwayName": "ST NICHOLAS AVENUE",
      "From": "West 122nd Street",
      "To": "West 123rd Street",
      "Direction": "SB",
      "Date": "2020-11-08",
      "flow": 0.06345733041575492,
      "Latitude": "40.8241432",
      "Longitude": "-73.9446885"
    },
    {
      "SegmentID": "70947",
      "RoadwayName": "WADSWORTH AVENUE",
      "From": "West 175th Street",
      "To": "West 176th Street",
      "Direction": "NB",
      "Date": "2020-11-08",
      "flow": 0.16630196936542668,
      "Latitude": "40.8479967",
      "Longitude": "-73.9146016"
    },
    {
      "SegmentID": "70947",
      "RoadwayName": "WADSWORTH AVENUE",
      "From": "West 175th Street",
      "To": "West 176th Street",
      "Direction": "SB",
      "Date": "2020-11-08",
      "flow": 0.10065645514223195,
      "Latitude": "40.8479967",
      "Longitude": "-73.9146016"
    },
    {
      "SegmentID": "32072",
      "RoadwayName": "WALKER STREET",
      "From": "Cortlandt Alley",
      "To": "Lafayette Street",
      "Direction": "EB",
      "Date": "2020-11-08",
      "flow": 0.2013129102844639,
      "Latitude": "40.6310789",
      "Longitude": "-74.1465042"
    },
    {
      "SegmentID": "38636",
      "RoadwayName": "WEST 125th STREET",
      "From": "Frederick Douglass Boulevard",
      "To": "St. Nicholas Avenue",
      "Direction": "EB",
      "Date": "2020-11-08",
      "flow": 0.4420131291028446,
      "Latitude": "40.8075177",
      "Longitude": "-73.9531044"
    },
    {
      "SegmentID": "38636",
      "RoadwayName": "WEST 125th STREET",
      "From": "Frederick Douglass Boulevard",
      "To": "St. Nicholas Avenue",
      "Direction": "WB",
      "Date": "2020-11-08",
      "flow": 0.29978118161925604,
      "Latitude": "40.8075177",
      "Longitude": "-73.9531044"
    },
    {
      "SegmentID": "38868",
      "RoadwayName": "WEST 135th STREET",
      "From": "Frederick Douglass Boulevard",
      "To": "Edgecombe Avenue",
      "Direction": "EB",
      "Date": "2020-11-08",
      "flow": 0.08096280087527352,
      "Latitude": "40.8075177",
      "Longitude": "-73.9531044"
    },
    {
      "SegmentID": "38868",
      "RoadwayName": "WEST 135 STREET",
      "From": "Frederick Douglass Boulevard",
      "To": "Edgecombe Avenue",
      "Direction": "WB",
      "Date": "2020-11-08",
      "flow": 0.13566739606126915,
      "Latitude": "40.8075177",
      "Longitude": "-73.9531044"
    },
    {
      "SegmentID": "106931",
      "RoadwayName": "WEST 155th STREET",
      "From": "Edgecombe Avenue",
      "To": "St. Nocholas Avenue",
      "Direction": "EB",
      "Date": "2020-11-08",
      "flow": 0.24288840262582057,
      "Latitude": "40.8302773",
      "Longitude": "-73.9402064"
    },
    {
      "SegmentID": "106931",
      "RoadwayName": "WEST 155th STREET",
      "From": "Edgecombe Avenue",
      "To": "St. Nocholas Avenue",
      "Direction": "WB",
      "Date": "2020-11-08",
      "flow": 0.4682713347921225,
      "Latitude": "40.8302773",
      "Longitude": "-73.9402064"
    },
    {
      "SegmentID": "70896",
      "RoadwayName": "WEST 167th STREET",
      "From": "Audubon Avenue",
      "To": "St. Nicholas Avenue",
      "Direction": "WB",
      "Date": "2020-11-08",
      "flow": 0,
      "Latitude": "40.8473391",
      "Longitude": "-73.9333597"
    }
  ],
  "2:00-3:00AM": [
    {
      "SegmentID": "158764",
      "RoadwayName": "ADAM C POWELL BOULEVARD",
      "From": "West 122nd Street",
      "To": "West 123rd Street",
      "Direction": "NB",
      "Date": "2020-11-08",
      "flow": 0.2664835164835165,
      "Latitude": "40.8122569",
      "Longitude": "-73.9621024"
    },
    {
      "SegmentID": "159196",
      "RoadwayName": "ADAM C POWELL BOULEVARD",
      "From": "West 122nd Street",
      "To": "West 123rd Street",
      "Direction": "SB",
      "Date": "2020-11-08",
      "flow": 0.22527472527472528,
      "Latitude": "40.8122569",
      "Longitude": "-73.9621024"
    },
    {
      "SegmentID": "159048",
      "RoadwayName": "ADAM C POWELL BOULEVARD",
      "From": "West 148th Street",
      "To": "West 149th Street",
      "Direction": "SB",
      "Date": "2020-11-08",
      "flow": 0.25,
      "Latitude": "40.8272148",
      "Longitude": "-73.9463406"
    },
    {
      "SegmentID": "133984",
      "RoadwayName": "ADAM C POWELL BOULEVARD",
      "From": "West 148th Street",
      "To": "West 149th Street",
      "Direction": "NB",
      "Date": "2020-11-08",
      "flow": 0.3873626373626374,
      "Latitude": "40.8272148",
      "Longitude": "-73.9463406"
    },
    {
      "SegmentID": "38361",
      "RoadwayName": "AMSTERDAM AVENUE",
      "From": "West 118th Street",
      "To": "West 119th Street",
      "Direction": "NB",
      "Date": "2020-11-08",
      "flow": 0.5576923076923077,
      "Latitude": "40.8076281",
      "Longitude": "-73.9589165"
    },
    {
      "SegmentID": "38361",
      "RoadwayName": "AMSTERDAM AVENUE",
      "From": "West 118th Street",
      "To": "West 119th Street",
      "Direction": "SB",
      "Date": "2020-11-08",
      "flow": 0.1346153846153846,
      "Latitude": "40.8076281",
      "Longitude": "-73.9589165"
    },
    {
      "SegmentID": "39011",
      "RoadwayName": "AMSTERDAM AVENUE",
      "From": "West 147th Street",
      "To": "West 148th Street",
      "Direction": "NB",
      "Date": "2020-11-08",
      "flow": 0.4945054945054945,
      "Latitude": "40.8282447",
      "Longitude": "-73.9507349"
    },
    {
      "SegmentID": "39011",
      "RoadwayName": "AMSTERDAM AVENUE",
      "From": "West 147th Street",
      "To": "West 148th Street",
      "Direction": "SB",
      "Date": "2020-11-08",
      "flow": 0.45604395604395603,
      "Latitude": "40.8282447",
      "Longitude": "-73.9507349"
    },
    {
      "SegmentID": "152668",
      "RoadwayName": "BROADWAY",
      "From": "West 147th Street",
      "To": "West 148th Street",
      "Direction": "SB",
      "Date": "2020-11-08",
      "flow": 0.6813186813186813,
      "Latitude": "40.8020029",
      "Longitude": "-73.9679456"
    },
    {
      "SegmentID": "158602",
      "RoadwayName": "BROADWAY",
      "From": "West 147th Street",
      "To": "West 148th Street",
      "Direction": "NB",
      "Date": "2020-11-08",
      "flow": 0.33516483516483514,
      "Latitude": "40.8020029",
      "Longitude": "-73.9679456"
    },
    {
      "SegmentID": "72608",
      "RoadwayName": "BROADWAY",
      "From": "Cumming Street",
      "To": "Dyckman Street",
      "Direction": "EB",
      "Date": "2020-11-08",
      "flow": 1,
      "Latitude": "40.8020029",
      "Longitude": "-73.9679456"
    },
    {
      "SegmentID": "72608",
      "RoadwayName": "BROADWAY",
      "From": "Cumming Street",
      "To": "Dyckman Street",
      "Direction": "WB",
      "Date": "2020-11-08",
      "flow": 0.29945054945054944,
      "Latitude": "40.8020029",
      "Longitude": "-73.9679456"
    },
    {
      "SegmentID": "31783",
      "RoadwayName": "BROADWAY",
      "From": "Leonard Street",
      "To": "Worth Street",
      "Direction": "SB",
      "Date": "2020-11-08",
      "flow": 0.945054945054945,
      "Latitude": "40.8020029",
      "Longitude": "-73.9679456"
    },
    {
      "SegmentID": "32364",
      "RoadwayName": "BROADWAY",
      "From": "Prince Street",
      "To": "Spring Street",
      "Direction": "SB",
      "Date": "2020-11-08",
      "flow": 0.6373626373626373,
      "Latitude": "40.8020029",
      "Longitude": "-73.9679456"
    },
    {
      "SegmentID": "162555",
      "RoadwayName": "CHERRY STREET",
      "From": "Market Street",
      "To": "Catherine Street",
      "Direction": "WB",
      "Date": "2020-11-08",
      "flow": 0.016483516483516484,
      "Latitude": "40.7123927",
      "Longitude": "-73.9781019"
    },
    {
      "SegmentID": "72596",
      "RoadwayName": "DYCKMAN STREET",
      "From": "Sherman Avenue",
      "To": "Vermilyea Avenue",
      "Direction": "NB",
      "Date": "2020-11-08",
      "flow": 0.0989010989010989,
      "Latitude": "40.8652769",
      "Longitude": "-73.9277986"
    },
    {
      "SegmentID": "72596",
      "RoadwayName": "DYCKMAN STREET",
      "From": "Sherman Avenue",
      "To": "Vermilyea Avenue",
      "Direction": "SB",
      "Date": "2020-11-08",
      "flow": 0.5604395604395604,
      "Latitude": "40.8652769",
      "Longitude": "-73.9277986"
    },
    {
      "SegmentID": "32651",
      "RoadwayName": "FORSYTH STREET",
      "From": "Grand Street",
      "To": "Broome Street",
      "Direction": "NB",
      "Date": "2020-11-08",
      "flow": 0.06593406593406594,
      "Latitude": "40.7132751",
      "Longitude": "-73.9776678"
    },
    {
      "SegmentID": "38619",
      "RoadwayName": "FREDERICK DOUGLASS BOULEVARD",
      "From": "West 123rd Street",
      "To": "West 124th Street",
      "Direction": "NB",
      "Date": "2020-11-08",
      "flow": 0.3021978021978022,
      "Latitude": "40.8112717",
      "Longitude": "-73.957805"
    },
    {
      "SegmentID": "38619",
      "RoadwayName": "FREDERICK DOUGLASS BOULEVARD",
      "From": "West 123rd Street",
      "To": "West 124th Street",
      "Direction": "SB",
      "Date": "2020-11-08",
      "flow": 0.22527472527472528,
      "Latitude": "40.8112717",
      "Longitude": "-73.957805"
    },
    {
      "SegmentID": "69154",
      "RoadwayName": "FREDERICK DOUGLASS BOULEVARD",
      "From": "West 147th Street",
      "To": "West 148th Street",
      "Direction": "NB",
      "Date": "2020-11-08",
      "flow": 0.35714285714285715,
      "Latitude": "40.8282447",
      "Longitude": "-73.9507349"
    },
    {
      "SegmentID": "69154",
      "RoadwayName": "FREDERICK DOUGLASS BOULEVARD",
      "From": "West 147th Street",
      "To": "West 148th Street",
      "Direction": "SB",
      "Date": "2020-11-08",
      "flow": 0.35714285714285715,
      "Latitude": "40.8282447",
      "Longitude": "-73.9507349"
    },
    {
      "SegmentID": "31914",
      "RoadwayName": "HUDSON STREET",
      "From": "Charlton Street",
      "To": "King Street",
      "Direction": "NB",
      "Date": "2020-11-08",
      "flow": 0.33516483516483514,
      "Latitude": "40.726941",
      "Longitude": "-74.003278"
    },
    {
      "SegmentID": "110941",
      "RoadwayName": "LAFAYETTE STREET",
      "From": "Cleveland Place",
      "To": "Prince Street",
      "Direction": "NB",
      "Date": "2020-11-08",
      "flow": 0.18956043956043955,
      "Latitude": "40.7267105",
      "Longitude": "-73.9940763"
    },
    {
      "SegmentID": "38489",
      "RoadwayName": "MANHATTAN AVENUE",
      "From": "West 119th Street",
      "To": "West 120th Street",
      "Direction": "NB",
      "Date": "2020-11-08",
      "flow": 0.054945054945054944,
      "Latitude": "40.7214035",
      "Longitude": "-73.9490041"
    },
    {
      "SegmentID": "38489",
      "RoadwayName": "MANHATTAN AVENUE",
      "From": "West 119th Street",
      "To": "West 120 Street",
      "Direction": "SB",
      "Date": "2020-11-08",
      "flow": 0.09615384615384616,
      "Latitude": "40.7214035",
      "Longitude": "-73.9490041"
    },
    {
      "SegmentID": "38369",
      "RoadwayName": "MORNINGSIDE DRIVE",
      "From": "West 120th Street",
      "To": "West 121 Street",
      "Direction": "NB",
      "Date": "2020-11-08",
      "flow": 0.01098901098901099,
      "Latitude": "40.8113373",
      "Longitude": "-73.9639549"
    },
    {
      "SegmentID": "38369",
      "RoadwayName": "MORNINGSIDE DRIVE",
      "From": "West 120th Street",
      "To": "West 121st Street",
      "Direction": "SB",
      "Date": "2020-11-08",
      "flow": 0.04395604395604396,
      "Latitude": "40.8113373",
      "Longitude": "-73.9639549"
    },
    {
      "SegmentID": "38839",
      "RoadwayName": "MT MORRIS PARK WEST",
      "From": "West 122nd Street",
      "To": "West 123 Street",
      "Direction": "SB",
      "Date": "2020-11-08",
      "flow": 0.11813186813186813,
      "Latitude": "40.8122569",
      "Longitude": "-73.9621024"
    },
    {
      "SegmentID": "164341",
      "RoadwayName": "NORFOLK STREET",
      "From": "Delancey Street",
      "To": "Rivington Street",
      "Direction": "NB",
      "Date": "2020-11-08",
      "flow": 0.054945054945054944,
      "Latitude": "40.5784139",
      "Longitude": "-73.9388723"
    },
    {
      "SegmentID": "9000265",
      "RoadwayName": "PITT STREET",
      "From": "Stanton Street",
      "To": "Rivington Street",
      "Direction": "NB",
      "Date": "2020-11-08",
      "flow": 0.12362637362637363,
      "Latitude": "40.7215865",
      "Longitude": "-73.9889254"
    },
    {
      "SegmentID": "38613",
      "RoadwayName": "ST NICHOLAS AVENUE",
      "From": "West 122nd Street",
      "To": "West 123rd Street",
      "Direction": "NB",
      "Date": "2020-11-08",
      "flow": 0.0989010989010989,
      "Latitude": "40.8241432",
      "Longitude": "-73.9446885"
    },
    {
      "SegmentID": "38613",
      "RoadwayName": "ST NICHOLAS AVENUE",
      "From": "West 122nd Street",
      "To": "West 123rd Street",
      "Direction": "SB",
      "Date": "2020-11-08",
      "flow": 0.09615384615384616,
      "Latitude": "40.8241432",
      "Longitude": "-73.9446885"
    },
    {
      "SegmentID": "70947",
      "RoadwayName": "WADSWORTH AVENUE",
      "From": "West 175th Street",
      "To": "West 176th Street",
      "Direction": "NB",
      "Date": "2020-11-08",
      "flow": 0.12087912087912088,
      "Latitude": "40.8479967",
      "Longitude": "-73.9146016"
    },
    {
      "SegmentID": "70947",
      "RoadwayName": "WADSWORTH AVENUE",
      "From": "West 175th Street",
      "To": "West 176th Street",
      "Direction": "SB",
      "Date": "2020-11-08",
      "flow": 0.057692307692307696,
      "Latitude": "40.8479967",
      "Longitude": "-73.9146016"
    },
    {
      "SegmentID": "32072",
      "RoadwayName": "WALKER STREET",
      "From": "Cortlandt Alley",
      "To": "Lafayette Street",
      "Direction": "EB",
      "Date": "2020-11-08",
      "flow": 0.13736263736263737,
      "Latitude": "40.6310789",
      "Longitude": "-74.1465042"
    },
    {
      "SegmentID": "38636",
      "RoadwayName": "WEST 125th STREET",
      "From": "Frederick Douglass Boulevard",
      "To": "St. Nicholas Avenue",
      "Direction": "EB",
      "Date": "2020-11-08",
      "flow": 0.4532967032967033,
      "Latitude": "40.8075177",
      "Longitude": "-73.9531044"
    },
    {
      "SegmentID": "38636",
      "RoadwayName": "WEST 125th STREET",
      "From": "Frederick Douglass Boulevard",
      "To": "St. Nicholas Avenue",
      "Direction": "WB",
      "Date": "2020-11-08",
      "flow": 0.3159340659340659,
      "Latitude": "40.8075177",
      "Longitude": "-73.9531044"
    },
    {
      "SegmentID": "38868",
      "RoadwayName": "WEST 135th STREET",
      "From": "Frederick Douglass Boulevard",
      "To": "Edgecombe Avenue",
      "Direction": "EB",
      "Date": "2020-11-08",
      "flow": 0.0521978021978022,
      "Latitude": "40.8075177",
      "Longitude": "-73.9531044"
    },
    {
      "SegmentID": "38868",
      "RoadwayName": "WEST 135 STREET",
      "From": "Frederick Douglass Boulevard",
      "To": "Edgecombe Avenue",
      "Direction": "WB",
      "Date": "2020-11-08",
      "flow": 0.07967032967032966,
      "Latitude": "40.8075177",
      "Longitude": "-73.9531044"
    },
    {
      "SegmentID": "106931",
      "RoadwayName": "WEST 155th STREET",
      "From": "Edgecombe Avenue",
      "To": "St. Nocholas Avenue",
      "Direction": "EB",
      "Date": "2020-11-08",
      "flow": 0.3076923076923077,
      "Latitude": "40.8302773",
      "Longitude": "-73.9402064"
    },
    {
      "SegmentID": "106931",
      "RoadwayName": "WEST 155th STREET",
      "From": "Edgecombe Avenue",
      "To": "St. Nocholas Avenue",
      "Direction": "WB",
      "Date": "2020-11-08",
      "flow": 0.40384615384615385,
      "Latitude": "40.8302773",
      "Longitude": "-73.9402064"
    },
    {
      "SegmentID": "70896",
      "RoadwayName": "WEST 167th STREET",
      "From": "Audubon Avenue",
      "To": "St. Nicholas Avenue",
      "Direction": "WB",
      "Date": "2020-11-08",
      "flow": 0,
      "Latitude": "40.8473391",
      "Longitude": "-73.9333597"
    }
  ],
  "3:00-4:00AM": [
    {
      "SegmentID": "158764",
      "RoadwayName": "ADAM C POWELL BOULEVARD",
      "From": "West 122nd Street",
      "To": "West 123rd Street",
      "Direction": "NB",
      "Date": "2020-11-08",
      "flow": 0.22611464968152867,
      "Latitude": "40.8122569",
      "Longitude": "-73.9621024"
    },
    {
      "SegmentID": "159196",
      "RoadwayName": "ADAM C POWELL BOULEVARD",
      "From": "West 122nd Street",
      "To": "West 123rd Street",
      "Direction": "SB",
      "Date": "2020-11-08",
      "flow": 0.20382165605095542,
      "Latitude": "40.8122569",
      "Longitude": "-73.9621024"
    },
    {
      "SegmentID": "159048",
      "RoadwayName": "ADAM C POWELL BOULEVARD",
      "From": "West 148th Street",
      "To": "West 149th Street",
      "Direction": "SB",
      "Date": "2020-11-08",
      "flow": 0.22929936305732485,
      "Latitude": "40.8272148",
      "Longitude": "-73.9463406"
    },
    {
      "SegmentID": "133984",
      "RoadwayName": "ADAM C POWELL BOULEVARD",
      "From": "West 148th Street",
      "To": "West 149th Street",
      "Direction": "NB",
      "Date": "2020-11-08",
      "flow": 0.35668789808917195,
      "Latitude": "40.8272148",
      "Longitude": "-73.9463406"
    },
    {
      "SegmentID": "38361",
      "RoadwayName": "AMSTERDAM AVENUE",
      "From": "West 118th Street",
      "To": "West 119th Street",
      "Direction": "NB",
      "Date": "2020-11-08",
      "flow": 0.5095541401273885,
      "Latitude": "40.8076281",
      "Longitude": "-73.9589165"
    },
    {
      "SegmentID": "38361",
      "RoadwayName": "AMSTERDAM AVENUE",
      "From": "West 118th Street",
      "To": "West 119th Street",
      "Direction": "SB",
      "Date": "2020-11-08",
      "flow": 0.10191082802547771,
      "Latitude": "40.8076281",
      "Longitude": "-73.9589165"
    },
    {
      "SegmentID": "39011",
      "RoadwayName": "AMSTERDAM AVENUE",
      "From": "West 147th Street",
      "To": "West 148th Street",
      "Direction": "NB",
      "Date": "2020-11-08",
      "flow": 0.4840764331210191,
      "Latitude": "40.8282447",
      "Longitude": "-73.9507349"
    },
    {
      "SegmentID": "39011",
      "RoadwayName": "AMSTERDAM AVENUE",
      "From": "West 147th Street",
      "To": "West 148th Street",
      "Direction": "SB",
      "Date": "2020-11-08",
      "flow": 0.43630573248407645,
      "Latitude": "40.8282447",
      "Longitude": "-73.9507349"
    },
    {
      "SegmentID": "152668",
      "RoadwayName": "BROADWAY",
      "From": "West 147th Street",
      "To": "West 148th Street",
      "Direction": "SB",
      "Date": "2020-11-08",
      "flow": 0.5923566878980892,
      "Latitude": "40.8020029",
      "Longitude": "-73.9679456"
    },
    {
      "SegmentID": "158602",
      "RoadwayName": "BROADWAY",
      "From": "West 147th Street",
      "To": "West 148th Street",
      "Direction": "NB",
      "Date": "2020-11-08",
      "flow": 0.3343949044585987,
      "Latitude": "40.8020029",
      "Longitude": "-73.9679456"
    },
    {
      "SegmentID": "72608",
      "RoadwayName": "BROADWAY",
      "From": "Cumming Street",
      "To": "Dyckman Street",
      "Direction": "EB",
      "Date": "2020-11-08",
      "flow": 0.8662420382165605,
      "Latitude": "40.8020029",
      "Longitude": "-73.9679456"
    },
    {
      "SegmentID": "72608",
      "RoadwayName": "BROADWAY",
      "From": "Cumming Street",
      "To": "Dyckman Street",
      "Direction": "WB",
      "Date": "2020-11-08",
      "flow": 0.2356687898089172,
      "Latitude": "40.8020029",
      "Longitude": "-73.9679456"
    },
    {
      "SegmentID": "31783",
      "RoadwayName": "BROADWAY",
      "From": "Leonard Street",
      "To": "Worth Street",
      "Direction": "SB",
      "Date": "2020-11-08",
      "flow": 1,
      "Latitude": "40.8020029",
      "Longitude": "-73.9679456"
    },
    {
      "SegmentID": "32364",
      "RoadwayName": "BROADWAY",
      "From": "Prince Street",
      "To": "Spring Street",
      "Direction": "SB",
      "Date": "2020-11-08",
      "flow": 0.5605095541401274,
      "Latitude": "40.8020029",
      "Longitude": "-73.9679456"
    },
    {
      "SegmentID": "162555",
      "RoadwayName": "CHERRY STREET",
      "From": "Market Street",
      "To": "Catherine Street",
      "Direction": "WB",
      "Date": "2020-11-08",
      "flow": 0.012738853503184714,
      "Latitude": "40.7123927",
      "Longitude": "-73.9781019"
    },
    {
      "SegmentID": "72596",
      "RoadwayName": "DYCKMAN STREET",
      "From": "Sherman Avenue",
      "To": "Vermilyea Avenue",
      "Direction": "NB",
      "Date": "2020-11-08",
      "flow": 0.15605095541401273,
      "Latitude": "40.8652769",
      "Longitude": "-73.9277986"
    },
    {
      "SegmentID": "72596",
      "RoadwayName": "DYCKMAN STREET",
      "From": "Sherman Avenue",
      "To": "Vermilyea Avenue",
      "Direction": "SB",
      "Date": "2020-11-08",
      "flow": 0.5286624203821656,
      "Latitude": "40.8652769",
      "Longitude": "-73.9277986"
    },
    {
      "SegmentID": "32651",
      "RoadwayName": "FORSYTH STREET",
      "From": "Grand Street",
      "To": "Broome Street",
      "Direction": "NB",
      "Date": "2020-11-08",
      "flow": 0.11464968152866242,
      "Latitude": "40.7132751",
      "Longitude": "-73.9776678"
    },
    {
      "SegmentID": "38619",
      "RoadwayName": "FREDERICK DOUGLASS BOULEVARD",
      "From": "West 123rd Street",
      "To": "West 124th Street",
      "Direction": "NB",
      "Date": "2020-11-08",
      "flow": 0.21019108280254778,
      "Latitude": "40.8112717",
      "Longitude": "-73.957805"
    },
    {
      "SegmentID": "38619",
      "RoadwayName": "FREDERICK DOUGLASS BOULEVARD",
      "From": "West 123rd Street",
      "To": "West 124th Street",
      "Direction": "SB",
      "Date": "2020-11-08",
      "flow": 0.1624203821656051,
      "Latitude": "40.8112717",
      "Longitude": "-73.957805"
    },
    {
      "SegmentID": "69154",
      "RoadwayName": "FREDERICK DOUGLASS BOULEVARD",
      "From": "West 147th Street",
      "To": "West 148th Street",
      "Direction": "NB",
      "Date": "2020-11-08",
      "flow": 0.3057324840764331,
      "Latitude": "40.8282447",
      "Longitude": "-73.9507349"
    },
    {
      "SegmentID": "69154",
      "RoadwayName": "FREDERICK DOUGLASS BOULEVARD",
      "From": "West 147th Street",
      "To": "West 148th Street",
      "Direction": "SB",
      "Date": "2020-11-08",
      "flow": 0.3057324840764331,
      "Latitude": "40.8282447",
      "Longitude": "-73.9507349"
    },
    {
      "SegmentID": "31914",
      "RoadwayName": "HUDSON STREET",
      "From": "Charlton Street",
      "To": "King Street",
      "Direction": "NB",
      "Date": "2020-11-08",
      "flow": 0.29936305732484075,
      "Latitude": "40.726941",
      "Longitude": "-74.003278"
    },
    {
      "SegmentID": "110941",
      "RoadwayName": "LAFAYETTE STREET",
      "From": "Cleveland Place",
      "To": "Prince Street",
      "Direction": "NB",
      "Date": "2020-11-08",
      "flow": 0.14968152866242038,
      "Latitude": "40.7267105",
      "Longitude": "-73.9940763"
    },
    {
      "SegmentID": "38489",
      "RoadwayName": "MANHATTAN AVENUE",
      "From": "West 119th Street",
      "To": "West 120th Street",
      "Direction": "NB",
      "Date": "2020-11-08",
      "flow": 0.06050955414012739,
      "Latitude": "40.7214035",
      "Longitude": "-73.9490041"
    },
    {
      "SegmentID": "38489",
      "RoadwayName": "MANHATTAN AVENUE",
      "From": "West 119th Street",
      "To": "West 120 Street",
      "Direction": "SB",
      "Date": "2020-11-08",
      "flow": 0.06687898089171974,
      "Latitude": "40.7214035",
      "Longitude": "-73.9490041"
    },
    {
      "SegmentID": "38369",
      "RoadwayName": "MORNINGSIDE DRIVE",
      "From": "West 120th Street",
      "To": "West 121 Street",
      "Direction": "NB",
      "Date": "2020-11-08",
      "flow": 0.028662420382165606,
      "Latitude": "40.8113373",
      "Longitude": "-73.9639549"
    },
    {
      "SegmentID": "38369",
      "RoadwayName": "MORNINGSIDE DRIVE",
      "From": "West 120th Street",
      "To": "West 121st Street",
      "Direction": "SB",
      "Date": "2020-11-08",
      "flow": 0.04777070063694268,
      "Latitude": "40.8113373",
      "Longitude": "-73.9639549"
    },
    {
      "SegmentID": "38839",
      "RoadwayName": "MT MORRIS PARK WEST",
      "From": "West 122nd Street",
      "To": "West 123 Street",
      "Direction": "SB",
      "Date": "2020-11-08",
      "flow": 0.1178343949044586,
      "Latitude": "40.8122569",
      "Longitude": "-73.9621024"
    },
    {
      "SegmentID": "164341",
      "RoadwayName": "NORFOLK STREET",
      "From": "Delancey Street",
      "To": "Rivington Street",
      "Direction": "NB",
      "Date": "2020-11-08",
      "flow": 0.07961783439490445,
      "Latitude": "40.5784139",
      "Longitude": "-73.9388723"
    },
    {
      "SegmentID": "9000265",
      "RoadwayName": "PITT STREET",
      "From": "Stanton Street",
      "To": "Rivington Street",
      "Direction": "NB",
      "Date": "2020-11-08",
      "flow": 0.09235668789808917,
      "Latitude": "40.7215865",
      "Longitude": "-73.9889254"
    },
    {
      "SegmentID": "38613",
      "RoadwayName": "ST NICHOLAS AVENUE",
      "From": "West 122nd Street",
      "To": "West 123rd Street",
      "Direction": "NB",
      "Date": "2020-11-08",
      "flow": 0.06687898089171974,
      "Latitude": "40.8241432",
      "Longitude": "-73.9446885"
    },
    {
      "SegmentID": "38613",
      "RoadwayName": "ST NICHOLAS AVENUE",
      "From": "West 122nd Street",
      "To": "West 123rd Street",
      "Direction": "SB",
      "Date": "2020-11-08",
      "flow": 0.07006369426751592,
      "Latitude": "40.8241432",
      "Longitude": "-73.9446885"
    },
    {
      "SegmentID": "70947",
      "RoadwayName": "WADSWORTH AVENUE",
      "From": "West 175th Street",
      "To": "West 176th Street",
      "Direction": "NB",
      "Date": "2020-11-08",
      "flow": 0.10191082802547771,
      "Latitude": "40.8479967",
      "Longitude": "-73.9146016"
    },
    {
      "SegmentID": "70947",
      "RoadwayName": "WADSWORTH AVENUE",
      "From": "West 175th Street",
      "To": "West 176th Street",
      "Direction": "SB",
      "Date": "2020-11-08",
      "flow": 0.07961783439490445,
      "Latitude": "40.8479967",
      "Longitude": "-73.9146016"
    },
    {
      "SegmentID": "32072",
      "RoadwayName": "WALKER STREET",
      "From": "Cortlandt Alley",
      "To": "Lafayette Street",
      "Direction": "EB",
      "Date": "2020-11-08",
      "flow": 0.14012738853503184,
      "Latitude": "40.6310789",
      "Longitude": "-74.1465042"
    },
    {
      "SegmentID": "38636",
      "RoadwayName": "WEST 125th STREET",
      "From": "Frederick Douglass Boulevard",
      "To": "St. Nicholas Avenue",
      "Direction": "EB",
      "Date": "2020-11-08",
      "flow": 0.35987261146496813,
      "Latitude": "40.8075177",
      "Longitude": "-73.9531044"
    },
    {
      "SegmentID": "38636",
      "RoadwayName": "WEST 125th STREET",
      "From": "Frederick Douglass Boulevard",
      "To": "St. Nicholas Avenue",
      "Direction": "WB",
      "Date": "2020-11-08",
      "flow": 0.3057324840764331,
      "Latitude": "40.8075177",
      "Longitude": "-73.9531044"
    },
    {
      "SegmentID": "38868",
      "RoadwayName": "WEST 135th STREET",
      "From": "Frederick Douglass Boulevard",
      "To": "Edgecombe Avenue",
      "Direction": "EB",
      "Date": "2020-11-08",
      "flow": 0.03503184713375796,
      "Latitude": "40.8075177",
      "Longitude": "-73.9531044"
    },
    {
      "SegmentID": "38868",
      "RoadwayName": "WEST 135 STREET",
      "From": "Frederick Douglass Boulevard",
      "To": "Edgecombe Avenue",
      "Direction": "WB",
      "Date": "2020-11-08",
      "flow": 0.13694267515923567,
      "Latitude": "40.8075177",
      "Longitude": "-73.9531044"
    },
    {
      "SegmentID": "106931",
      "RoadwayName": "WEST 155th STREET",
      "From": "Edgecombe Avenue",
      "To": "St. Nocholas Avenue",
      "Direction": "EB",
      "Date": "2020-11-08",
      "flow": 0.20063694267515925,
      "Latitude": "40.8302773",
      "Longitude": "-73.9402064"
    },
    {
      "SegmentID": "106931",
      "RoadwayName": "WEST 155th STREET",
      "From": "Edgecombe Avenue",
      "To": "St. Nocholas Avenue",
      "Direction": "WB",
      "Date": "2020-11-08",
      "flow": 0.48089171974522293,
      "Latitude": "40.8302773",
      "Longitude": "-73.9402064"
    },
    {
      "SegmentID": "70896",
      "RoadwayName": "WEST 167th STREET",
      "From": "Audubon Avenue",
      "To": "St. Nicholas Avenue",
      "Direction": "WB",
      "Date": "2020-11-08",
      "flow": 0,
      "Latitude": "40.8473391",
      "Longitude": "-73.9333597"
    }
  ],
  "4:00-5:00AM": [
    {
      "SegmentID": "158764",
      "RoadwayName": "ADAM C POWELL BOULEVARD",
      "From": "West 122nd Street",
      "To": "West 123rd Street",
      "Direction": "NB",
      "Date": "2020-11-08",
      "flow": 0.275,
      "Latitude": "40.8122569",
      "Longitude": "-73.9621024"
    },
    {
      "SegmentID": "159196",
      "RoadwayName": "ADAM C POWELL BOULEVARD",
      "From": "West 122nd Street",
      "To": "West 123rd Street",
      "Direction": "SB",
      "Date": "2020-11-08",
      "flow": 0.17083333333333334,
      "Latitude": "40.8122569",
      "Longitude": "-73.9621024"
    },
    {
      "SegmentID": "159048",
      "RoadwayName": "ADAM C POWELL BOULEVARD",
      "From": "West 148th Street",
      "To": "West 149th Street",
      "Direction": "SB",
      "Date": "2020-11-08",
      "flow": 0.25416666666666665,
      "Latitude": "40.8272148",
      "Longitude": "-73.9463406"
    },
    {
      "SegmentID": "133984",
      "RoadwayName": "ADAM C POWELL BOULEVARD",
      "From": "West 148th Street",
      "To": "West 149th Street",
      "Direction": "NB",
      "Date": "2020-11-08",
      "flow": 0.4,
      "Latitude": "40.8272148",
      "Longitude": "-73.9463406"
    },
    {
      "SegmentID": "38361",
      "RoadwayName": "AMSTERDAM AVENUE",
      "From": "West 118th Street",
      "To": "West 119th Street",
      "Direction": "NB",
      "Date": "2020-11-08",
      "flow": 0.6958333333333333,
      "Latitude": "40.8076281",
      "Longitude": "-73.9589165"
    },
    {
      "SegmentID": "38361",
      "RoadwayName": "AMSTERDAM AVENUE",
      "From": "West 118th Street",
      "To": "West 119th Street",
      "Direction": "SB",
      "Date": "2020-11-08",
      "flow": 0.09583333333333334,
      "Latitude": "40.8076281",
      "Longitude": "-73.9589165"
    },
    {
      "SegmentID": "39011",
      "RoadwayName": "AMSTERDAM AVENUE",
      "From": "West 147th Street",
      "To": "West 148th Street",
      "Direction": "NB",
      "Date": "2020-11-08",
      "flow": 0.7583333333333333,
      "Latitude": "40.8282447",
      "Longitude": "-73.9507349"
    },
    {
      "SegmentID": "39011",
      "RoadwayName": "AMSTERDAM AVENUE",
      "From": "West 147th Street",
      "To": "West 148th Street",
      "Direction": "SB",
      "Date": "2020-11-08",
      "flow": 0.4083333333333333,
      "Latitude": "40.8282447",
      "Longitude": "-73.9507349"
    },
    {
      "SegmentID": "152668",
      "RoadwayName": "BROADWAY",
      "From": "West 147th Street",
      "To": "West 148th Street",
      "Direction": "SB",
      "Date": "2020-11-08",
      "flow": 0.675,
      "Latitude": "40.8020029",
      "Longitude": "-73.9679456"
    },
    {
      "SegmentID": "158602",
      "RoadwayName": "BROADWAY",
      "From": "West 147th Street",
      "To": "West 148th Street",
      "Direction": "NB",
      "Date": "2020-11-08",
      "flow": 0.2833333333333333,
      "Latitude": "40.8020029",
      "Longitude": "-73.9679456"
    },
    {
      "SegmentID": "72608",
      "RoadwayName": "BROADWAY",
      "From": "Cumming Street",
      "To": "Dyckman Street",
      "Direction": "EB",
      "Date": "2020-11-08",
      "flow": 1,
      "Latitude": "40.8020029",
      "Longitude": "-73.9679456"
    },
    {
      "SegmentID": "72608",
      "RoadwayName": "BROADWAY",
      "From": "Cumming Street",
      "To": "Dyckman Street",
      "Direction": "WB",
      "Date": "2020-11-08",
      "flow": 0.26666666666666666,
      "Latitude": "40.8020029",
      "Longitude": "-73.9679456"
    },
    {
      "SegmentID": "31783",
      "RoadwayName": "BROADWAY",
      "From": "Leonard Street",
      "To": "Worth Street",
      "Direction": "SB",
      "Date": "2020-11-08",
      "flow": 0.8916666666666667,
      "Latitude": "40.8020029",
      "Longitude": "-73.9679456"
    },
    {
      "SegmentID": "32364",
      "RoadwayName": "BROADWAY",
      "From": "Prince Street",
      "To": "Spring Street",
      "Direction": "SB",
      "Date": "2020-11-08",
      "flow": 0.42083333333333334,
      "Latitude": "40.8020029",
      "Longitude": "-73.9679456"
    },
    {
      "SegmentID": "162555",
      "RoadwayName": "CHERRY STREET",
      "From": "Market Street",
      "To": "Catherine Street",
      "Direction": "WB",
      "Date": "2020-11-08",
      "flow": 0.008333333333333333,
      "Latitude": "40.7123927",
      "Longitude": "-73.9781019"
    },
    {
      "SegmentID": "72596",
      "RoadwayName": "DYCKMAN STREET",
      "From": "Sherman Avenue",
      "To": "Vermilyea Avenue",
      "Direction": "NB",
      "Date": "2020-11-08",
      "flow": 0.1625,
      "Latitude": "40.8652769",
      "Longitude": "-73.9277986"
    },
    {
      "SegmentID": "72596",
      "RoadwayName": "DYCKMAN STREET",
      "From": "Sherman Avenue",
      "To": "Vermilyea Avenue",
      "Direction": "SB",
      "Date": "2020-11-08",
      "flow": 0.6791666666666667,
      "Latitude": "40.8652769",
      "Longitude": "-73.9277986"
    },
    {
      "SegmentID": "32651",
      "RoadwayName": "FORSYTH STREET",
      "From": "Grand Street",
      "To": "Broome Street",
      "Direction": "NB",
      "Date": "2020-11-08",
      "flow": 0.1375,
      "Latitude": "40.7132751",
      "Longitude": "-73.9776678"
    },
    {
      "SegmentID": "38619",
      "RoadwayName": "FREDERICK DOUGLASS BOULEVARD",
      "From": "West 123rd Street",
      "To": "West 124th Street",
      "Direction": "NB",
      "Date": "2020-11-08",
      "flow": 0.2125,
      "Latitude": "40.8112717",
      "Longitude": "-73.957805"
    },
    {
      "SegmentID": "38619",
      "RoadwayName": "FREDERICK DOUGLASS BOULEVARD",
      "From": "West 123rd Street",
      "To": "West 124th Street",
      "Direction": "SB",
      "Date": "2020-11-08",
      "flow": 0.2,
      "Latitude": "40.8112717",
      "Longitude": "-73.957805"
    },
    {
      "SegmentID": "69154",
      "RoadwayName": "FREDERICK DOUGLASS BOULEVARD",
      "From": "West 147th Street",
      "To": "West 148th Street",
      "Direction": "NB",
      "Date": "2020-11-08",
      "flow": 0.25416666666666665,
      "Latitude": "40.8282447",
      "Longitude": "-73.9507349"
    },
    {
      "SegmentID": "69154",
      "RoadwayName": "FREDERICK DOUGLASS BOULEVARD",
      "From": "West 147th Street",
      "To": "West 148th Street",
      "Direction": "SB",
      "Date": "2020-11-08",
      "flow": 0.25416666666666665,
      "Latitude": "40.8282447",
      "Longitude": "-73.9507349"
    },
    {
      "SegmentID": "31914",
      "RoadwayName": "HUDSON STREET",
      "From": "Charlton Street",
      "To": "King Street",
      "Direction": "NB",
      "Date": "2020-11-08",
      "flow": 0.2625,
      "Latitude": "40.726941",
      "Longitude": "-74.003278"
    },
    {
      "SegmentID": "110941",
      "RoadwayName": "LAFAYETTE STREET",
      "From": "Cleveland Place",
      "To": "Prince Street",
      "Direction": "NB",
      "Date": "2020-11-08",
      "flow": 0.17916666666666667,
      "Latitude": "40.7267105",
      "Longitude": "-73.9940763"
    },
    {
      "SegmentID": "38489",
      "RoadwayName": "MANHATTAN AVENUE",
      "From": "West 119th Street",
      "To": "West 120th Street",
      "Direction": "NB",
      "Date": "2020-11-08",
      "flow": 0.0625,
      "Latitude": "40.7214035",
      "Longitude": "-73.9490041"
    },
    {
      "SegmentID": "38489",
      "RoadwayName": "MANHATTAN AVENUE",
      "From": "West 119th Street",
      "To": "West 120 Street",
      "Direction": "SB",
      "Date": "2020-11-08",
      "flow": 0.1,
      "Latitude": "40.7214035",
      "Longitude": "-73.9490041"
    },
    {
      "SegmentID": "38369",
      "RoadwayName": "MORNINGSIDE DRIVE",
      "From": "West 120th Street",
      "To": "West 121 Street",
      "Direction": "NB",
      "Date": "2020-11-08",
      "flow": 0.008333333333333333,
      "Latitude": "40.8113373",
      "Longitude": "-73.9639549"
    },
    {
      "SegmentID": "38369",
      "RoadwayName": "MORNINGSIDE DRIVE",
      "From": "West 120th Street",
      "To": "West 121st Street",
      "Direction": "SB",
      "Date": "2020-11-08",
      "flow": 0.008333333333333333,
      "Latitude": "40.8113373",
      "Longitude": "-73.9639549"
    },
    {
      "SegmentID": "38839",
      "RoadwayName": "MT MORRIS PARK WEST",
      "From": "West 122nd Street",
      "To": "West 123 Street",
      "Direction": "SB",
      "Date": "2020-11-08",
      "flow": 0.11666666666666667,
      "Latitude": "40.8122569",
      "Longitude": "-73.9621024"
    },
    {
      "SegmentID": "164341",
      "RoadwayName": "NORFOLK STREET",
      "From": "Delancey Street",
      "To": "Rivington Street",
      "Direction": "NB",
      "Date": "2020-11-08",
      "flow": 0.075,
      "Latitude": "40.5784139",
      "Longitude": "-73.9388723"
    },
    {
      "SegmentID": "9000265",
      "RoadwayName": "PITT STREET",
      "From": "Stanton Street",
      "To": "Rivington Street",
      "Direction": "NB",
      "Date": "2020-11-08",
      "flow": 0.06666666666666667,
      "Latitude": "40.7215865",
      "Longitude": "-73.9889254"
    },
    {
      "SegmentID": "38613",
      "RoadwayName": "ST NICHOLAS AVENUE",
      "From": "West 122nd Street",
      "To": "West 123rd Street",
      "Direction": "NB",
      "Date": "2020-11-08",
      "flow": 0.041666666666666664,
      "Latitude": "40.8241432",
      "Longitude": "-73.9446885"
    },
    {
      "SegmentID": "38613",
      "RoadwayName": "ST NICHOLAS AVENUE",
      "From": "West 122nd Street",
      "To": "West 123rd Street",
      "Direction": "SB",
      "Date": "2020-11-08",
      "flow": 0.05,
      "Latitude": "40.8241432",
      "Longitude": "-73.9446885"
    },
    {
      "SegmentID": "70947",
      "RoadwayName": "WADSWORTH AVENUE",
      "From": "West 175th Street",
      "To": "West 176th Street",
      "Direction": "NB",
      "Date": "2020-11-08",
      "flow": 0.13333333333333333,
      "Latitude": "40.8479967",
      "Longitude": "-73.9146016"
    },
    {
      "SegmentID": "70947",
      "RoadwayName": "WADSWORTH AVENUE",
      "From": "West 175th Street",
      "To": "West 176th Street",
      "Direction": "SB",
      "Date": "2020-11-08",
      "flow": 0.0625,
      "Latitude": "40.8479967",
      "Longitude": "-73.9146016"
    },
    {
      "SegmentID": "32072",
      "RoadwayName": "WALKER STREET",
      "From": "Cortlandt Alley",
      "To": "Lafayette Street",
      "Direction": "EB",
      "Date": "2020-11-08",
      "flow": 0.09166666666666666,
      "Latitude": "40.6310789",
      "Longitude": "-74.1465042"
    },
    {
      "SegmentID": "38636",
      "RoadwayName": "WEST 125th STREET",
      "From": "Frederick Douglass Boulevard",
      "To": "St. Nicholas Avenue",
      "Direction": "EB",
      "Date": "2020-11-08",
      "flow": 0.45,
      "Latitude": "40.8075177",
      "Longitude": "-73.9531044"
    },
    {
      "SegmentID": "38636",
      "RoadwayName": "WEST 125th STREET",
      "From": "Frederick Douglass Boulevard",
      "To": "St. Nicholas Avenue",
      "Direction": "WB",
      "Date": "2020-11-08",
      "flow": 0.3875,
      "Latitude": "40.8075177",
      "Longitude": "-73.9531044"
    },
    {
      "SegmentID": "38868",
      "RoadwayName": "WEST 135th STREET",
      "From": "Frederick Douglass Boulevard",
      "To": "Edgecombe Avenue",
      "Direction": "EB",
      "Date": "2020-11-08",
      "flow": 0.041666666666666664,
      "Latitude": "40.8075177",
      "Longitude": "-73.9531044"
    },
    {
      "SegmentID": "38868",
      "RoadwayName": "WEST 135 STREET",
      "From": "Frederick Douglass Boulevard",
      "To": "Edgecombe Avenue",
      "Direction": "WB",
      "Date": "2020-11-08",
      "flow": 0.12083333333333333,
      "Latitude": "40.8075177",
      "Longitude": "-73.9531044"
    },
    {
      "SegmentID": "106931",
      "RoadwayName": "WEST 155th STREET",
      "From": "Edgecombe Avenue",
      "To": "St. Nocholas Avenue",
      "Direction": "EB",
      "Date": "2020-11-08",
      "flow": 0.4083333333333333,
      "Latitude": "40.8302773",
      "Longitude": "-73.9402064"
    },
    {
      "SegmentID": "106931",
      "RoadwayName": "WEST 155th STREET",
      "From": "Edgecombe Avenue",
      "To": "St. Nocholas Avenue",
      "Direction": "WB",
      "Date": "2020-11-08",
      "flow": 0.4375,
      "Latitude": "40.8302773",
      "Longitude": "-73.9402064"
    },
    {
      "SegmentID": "70896",
      "RoadwayName": "WEST 167th STREET",
      "From": "Audubon Avenue",
      "To": "St. Nicholas Avenue",
      "Direction": "WB",
      "Date": "2020-11-08",
      "flow": 0,
      "Latitude": "40.8473391",
      "Longitude": "-73.9333597"
    }
  ],
  "5:00-6:00AM": [
    {
      "SegmentID": "158764",
      "RoadwayName": "ADAM C POWELL BOULEVARD",
      "From": "West 122nd Street",
      "To": "West 123rd Street",
      "Direction": "NB",
      "Date": "2020-11-08",
      "flow": 0.11313868613138686,
      "Latitude": "40.8122569",
      "Longitude": "-73.9621024"
    },
    {
      "SegmentID": "159196",
      "RoadwayName": "ADAM C POWELL BOULEVARD",
      "From": "West 122nd Street",
      "To": "West 123rd Street",
      "Direction": "SB",
      "Date": "2020-11-08",
      "flow": 0.12773722627737227,
      "Latitude": "40.8122569",
      "Longitude": "-73.9621024"
    },
    {
      "SegmentID": "159048",
      "RoadwayName": "ADAM C POWELL BOULEVARD",
      "From": "West 148th Street",
      "To": "West 149th Street",
      "Direction": "SB",
      "Date": "2020-11-08",
      "flow": 0.17883211678832117,
      "Latitude": "40.8272148",
      "Longitude": "-73.9463406"
    },
    {
      "SegmentID": "133984",
      "RoadwayName": "ADAM C POWELL BOULEVARD",
      "From": "West 148th Street",
      "To": "West 149th Street",
      "Direction": "NB",
      "Date": "2020-11-08",
      "flow": 0.2846715328467153,
      "Latitude": "40.8272148",
      "Longitude": "-73.9463406"
    },
    {
      "SegmentID": "38361",
      "RoadwayName": "AMSTERDAM AVENUE",
      "From": "West 118th Street",
      "To": "West 119th Street",
      "Direction": "NB",
      "Date": "2020-11-08",
      "flow": 0.3467153284671533,
      "Latitude": "40.8076281",
      "Longitude": "-73.9589165"
    },
    {
      "SegmentID": "38361",
      "RoadwayName": "AMSTERDAM AVENUE",
      "From": "West 118th Street",
      "To": "West 119th Street",
      "Direction": "SB",
      "Date": "2020-11-08",
      "flow": 0.11678832116788321,
      "Latitude": "40.8076281",
      "Longitude": "-73.9589165"
    },
    {
      "SegmentID": "39011",
      "RoadwayName": "AMSTERDAM AVENUE",
      "From": "West 147th Street",
      "To": "West 148th Street",
      "Direction": "NB",
      "Date": "2020-11-08",
      "flow": 0.49635036496350365,
      "Latitude": "40.8282447",
      "Longitude": "-73.9507349"
    },
    {
      "SegmentID": "39011",
      "RoadwayName": "AMSTERDAM AVENUE",
      "From": "West 147th Street",
      "To": "West 148th Street",
      "Direction": "SB",
      "Date": "2020-11-08",
      "flow": 0.4416058394160584,
      "Latitude": "40.8282447",
      "Longitude": "-73.9507349"
    },
    {
      "SegmentID": "152668",
      "RoadwayName": "BROADWAY",
      "From": "West 147th Street",
      "To": "West 148th Street",
      "Direction": "SB",
      "Date": "2020-11-08",
      "flow": 0.6605839416058394,
      "Latitude": "40.8020029",
      "Longitude": "-73.9679456"
    },
    {
      "SegmentID": "158602",
      "RoadwayName": "BROADWAY",
      "From": "West 147th Street",
      "To": "West 148th Street",
      "Direction": "NB",
      "Date": "2020-11-08",
      "flow": 0.22627737226277372,
      "Latitude": "40.8020029",
      "Longitude": "-73.9679456"
    },
    {
      "SegmentID": "72608",
      "RoadwayName": "BROADWAY",
      "From": "Cumming Street",
      "To": "Dyckman Street",
      "Direction": "EB",
      "Date": "2020-11-08",
      "flow": 1,
      "Latitude": "40.8020029",
      "Longitude": "-73.9679456"
    },
    {
      "SegmentID": "72608",
      "RoadwayName": "BROADWAY",
      "From": "Cumming Street",
      "To": "Dyckman Street",
      "Direction": "WB",
      "Date": "2020-11-08",
      "flow": 0.2846715328467153,
      "Latitude": "40.8020029",
      "Longitude": "-73.9679456"
    },
    {
      "SegmentID": "31783",
      "RoadwayName": "BROADWAY",
      "From": "Leonard Street",
      "To": "Worth Street",
      "Direction": "SB",
      "Date": "2020-11-08",
      "flow": 0.4781021897810219,
      "Latitude": "40.8020029",
      "Longitude": "-73.9679456"
    },
    {
      "SegmentID": "32364",
      "RoadwayName": "BROADWAY",
      "From": "Prince Street",
      "To": "Spring Street",
      "Direction": "SB",
      "Date": "2020-11-08",
      "flow": 0.2518248175182482,
      "Latitude": "40.8020029",
      "Longitude": "-73.9679456"
    },
    {
      "SegmentID": "162555",
      "RoadwayName": "CHERRY STREET",
      "From": "Market Street",
      "To": "Catherine Street",
      "Direction": "WB",
      "Date": "2020-11-08",
      "flow": 0,
      "Latitude": "40.7123927",
      "Longitude": "-73.9781019"
    },
    {
      "SegmentID": "72596",
      "RoadwayName": "DYCKMAN STREET",
      "From": "Sherman Avenue",
      "To": "Vermilyea Avenue",
      "Direction": "NB",
      "Date": "2020-11-08",
      "flow": 0.2737226277372263,
      "Latitude": "40.8652769",
      "Longitude": "-73.9277986"
    },
    {
      "SegmentID": "72596",
      "RoadwayName": "DYCKMAN STREET",
      "From": "Sherman Avenue",
      "To": "Vermilyea Avenue",
      "Direction": "SB",
      "Date": "2020-11-08",
      "flow": 0.4708029197080292,
      "Latitude": "40.8652769",
      "Longitude": "-73.9277986"
    },
    {
      "SegmentID": "32651",
      "RoadwayName": "FORSYTH STREET",
      "From": "Grand Street",
      "To": "Broome Street",
      "Direction": "NB",
      "Date": "2020-11-08",
      "flow": 0.05474452554744526,
      "Latitude": "40.7132751",
      "Longitude": "-73.9776678"
    },
    {
      "SegmentID": "38619",
      "RoadwayName": "FREDERICK DOUGLASS BOULEVARD",
      "From": "West 123rd Street",
      "To": "West 124th Street",
      "Direction": "NB",
      "Date": "2020-11-08",
      "flow": 0.1678832116788321,
      "Latitude": "40.8112717",
      "Longitude": "-73.957805"
    },
    {
      "SegmentID": "38619",
      "RoadwayName": "FREDERICK DOUGLASS BOULEVARD",
      "From": "West 123rd Street",
      "To": "West 124th Street",
      "Direction": "SB",
      "Date": "2020-11-08",
      "flow": 0.1897810218978102,
      "Latitude": "40.8112717",
      "Longitude": "-73.957805"
    },
    {
      "SegmentID": "69154",
      "RoadwayName": "FREDERICK DOUGLASS BOULEVARD",
      "From": "West 147th Street",
      "To": "West 148th Street",
      "Direction": "NB",
      "Date": "2020-11-08",
      "flow": 0.24817518248175183,
      "Latitude": "40.8282447",
      "Longitude": "-73.9507349"
    },
    {
      "SegmentID": "69154",
      "RoadwayName": "FREDERICK DOUGLASS BOULEVARD",
      "From": "West 147th Street",
      "To": "West 148th Street",
      "Direction": "SB",
      "Date": "2020-11-08",
      "flow": 0.24817518248175183,
      "Latitude": "40.8282447",
      "Longitude": "-73.9507349"
    },
    {
      "SegmentID": "31914",
      "RoadwayName": "HUDSON STREET",
      "From": "Charlton Street",
      "To": "King Street",
      "Direction": "NB",
      "Date": "2020-11-08",
      "flow": 0.291970802919708,
      "Latitude": "40.726941",
      "Longitude": "-74.003278"
    },
    {
      "SegmentID": "110941",
      "RoadwayName": "LAFAYETTE STREET",
      "From": "Cleveland Place",
      "To": "Prince Street",
      "Direction": "NB",
      "Date": "2020-11-08",
      "flow": 0.19708029197080293,
      "Latitude": "40.7267105",
      "Longitude": "-73.9940763"
    },
    {
      "SegmentID": "38489",
      "RoadwayName": "MANHATTAN AVENUE",
      "From": "West 119th Street",
      "To": "West 120th Street",
      "Direction": "NB",
      "Date": "2020-11-08",
      "flow": 0.051094890510948905,
      "Latitude": "40.7214035",
      "Longitude": "-73.9490041"
    },
    {
      "SegmentID": "38489",
      "RoadwayName": "MANHATTAN AVENUE",
      "From": "West 119th Street",
      "To": "West 120 Street",
      "Direction": "SB",
      "Date": "2020-11-08",
      "flow": 0.05474452554744526,
      "Latitude": "40.7214035",
      "Longitude": "-73.9490041"
    },
    {
      "SegmentID": "38369",
      "RoadwayName": "MORNINGSIDE DRIVE",
      "From": "West 120th Street",
      "To": "West 121 Street",
      "Direction": "NB",
      "Date": "2020-11-08",
      "flow": 0.025547445255474453,
      "Latitude": "40.8113373",
      "Longitude": "-73.9639549"
    },
    {
      "SegmentID": "38369",
      "RoadwayName": "MORNINGSIDE DRIVE",
      "From": "West 120th Street",
      "To": "West 121st Street",
      "Direction": "SB",
      "Date": "2020-11-08",
      "flow": 0.032846715328467155,
      "Latitude": "40.8113373",
      "Longitude": "-73.9639549"
    },
    {
      "SegmentID": "38839",
      "RoadwayName": "MT MORRIS PARK WEST",
      "From": "West 122nd Street",
      "To": "West 123 Street",
      "Direction": "SB",
      "Date": "2020-11-08",
      "flow": 0.20802919708029197,
      "Latitude": "40.8122569",
      "Longitude": "-73.9621024"
    },
    {
      "SegmentID": "164341",
      "RoadwayName": "NORFOLK STREET",
      "From": "Delancey Street",
      "To": "Rivington Street",
      "Direction": "NB",
      "Date": "2020-11-08",
      "flow": 0.0072992700729927005,
      "Latitude": "40.5784139",
      "Longitude": "-73.9388723"
    },
    {
      "SegmentID": "9000265",
      "RoadwayName": "PITT STREET",
      "From": "Stanton Street",
      "To": "Rivington Street",
      "Direction": "NB",
      "Date": "2020-11-08",
      "flow": 0.058394160583941604,
      "Latitude": "40.7215865",
      "Longitude": "-73.9889254"
    },
    {
      "SegmentID": "38613",
      "RoadwayName": "ST NICHOLAS AVENUE",
      "From": "West 122nd Street",
      "To": "West 123rd Street",
      "Direction": "NB",
      "Date": "2020-11-08",
      "flow": 0.043795620437956206,
      "Latitude": "40.8241432",
      "Longitude": "-73.9446885"
    },
    {
      "SegmentID": "38613",
      "RoadwayName": "ST NICHOLAS AVENUE",
      "From": "West 122nd Street",
      "To": "West 123rd Street",
      "Direction": "SB",
      "Date": "2020-11-08",
      "flow": 0.04744525547445255,
      "Latitude": "40.8241432",
      "Longitude": "-73.9446885"
    },
    {
      "SegmentID": "70947",
      "RoadwayName": "WADSWORTH AVENUE",
      "From": "West 175th Street",
      "To": "West 176th Street",
      "Direction": "NB",
      "Date": "2020-11-08",
      "flow": 0.09854014598540146,
      "Latitude": "40.8479967",
      "Longitude": "-73.9146016"
    },
    {
      "SegmentID": "70947",
      "RoadwayName": "WADSWORTH AVENUE",
      "From": "West 175th Street",
      "To": "West 176th Street",
      "Direction": "SB",
      "Date": "2020-11-08",
      "flow": 0.0948905109489051,
      "Latitude": "40.8479967",
      "Longitude": "-73.9146016"
    },
    {
      "SegmentID": "32072",
      "RoadwayName": "WALKER STREET",
      "From": "Cortlandt Alley",
      "To": "Lafayette Street",
      "Direction": "EB",
      "Date": "2020-11-08",
      "flow": 0.1386861313868613,
      "Latitude": "40.6310789",
      "Longitude": "-74.1465042"
    },
    {
      "SegmentID": "38636",
      "RoadwayName": "WEST 125th STREET",
      "From": "Frederick Douglass Boulevard",
      "To": "St. Nicholas Avenue",
      "Direction": "EB",
      "Date": "2020-11-08",
      "flow": 0.4416058394160584,
      "Latitude": "40.8075177",
      "Longitude": "-73.9531044"
    },
    {
      "SegmentID": "38636",
      "RoadwayName": "WEST 125th STREET",
      "From": "Frederick Douglass Boulevard",
      "To": "St. Nicholas Avenue",
      "Direction": "WB",
      "Date": "2020-11-08",
      "flow": 0.2664233576642336,
      "Latitude": "40.8075177",
      "Longitude": "-73.9531044"
    },
    {
      "SegmentID": "38868",
      "RoadwayName": "WEST 135th STREET",
      "From": "Frederick Douglass Boulevard",
      "To": "Edgecombe Avenue",
      "Direction": "EB",
      "Date": "2020-11-08",
      "flow": 0.021897810218978103,
      "Latitude": "40.8075177",
      "Longitude": "-73.9531044"
    },
    {
      "SegmentID": "38868",
      "RoadwayName": "WEST 135 STREET",
      "From": "Frederick Douglass Boulevard",
      "To": "Edgecombe Avenue",
      "Direction": "WB",
      "Date": "2020-11-08",
      "flow": 0.043795620437956206,
      "Latitude": "40.8075177",
      "Longitude": "-73.9531044"
    },
    {
      "SegmentID": "106931",
      "RoadwayName": "WEST 155th STREET",
      "From": "Edgecombe Avenue",
      "To": "St. Nocholas Avenue",
      "Direction": "EB",
      "Date": "2020-11-08",
      "flow": 0.36496350364963503,
      "Latitude": "40.8302773",
      "Longitude": "-73.9402064"
    },
    {
      "SegmentID": "106931",
      "RoadwayName": "WEST 155th STREET",
      "From": "Edgecombe Avenue",
      "To": "St. Nocholas Avenue",
      "Direction": "WB",
      "Date": "2020-11-08",
      "flow": 0.45985401459854014,
      "Latitude": "40.8302773",
      "Longitude": "-73.9402064"
    },
    {
      "SegmentID": "70896",
      "RoadwayName": "WEST 167th STREET",
      "From": "Audubon Avenue",
      "To": "St. Nicholas Avenue",
      "Direction": "WB",
      "Date": "2020-11-08",
      "flow": 0.014598540145985401,
      "Latitude": "40.8473391",
      "Longitude": "-73.9333597"
    }
  ],
  "6:00-7:00AM": [
    {
      "SegmentID": "158764",
      "RoadwayName": "ADAM C POWELL BOULEVARD",
      "From": "West 122nd Street",
      "To": "West 123rd Street",
      "Direction": "NB",
      "Date": "2020-11-08",
      "flow": 0.3106796116504854,
      "Latitude": "40.8122569",
      "Longitude": "-73.9621024"
    },
    {
      "SegmentID": "159196",
      "RoadwayName": "ADAM C POWELL BOULEVARD",
      "From": "West 122nd Street",
      "To": "West 123rd Street",
      "Direction": "SB",
      "Date": "2020-11-08",
      "flow": 0.24271844660194175,
      "Latitude": "40.8122569",
      "Longitude": "-73.9621024"
    },
    {
      "SegmentID": "159048",
      "RoadwayName": "ADAM C POWELL BOULEVARD",
      "From": "West 148th Street",
      "To": "West 149th Street",
      "Direction": "SB",
      "Date": "2020-11-08",
      "flow": 0.3155339805825243,
      "Latitude": "40.8272148",
      "Longitude": "-73.9463406"
    },
    {
      "SegmentID": "133984",
      "RoadwayName": "ADAM C POWELL BOULEVARD",
      "From": "West 148th Street",
      "To": "West 149th Street",
      "Direction": "NB",
      "Date": "2020-11-08",
      "flow": 0.34951456310679613,
      "Latitude": "40.8272148",
      "Longitude": "-73.9463406"
    },
    {
      "SegmentID": "38361",
      "RoadwayName": "AMSTERDAM AVENUE",
      "From": "West 118th Street",
      "To": "West 119th Street",
      "Direction": "NB",
      "Date": "2020-11-08",
      "flow": 0.5097087378640777,
      "Latitude": "40.8076281",
      "Longitude": "-73.9589165"
    },
    {
      "SegmentID": "38361",
      "RoadwayName": "AMSTERDAM AVENUE",
      "From": "West 118th Street",
      "To": "West 119th Street",
      "Direction": "SB",
      "Date": "2020-11-08",
      "flow": 0.4320388349514563,
      "Latitude": "40.8076281",
      "Longitude": "-73.9589165"
    },
    {
      "SegmentID": "39011",
      "RoadwayName": "AMSTERDAM AVENUE",
      "From": "West 147th Street",
      "To": "West 148th Street",
      "Direction": "NB",
      "Date": "2020-11-08",
      "flow": 0.6359223300970874,
      "Latitude": "40.8282447",
      "Longitude": "-73.9507349"
    },
    {
      "SegmentID": "39011",
      "RoadwayName": "AMSTERDAM AVENUE",
      "From": "West 147th Street",
      "To": "West 148th Street",
      "Direction": "SB",
      "Date": "2020-11-08",
      "flow": 0.6456310679611651,
      "Latitude": "40.8282447",
      "Longitude": "-73.9507349"
    },
    {
      "SegmentID": "152668",
      "RoadwayName": "BROADWAY",
      "From": "West 147th Street",
      "To": "West 148th Street",
      "Direction": "SB",
      "Date": "2020-11-08",
      "flow": 1,
      "Latitude": "40.8020029",
      "Longitude": "-73.9679456"
    },
    {
      "SegmentID": "158602",
      "RoadwayName": "BROADWAY",
      "From": "West 147th Street",
      "To": "West 148th Street",
      "Direction": "NB",
      "Date": "2020-11-08",
      "flow": 0.2815533980582524,
      "Latitude": "40.8020029",
      "Longitude": "-73.9679456"
    },
    {
      "SegmentID": "72608",
      "RoadwayName": "BROADWAY",
      "From": "Cumming Street",
      "To": "Dyckman Street",
      "Direction": "EB",
      "Date": "2020-11-08",
      "flow": 0.9514563106796117,
      "Latitude": "40.8020029",
      "Longitude": "-73.9679456"
    },
    {
      "SegmentID": "72608",
      "RoadwayName": "BROADWAY",
      "From": "Cumming Street",
      "To": "Dyckman Street",
      "Direction": "WB",
      "Date": "2020-11-08",
      "flow": 0.6650485436893204,
      "Latitude": "40.8020029",
      "Longitude": "-73.9679456"
    },
    {
      "SegmentID": "31783",
      "RoadwayName": "BROADWAY",
      "From": "Leonard Street",
      "To": "Worth Street",
      "Direction": "SB",
      "Date": "2020-11-08",
      "flow": 0.5388349514563107,
      "Latitude": "40.8020029",
      "Longitude": "-73.9679456"
    },
    {
      "SegmentID": "32364",
      "RoadwayName": "BROADWAY",
      "From": "Prince Street",
      "To": "Spring Street",
      "Direction": "SB",
      "Date": "2020-11-08",
      "flow": 0.6747572815533981,
      "Latitude": "40.8020029",
      "Longitude": "-73.9679456"
    },
    {
      "SegmentID": "162555",
      "RoadwayName": "CHERRY STREET",
      "From": "Market Street",
      "To": "Catherine Street",
      "Direction": "WB",
      "Date": "2020-11-08",
      "flow": 0.02912621359223301,
      "Latitude": "40.7123927",
      "Longitude": "-73.9781019"
    },
    {
      "SegmentID": "72596",
      "RoadwayName": "DYCKMAN STREET",
      "From": "Sherman Avenue",
      "To": "Vermilyea Avenue",
      "Direction": "NB",
      "Date": "2020-11-08",
      "flow": 0.5145631067961165,
      "Latitude": "40.8652769",
      "Longitude": "-73.9277986"
    },
    {
      "SegmentID": "72596",
      "RoadwayName": "DYCKMAN STREET",
      "From": "Sherman Avenue",
      "To": "Vermilyea Avenue",
      "Direction": "SB",
      "Date": "2020-11-08",
      "flow": 0.4368932038834951,
      "Latitude": "40.8652769",
      "Longitude": "-73.9277986"
    },
    {
      "SegmentID": "32651",
      "RoadwayName": "FORSYTH STREET",
      "From": "Grand Street",
      "To": "Broome Street",
      "Direction": "NB",
      "Date": "2020-11-08",
      "flow": 0.1407766990291262,
      "Latitude": "40.7132751",
      "Longitude": "-73.9776678"
    },
    {
      "SegmentID": "38619",
      "RoadwayName": "FREDERICK DOUGLASS BOULEVARD",
      "From": "West 123rd Street",
      "To": "West 124th Street",
      "Direction": "NB",
      "Date": "2020-11-08",
      "flow": 0.23786407766990292,
      "Latitude": "40.8112717",
      "Longitude": "-73.957805"
    },
    {
      "SegmentID": "38619",
      "RoadwayName": "FREDERICK DOUGLASS BOULEVARD",
      "From": "West 123rd Street",
      "To": "West 124th Street",
      "Direction": "SB",
      "Date": "2020-11-08",
      "flow": 0.2815533980582524,
      "Latitude": "40.8112717",
      "Longitude": "-73.957805"
    },
    {
      "SegmentID": "69154",
      "RoadwayName": "FREDERICK DOUGLASS BOULEVARD",
      "From": "West 147th Street",
      "To": "West 148th Street",
      "Direction": "NB",
      "Date": "2020-11-08",
      "flow": 0.4174757281553398,
      "Latitude": "40.8282447",
      "Longitude": "-73.9507349"
    },
    {
      "SegmentID": "69154",
      "RoadwayName": "FREDERICK DOUGLASS BOULEVARD",
      "From": "West 147th Street",
      "To": "West 148th Street",
      "Direction": "SB",
      "Date": "2020-11-08",
      "flow": 0.4174757281553398,
      "Latitude": "40.8282447",
      "Longitude": "-73.9507349"
    },
    {
      "SegmentID": "31914",
      "RoadwayName": "HUDSON STREET",
      "From": "Charlton Street",
      "To": "King Street",
      "Direction": "NB",
      "Date": "2020-11-08",
      "flow": 0.6116504854368932,
      "Latitude": "40.726941",
      "Longitude": "-74.003278"
    },
    {
      "SegmentID": "110941",
      "RoadwayName": "LAFAYETTE STREET",
      "From": "Cleveland Place",
      "To": "Prince Street",
      "Direction": "NB",
      "Date": "2020-11-08",
      "flow": 0.36893203883495146,
      "Latitude": "40.7267105",
      "Longitude": "-73.9940763"
    },
    {
      "SegmentID": "38489",
      "RoadwayName": "MANHATTAN AVENUE",
      "From": "West 119th Street",
      "To": "West 120th Street",
      "Direction": "NB",
      "Date": "2020-11-08",
      "flow": 0.05825242718446602,
      "Latitude": "40.7214035",
      "Longitude": "-73.9490041"
    },
    {
      "SegmentID": "38489",
      "RoadwayName": "MANHATTAN AVENUE",
      "From": "West 119th Street",
      "To": "West 120 Street",
      "Direction": "SB",
      "Date": "2020-11-08",
      "flow": 0.0970873786407767,
      "Latitude": "40.7214035",
      "Longitude": "-73.9490041"
    },
    {
      "SegmentID": "38369",
      "RoadwayName": "MORNINGSIDE DRIVE",
      "From": "West 120th Street",
      "To": "West 121 Street",
      "Direction": "NB",
      "Date": "2020-11-08",
      "flow": 0.08737864077669903,
      "Latitude": "40.8113373",
      "Longitude": "-73.9639549"
    },
    {
      "SegmentID": "38369",
      "RoadwayName": "MORNINGSIDE DRIVE",
      "From": "West 120th Street",
      "To": "West 121st Street",
      "Direction": "SB",
      "Date": "2020-11-08",
      "flow": 0.06796116504854369,
      "Latitude": "40.8113373",
      "Longitude": "-73.9639549"
    },
    {
      "SegmentID": "38839",
      "RoadwayName": "MT MORRIS PARK WEST",
      "From": "West 122nd Street",
      "To": "West 123 Street",
      "Direction": "SB",
      "Date": "2020-11-08",
      "flow": 0.558252427184466,
      "Latitude": "40.8122569",
      "Longitude": "-73.9621024"
    },
    {
      "SegmentID": "164341",
      "RoadwayName": "NORFOLK STREET",
      "From": "Delancey Street",
      "To": "Rivington Street",
      "Direction": "NB",
      "Date": "2020-11-08",
      "flow": 0.019417475728155338,
      "Latitude": "40.5784139",
      "Longitude": "-73.9388723"
    },
    {
      "SegmentID": "9000265",
      "RoadwayName": "PITT STREET",
      "From": "Stanton Street",
      "To": "Rivington Street",
      "Direction": "NB",
      "Date": "2020-11-08",
      "flow": 0.1407766990291262,
      "Latitude": "40.7215865",
      "Longitude": "-73.9889254"
    },
    {
      "SegmentID": "38613",
      "RoadwayName": "ST NICHOLAS AVENUE",
      "From": "West 122nd Street",
      "To": "West 123rd Street",
      "Direction": "NB",
      "Date": "2020-11-08",
      "flow": 0.1796116504854369,
      "Latitude": "40.8241432",
      "Longitude": "-73.9446885"
    },
    {
      "SegmentID": "38613",
      "RoadwayName": "ST NICHOLAS AVENUE",
      "From": "West 122nd Street",
      "To": "West 123rd Street",
      "Direction": "SB",
      "Date": "2020-11-08",
      "flow": 0.11165048543689321,
      "Latitude": "40.8241432",
      "Longitude": "-73.9446885"
    },
    {
      "SegmentID": "70947",
      "RoadwayName": "WADSWORTH AVENUE",
      "From": "West 175th Street",
      "To": "West 176th Street",
      "Direction": "NB",
      "Date": "2020-11-08",
      "flow": 0.043689320388349516,
      "Latitude": "40.8479967",
      "Longitude": "-73.9146016"
    },
    {
      "SegmentID": "70947",
      "RoadwayName": "WADSWORTH AVENUE",
      "From": "West 175th Street",
      "To": "West 176th Street",
      "Direction": "SB",
      "Date": "2020-11-08",
      "flow": 0.014563106796116505,
      "Latitude": "40.8479967",
      "Longitude": "-73.9146016"
    },
    {
      "SegmentID": "32072",
      "RoadwayName": "WALKER STREET",
      "From": "Cortlandt Alley",
      "To": "Lafayette Street",
      "Direction": "EB",
      "Date": "2020-11-08",
      "flow": 0.21844660194174756,
      "Latitude": "40.6310789",
      "Longitude": "-74.1465042"
    },
    {
      "SegmentID": "38636",
      "RoadwayName": "WEST 125th STREET",
      "From": "Frederick Douglass Boulevard",
      "To": "St. Nicholas Avenue",
      "Direction": "EB",
      "Date": "2020-11-08",
      "flow": 0.558252427184466,
      "Latitude": "40.8075177",
      "Longitude": "-73.9531044"
    },
    {
      "SegmentID": "38636",
      "RoadwayName": "WEST 125th STREET",
      "From": "Frederick Douglass Boulevard",
      "To": "St. Nicholas Avenue",
      "Direction": "WB",
      "Date": "2020-11-08",
      "flow": 0.6893203883495146,
      "Latitude": "40.8075177",
      "Longitude": "-73.9531044"
    },
    {
      "SegmentID": "38868",
      "RoadwayName": "WEST 135th STREET",
      "From": "Frederick Douglass Boulevard",
      "To": "Edgecombe Avenue",
      "Direction": "EB",
      "Date": "2020-11-08",
      "flow": 0.07766990291262135,
      "Latitude": "40.8075177",
      "Longitude": "-73.9531044"
    },
    {
      "SegmentID": "38868",
      "RoadwayName": "WEST 135 STREET",
      "From": "Frederick Douglass Boulevard",
      "To": "Edgecombe Avenue",
      "Direction": "WB",
      "Date": "2020-11-08",
      "flow": 0.16019417475728157,
      "Latitude": "40.8075177",
      "Longitude": "-73.9531044"
    },
    {
      "SegmentID": "106931",
      "RoadwayName": "WEST 155th STREET",
      "From": "Edgecombe Avenue",
      "To": "St. Nocholas Avenue",
      "Direction": "EB",
      "Date": "2020-11-08",
      "flow": 0.7524271844660194,
      "Latitude": "40.8302773",
      "Longitude": "-73.9402064"
    },
    {
      "SegmentID": "106931",
      "RoadwayName": "WEST 155th STREET",
      "From": "Edgecombe Avenue",
      "To": "St. Nocholas Avenue",
      "Direction": "WB",
      "Date": "2020-11-08",
      "flow": 0.7912621359223301,
      "Latitude": "40.8302773",
      "Longitude": "-73.9402064"
    },
    {
      "SegmentID": "70896",
      "RoadwayName": "WEST 167th STREET",
      "From": "Audubon Avenue",
      "To": "St. Nicholas Avenue",
      "Direction": "WB",
      "Date": "2020-11-08",
      "flow": 0,
      "Latitude": "40.8473391",
      "Longitude": "-73.9333597"
    }
  ],
  "7:00-8:00AM": [
    {
      "SegmentID": "158764",
      "RoadwayName": "ADAM C POWELL BOULEVARD",
      "From": "West 122nd Street",
      "To": "West 123rd Street",
      "Direction": "NB",
      "Date": "2020-11-08",
      "flow": 0.341991341991342,
      "Latitude": "40.8122569",
      "Longitude": "-73.9621024"
    },
    {
      "SegmentID": "159196",
      "RoadwayName": "ADAM C POWELL BOULEVARD",
      "From": "West 122nd Street",
      "To": "West 123rd Street",
      "Direction": "SB",
      "Date": "2020-11-08",
      "flow": 0.5281385281385281,
      "Latitude": "40.8122569",
      "Longitude": "-73.9621024"
    },
    {
      "SegmentID": "159048",
      "RoadwayName": "ADAM C POWELL BOULEVARD",
      "From": "West 148th Street",
      "To": "West 149th Street",
      "Direction": "SB",
      "Date": "2020-11-08",
      "flow": 0.5238095238095238,
      "Latitude": "40.8272148",
      "Longitude": "-73.9463406"
    },
    {
      "SegmentID": "133984",
      "RoadwayName": "ADAM C POWELL BOULEVARD",
      "From": "West 148th Street",
      "To": "West 149th Street",
      "Direction": "NB",
      "Date": "2020-11-08",
      "flow": 0.6320346320346321,
      "Latitude": "40.8272148",
      "Longitude": "-73.9463406"
    },
    {
      "SegmentID": "38361",
      "RoadwayName": "AMSTERDAM AVENUE",
      "From": "West 118th Street",
      "To": "West 119th Street",
      "Direction": "NB",
      "Date": "2020-11-08",
      "flow": 0.5844155844155844,
      "Latitude": "40.8076281",
      "Longitude": "-73.9589165"
    },
    {
      "SegmentID": "38361",
      "RoadwayName": "AMSTERDAM AVENUE",
      "From": "West 118th Street",
      "To": "West 119th Street",
      "Direction": "SB",
      "Date": "2020-11-08",
      "flow": 0.38961038961038963,
      "Latitude": "40.8076281",
      "Longitude": "-73.9589165"
    },
    {
      "SegmentID": "39011",
      "RoadwayName": "AMSTERDAM AVENUE",
      "From": "West 147th Street",
      "To": "West 148th Street",
      "Direction": "NB",
      "Date": "2020-11-08",
      "flow": 0.5930735930735931,
      "Latitude": "40.8282447",
      "Longitude": "-73.9507349"
    },
    {
      "SegmentID": "39011",
      "RoadwayName": "AMSTERDAM AVENUE",
      "From": "West 147th Street",
      "To": "West 148th Street",
      "Direction": "SB",
      "Date": "2020-11-08",
      "flow": 0.6277056277056277,
      "Latitude": "40.8282447",
      "Longitude": "-73.9507349"
    },
    {
      "SegmentID": "152668",
      "RoadwayName": "BROADWAY",
      "From": "West 147th Street",
      "To": "West 148th Street",
      "Direction": "SB",
      "Date": "2020-11-08",
      "flow": 0.9437229437229437,
      "Latitude": "40.8020029",
      "Longitude": "-73.9679456"
    },
    {
      "SegmentID": "158602",
      "RoadwayName": "BROADWAY",
      "From": "West 147th Street",
      "To": "West 148th Street",
      "Direction": "NB",
      "Date": "2020-11-08",
      "flow": 0.4329004329004329,
      "Latitude": "40.8020029",
      "Longitude": "-73.9679456"
    },
    {
      "SegmentID": "72608",
      "RoadwayName": "BROADWAY",
      "From": "Cumming Street",
      "To": "Dyckman Street",
      "Direction": "EB",
      "Date": "2020-11-08",
      "flow": 0.961038961038961,
      "Latitude": "40.8020029",
      "Longitude": "-73.9679456"
    },
    {
      "SegmentID": "72608",
      "RoadwayName": "BROADWAY",
      "From": "Cumming Street",
      "To": "Dyckman Street",
      "Direction": "WB",
      "Date": "2020-11-08",
      "flow": 0.8095238095238095,
      "Latitude": "40.8020029",
      "Longitude": "-73.9679456"
    },
    {
      "SegmentID": "31783",
      "RoadwayName": "BROADWAY",
      "From": "Leonard Street",
      "To": "Worth Street",
      "Direction": "SB",
      "Date": "2020-11-08",
      "flow": 0.7445887445887446,
      "Latitude": "40.8020029",
      "Longitude": "-73.9679456"
    },
    {
      "SegmentID": "32364",
      "RoadwayName": "BROADWAY",
      "From": "Prince Street",
      "To": "Spring Street",
      "Direction": "SB",
      "Date": "2020-11-08",
      "flow": 0.8874458874458875,
      "Latitude": "40.8020029",
      "Longitude": "-73.9679456"
    },
    {
      "SegmentID": "162555",
      "RoadwayName": "CHERRY STREET",
      "From": "Market Street",
      "To": "Catherine Street",
      "Direction": "WB",
      "Date": "2020-11-08",
      "flow": 0.030303030303030304,
      "Latitude": "40.7123927",
      "Longitude": "-73.9781019"
    },
    {
      "SegmentID": "72596",
      "RoadwayName": "DYCKMAN STREET",
      "From": "Sherman Avenue",
      "To": "Vermilyea Avenue",
      "Direction": "NB",
      "Date": "2020-11-08",
      "flow": 0.36796536796536794,
      "Latitude": "40.8652769",
      "Longitude": "-73.9277986"
    },
    {
      "SegmentID": "72596",
      "RoadwayName": "DYCKMAN STREET",
      "From": "Sherman Avenue",
      "To": "Vermilyea Avenue",
      "Direction": "SB",
      "Date": "2020-11-08",
      "flow": 0.31601731601731603,
      "Latitude": "40.8652769",
      "Longitude": "-73.9277986"
    },
    {
      "SegmentID": "32651",
      "RoadwayName": "FORSYTH STREET",
      "From": "Grand Street",
      "To": "Broome Street",
      "Direction": "NB",
      "Date": "2020-11-08",
      "flow": 0.19047619047619047,
      "Latitude": "40.7132751",
      "Longitude": "-73.9776678"
    },
    {
      "SegmentID": "38619",
      "RoadwayName": "FREDERICK DOUGLASS BOULEVARD",
      "From": "West 123rd Street",
      "To": "West 124th Street",
      "Direction": "NB",
      "Date": "2020-11-08",
      "flow": 0.38095238095238093,
      "Latitude": "40.8112717",
      "Longitude": "-73.957805"
    },
    {
      "SegmentID": "38619",
      "RoadwayName": "FREDERICK DOUGLASS BOULEVARD",
      "From": "West 123rd Street",
      "To": "West 124th Street",
      "Direction": "SB",
      "Date": "2020-11-08",
      "flow": 0.44155844155844154,
      "Latitude": "40.8112717",
      "Longitude": "-73.957805"
    },
    {
      "SegmentID": "69154",
      "RoadwayName": "FREDERICK DOUGLASS BOULEVARD",
      "From": "West 147th Street",
      "To": "West 148th Street",
      "Direction": "NB",
      "Date": "2020-11-08",
      "flow": 0.43722943722943725,
      "Latitude": "40.8282447",
      "Longitude": "-73.9507349"
    },
    {
      "SegmentID": "69154",
      "RoadwayName": "FREDERICK DOUGLASS BOULEVARD",
      "From": "West 147th Street",
      "To": "West 148th Street",
      "Direction": "SB",
      "Date": "2020-11-08",
      "flow": 0.43722943722943725,
      "Latitude": "40.8282447",
      "Longitude": "-73.9507349"
    },
    {
      "SegmentID": "31914",
      "RoadwayName": "HUDSON STREET",
      "From": "Charlton Street",
      "To": "King Street",
      "Direction": "NB",
      "Date": "2020-11-08",
      "flow": 0.8571428571428571,
      "Latitude": "40.726941",
      "Longitude": "-74.003278"
    },
    {
      "SegmentID": "110941",
      "RoadwayName": "LAFAYETTE STREET",
      "From": "Cleveland Place",
      "To": "Prince Street",
      "Direction": "NB",
      "Date": "2020-11-08",
      "flow": 0.354978354978355,
      "Latitude": "40.7267105",
      "Longitude": "-73.9940763"
    },
    {
      "SegmentID": "38489",
      "RoadwayName": "MANHATTAN AVENUE",
      "From": "West 119th Street",
      "To": "West 120th Street",
      "Direction": "NB",
      "Date": "2020-11-08",
      "flow": 0.11255411255411256,
      "Latitude": "40.7214035",
      "Longitude": "-73.9490041"
    },
    {
      "SegmentID": "38489",
      "RoadwayName": "MANHATTAN AVENUE",
      "From": "West 119th Street",
      "To": "West 120 Street",
      "Direction": "SB",
      "Date": "2020-11-08",
      "flow": 0.15584415584415584,
      "Latitude": "40.7214035",
      "Longitude": "-73.9490041"
    },
    {
      "SegmentID": "38369",
      "RoadwayName": "MORNINGSIDE DRIVE",
      "From": "West 120th Street",
      "To": "West 121 Street",
      "Direction": "NB",
      "Date": "2020-11-08",
      "flow": 0.1471861471861472,
      "Latitude": "40.8113373",
      "Longitude": "-73.9639549"
    },
    {
      "SegmentID": "38369",
      "RoadwayName": "MORNINGSIDE DRIVE",
      "From": "West 120th Street",
      "To": "West 121st Street",
      "Direction": "SB",
      "Date": "2020-11-08",
      "flow": 0.12121212121212122,
      "Latitude": "40.8113373",
      "Longitude": "-73.9639549"
    },
    {
      "SegmentID": "38839",
      "RoadwayName": "MT MORRIS PARK WEST",
      "From": "West 122nd Street",
      "To": "West 123 Street",
      "Direction": "SB",
      "Date": "2020-11-08",
      "flow": 0.5757575757575758,
      "Latitude": "40.8122569",
      "Longitude": "-73.9621024"
    },
    {
      "SegmentID": "164341",
      "RoadwayName": "NORFOLK STREET",
      "From": "Delancey Street",
      "To": "Rivington Street",
      "Direction": "NB",
      "Date": "2020-11-08",
      "flow": 0,
      "Latitude": "40.5784139",
      "Longitude": "-73.9388723"
    },
    {
      "SegmentID": "9000265",
      "RoadwayName": "PITT STREET",
      "From": "Stanton Street",
      "To": "Rivington Street",
      "Direction": "NB",
      "Date": "2020-11-08",
      "flow": 0.23809523809523808,
      "Latitude": "40.7215865",
      "Longitude": "-73.9889254"
    },
    {
      "SegmentID": "38613",
      "RoadwayName": "ST NICHOLAS AVENUE",
      "From": "West 122nd Street",
      "To": "West 123rd Street",
      "Direction": "NB",
      "Date": "2020-11-08",
      "flow": 0.18614718614718614,
      "Latitude": "40.8241432",
      "Longitude": "-73.9446885"
    },
    {
      "SegmentID": "38613",
      "RoadwayName": "ST NICHOLAS AVENUE",
      "From": "West 122nd Street",
      "To": "West 123rd Street",
      "Direction": "SB",
      "Date": "2020-11-08",
      "flow": 0.2077922077922078,
      "Latitude": "40.8241432",
      "Longitude": "-73.9446885"
    },
    {
      "SegmentID": "70947",
      "RoadwayName": "WADSWORTH AVENUE",
      "From": "West 175th Street",
      "To": "West 176th Street",
      "Direction": "NB",
      "Date": "2020-11-08",
      "flow": 0.05194805194805195,
      "Latitude": "40.8479967",
      "Longitude": "-73.9146016"
    },
    {
      "SegmentID": "70947",
      "RoadwayName": "WADSWORTH AVENUE",
      "From": "West 175th Street",
      "To": "West 176th Street",
      "Direction": "SB",
      "Date": "2020-11-08",
      "flow": 0.09523809523809523,
      "Latitude": "40.8479967",
      "Longitude": "-73.9146016"
    },
    {
      "SegmentID": "32072",
      "RoadwayName": "WALKER STREET",
      "From": "Cortlandt Alley",
      "To": "Lafayette Street",
      "Direction": "EB",
      "Date": "2020-11-08",
      "flow": 0.33766233766233766,
      "Latitude": "40.6310789",
      "Longitude": "-74.1465042"
    },
    {
      "SegmentID": "38636",
      "RoadwayName": "WEST 125th STREET",
      "From": "Frederick Douglass Boulevard",
      "To": "St. Nicholas Avenue",
      "Direction": "EB",
      "Date": "2020-11-08",
      "flow": 0.7619047619047619,
      "Latitude": "40.8075177",
      "Longitude": "-73.9531044"
    },
    {
      "SegmentID": "38636",
      "RoadwayName": "WEST 125th STREET",
      "From": "Frederick Douglass Boulevard",
      "To": "St. Nicholas Avenue",
      "Direction": "WB",
      "Date": "2020-11-08",
      "flow": 0.6926406926406926,
      "Latitude": "40.8075177",
      "Longitude": "-73.9531044"
    },
    {
      "SegmentID": "38868",
      "RoadwayName": "WEST 135th STREET",
      "From": "Frederick Douglass Boulevard",
      "To": "Edgecombe Avenue",
      "Direction": "EB",
      "Date": "2020-11-08",
      "flow": 0.08225108225108226,
      "Latitude": "40.8075177",
      "Longitude": "-73.9531044"
    },
    {
      "SegmentID": "38868",
      "RoadwayName": "WEST 135 STREET",
      "From": "Frederick Douglass Boulevard",
      "To": "Edgecombe Avenue",
      "Direction": "WB",
      "Date": "2020-11-08",
      "flow": 0.2554112554112554,
      "Latitude": "40.8075177",
      "Longitude": "-73.9531044"
    },
    {
      "SegmentID": "106931",
      "RoadwayName": "WEST 155th STREET",
      "From": "Edgecombe Avenue",
      "To": "St. Nocholas Avenue",
      "Direction": "EB",
      "Date": "2020-11-08",
      "flow": 0.6796536796536796,
      "Latitude": "40.8302773",
      "Longitude": "-73.9402064"
    },
    {
      "SegmentID": "106931",
      "RoadwayName": "WEST 155th STREET",
      "From": "Edgecombe Avenue",
      "To": "St. Nocholas Avenue",
      "Direction": "WB",
      "Date": "2020-11-08",
      "flow": 1,
      "Latitude": "40.8302773",
      "Longitude": "-73.9402064"
    },
    {
      "SegmentID": "70896",
      "RoadwayName": "WEST 167th STREET",
      "From": "Audubon Avenue",
      "To": "St. Nicholas Avenue",
      "Direction": "WB",
      "Date": "2020-11-08",
      "flow": 0.012987012987012988,
      "Latitude": "40.8473391",
      "Longitude": "-73.9333597"
    }
  ],
  "8:00-9:00AM": [
    {
      "SegmentID": "158764",
      "RoadwayName": "ADAM C POWELL BOULEVARD",
      "From": "West 122nd Street",
      "To": "West 123rd Street",
      "Direction": "NB",
      "Date": "2020-11-08",
      "flow": 0.3881118881118881,
      "Latitude": "40.8122569",
      "Longitude": "-73.9621024"
    },
    {
      "SegmentID": "159196",
      "RoadwayName": "ADAM C POWELL BOULEVARD",
      "From": "West 122nd Street",
      "To": "West 123rd Street",
      "Direction": "SB",
      "Date": "2020-11-08",
      "flow": 0.5104895104895105,
      "Latitude": "40.8122569",
      "Longitude": "-73.9621024"
    },
    {
      "SegmentID": "159048",
      "RoadwayName": "ADAM C POWELL BOULEVARD",
      "From": "West 148th Street",
      "To": "West 149th Street",
      "Direction": "SB",
      "Date": "2020-11-08",
      "flow": 0.5454545454545454,
      "Latitude": "40.8272148",
      "Longitude": "-73.9463406"
    },
    {
      "SegmentID": "133984",
      "RoadwayName": "ADAM C POWELL BOULEVARD",
      "From": "West 148th Street",
      "To": "West 149th Street",
      "Direction": "NB",
      "Date": "2020-11-08",
      "flow": 0.6328671328671329,
      "Latitude": "40.8272148",
      "Longitude": "-73.9463406"
    },
    {
      "SegmentID": "38361",
      "RoadwayName": "AMSTERDAM AVENUE",
      "From": "West 118th Street",
      "To": "West 119th Street",
      "Direction": "NB",
      "Date": "2020-11-08",
      "flow": 0.6853146853146853,
      "Latitude": "40.8076281",
      "Longitude": "-73.9589165"
    },
    {
      "SegmentID": "38361",
      "RoadwayName": "AMSTERDAM AVENUE",
      "From": "West 118th Street",
      "To": "West 119th Street",
      "Direction": "SB",
      "Date": "2020-11-08",
      "flow": 0.32167832167832167,
      "Latitude": "40.8076281",
      "Longitude": "-73.9589165"
    },
    {
      "SegmentID": "39011",
      "RoadwayName": "AMSTERDAM AVENUE",
      "From": "West 147th Street",
      "To": "West 148th Street",
      "Direction": "NB",
      "Date": "2020-11-08",
      "flow": 0.6363636363636364,
      "Latitude": "40.8282447",
      "Longitude": "-73.9507349"
    },
    {
      "SegmentID": "39011",
      "RoadwayName": "AMSTERDAM AVENUE",
      "From": "West 147th Street",
      "To": "West 148th Street",
      "Direction": "SB",
      "Date": "2020-11-08",
      "flow": 0.493006993006993,
      "Latitude": "40.8282447",
      "Longitude": "-73.9507349"
    },
    {
      "SegmentID": "152668",
      "RoadwayName": "BROADWAY",
      "From": "West 147th Street",
      "To": "West 148th Street",
      "Direction": "SB",
      "Date": "2020-11-08",
      "flow": 0.8951048951048951,
      "Latitude": "40.8020029",
      "Longitude": "-73.9679456"
    },
    {
      "SegmentID": "158602",
      "RoadwayName": "BROADWAY",
      "From": "West 147th Street",
      "To": "West 148th Street",
      "Direction": "NB",
      "Date": "2020-11-08",
      "flow": 0.5209790209790209,
      "Latitude": "40.8020029",
      "Longitude": "-73.9679456"
    },
    {
      "SegmentID": "72608",
      "RoadwayName": "BROADWAY",
      "From": "Cumming Street",
      "To": "Dyckman Street",
      "Direction": "EB",
      "Date": "2020-11-08",
      "flow": 0.6958041958041958,
      "Latitude": "40.8020029",
      "Longitude": "-73.9679456"
    },
    {
      "SegmentID": "72608",
      "RoadwayName": "BROADWAY",
      "From": "Cumming Street",
      "To": "Dyckman Street",
      "Direction": "WB",
      "Date": "2020-11-08",
      "flow": 0.6433566433566433,
      "Latitude": "40.8020029",
      "Longitude": "-73.9679456"
    },
    {
      "SegmentID": "31783",
      "RoadwayName": "BROADWAY",
      "From": "Leonard Street",
      "To": "Worth Street",
      "Direction": "SB",
      "Date": "2020-11-08",
      "flow": 0.7272727272727273,
      "Latitude": "40.8020029",
      "Longitude": "-73.9679456"
    },
    {
      "SegmentID": "32364",
      "RoadwayName": "BROADWAY",
      "From": "Prince Street",
      "To": "Spring Street",
      "Direction": "SB",
      "Date": "2020-11-08",
      "flow": 1,
      "Latitude": "40.8020029",
      "Longitude": "-73.9679456"
    },
    {
      "SegmentID": "162555",
      "RoadwayName": "CHERRY STREET",
      "From": "Market Street",
      "To": "Catherine Street",
      "Direction": "WB",
      "Date": "2020-11-08",
      "flow": 0.0979020979020979,
      "Latitude": "40.7123927",
      "Longitude": "-73.9781019"
    },
    {
      "SegmentID": "72596",
      "RoadwayName": "DYCKMAN STREET",
      "From": "Sherman Avenue",
      "To": "Vermilyea Avenue",
      "Direction": "NB",
      "Date": "2020-11-08",
      "flow": 0.34965034965034963,
      "Latitude": "40.8652769",
      "Longitude": "-73.9277986"
    },
    {
      "SegmentID": "72596",
      "RoadwayName": "DYCKMAN STREET",
      "From": "Sherman Avenue",
      "To": "Vermilyea Avenue",
      "Direction": "SB",
      "Date": "2020-11-08",
      "flow": 0.38461538461538464,
      "Latitude": "40.8652769",
      "Longitude": "-73.9277986"
    },
    {
      "SegmentID": "32651",
      "RoadwayName": "FORSYTH STREET",
      "From": "Grand Street",
      "To": "Broome Street",
      "Direction": "NB",
      "Date": "2020-11-08",
      "flow": 0.17482517482517482,
      "Latitude": "40.7132751",
      "Longitude": "-73.9776678"
    },
    {
      "SegmentID": "38619",
      "RoadwayName": "FREDERICK DOUGLASS BOULEVARD",
      "From": "West 123rd Street",
      "To": "West 124th Street",
      "Direction": "NB",
      "Date": "2020-11-08",
      "flow": 0.34965034965034963,
      "Latitude": "40.8112717",
      "Longitude": "-73.957805"
    },
    {
      "SegmentID": "38619",
      "RoadwayName": "FREDERICK DOUGLASS BOULEVARD",
      "From": "West 123rd Street",
      "To": "West 124th Street",
      "Direction": "SB",
      "Date": "2020-11-08",
      "flow": 0.4020979020979021,
      "Latitude": "40.8112717",
      "Longitude": "-73.957805"
    },
    {
      "SegmentID": "69154",
      "RoadwayName": "FREDERICK DOUGLASS BOULEVARD",
      "From": "West 147th Street",
      "To": "West 148th Street",
      "Direction": "NB",
      "Date": "2020-11-08",
      "flow": 0.47202797202797203,
      "Latitude": "40.8282447",
      "Longitude": "-73.9507349"
    },
    {
      "SegmentID": "69154",
      "RoadwayName": "FREDERICK DOUGLASS BOULEVARD",
      "From": "West 147th Street",
      "To": "West 148th Street",
      "Direction": "SB",
      "Date": "2020-11-08",
      "flow": 0.47202797202797203,
      "Latitude": "40.8282447",
      "Longitude": "-73.9507349"
    },
    {
      "SegmentID": "31914",
      "RoadwayName": "HUDSON STREET",
      "From": "Charlton Street",
      "To": "King Street",
      "Direction": "NB",
      "Date": "2020-11-08",
      "flow": 0.7027972027972028,
      "Latitude": "40.726941",
      "Longitude": "-74.003278"
    },
    {
      "SegmentID": "110941",
      "RoadwayName": "LAFAYETTE STREET",
      "From": "Cleveland Place",
      "To": "Prince Street",
      "Direction": "NB",
      "Date": "2020-11-08",
      "flow": 0.3776223776223776,
      "Latitude": "40.7267105",
      "Longitude": "-73.9940763"
    },
    {
      "SegmentID": "38489",
      "RoadwayName": "MANHATTAN AVENUE",
      "From": "West 119th Street",
      "To": "West 120th Street",
      "Direction": "NB",
      "Date": "2020-11-08",
      "flow": 0.10139860139860139,
      "Latitude": "40.7214035",
      "Longitude": "-73.9490041"
    },
    {
      "SegmentID": "38489",
      "RoadwayName": "MANHATTAN AVENUE",
      "From": "West 119th Street",
      "To": "West 120 Street",
      "Direction": "SB",
      "Date": "2020-11-08",
      "flow": 0.17132867132867133,
      "Latitude": "40.7214035",
      "Longitude": "-73.9490041"
    },
    {
      "SegmentID": "38369",
      "RoadwayName": "MORNINGSIDE DRIVE",
      "From": "West 120th Street",
      "To": "West 121 Street",
      "Direction": "NB",
      "Date": "2020-11-08",
      "flow": 0.0944055944055944,
      "Latitude": "40.8113373",
      "Longitude": "-73.9639549"
    },
    {
      "SegmentID": "38369",
      "RoadwayName": "MORNINGSIDE DRIVE",
      "From": "West 120th Street",
      "To": "West 121st Street",
      "Direction": "SB",
      "Date": "2020-11-08",
      "flow": 0.08741258741258741,
      "Latitude": "40.8113373",
      "Longitude": "-73.9639549"
    },
    {
      "SegmentID": "38839",
      "RoadwayName": "MT MORRIS PARK WEST",
      "From": "West 122nd Street",
      "To": "West 123 Street",
      "Direction": "SB",
      "Date": "2020-11-08",
      "flow": 0.34615384615384615,
      "Latitude": "40.8122569",
      "Longitude": "-73.9621024"
    },
    {
      "SegmentID": "164341",
      "RoadwayName": "NORFOLK STREET",
      "From": "Delancey Street",
      "To": "Rivington Street",
      "Direction": "NB",
      "Date": "2020-11-08",
      "flow": 0.02097902097902098,
      "Latitude": "40.5784139",
      "Longitude": "-73.9388723"
    },