{
  "1:00-2:00AM": [
    {
      "SegmentID": "33758",
      "RoadwayName": "10TH AVENUE",
      "From": "West 45th Street",
      "To": "West 46th Street",
      "Direction": "NB",
      "Date": "2020-10-13",
      "flow": 0.8603773584905661,
      "Latitude": "40.761801",
      "Longitude": "-73.994646"
    },
    {
      "SegmentID": "57189",
      "RoadwayName": "101 AVENUE",
      "From": "Waltham Street",
      "To": "146th Street",
      "Direction": "WB",
      "Date": "2020-10-13",
      "flow": 0.052830188679245285,
      "Latitude": "40.7127281",
      "Longitude": "-74.0060152"
    },
    {
      "SegmentID": "82326",
      "RoadwayName": "108 STREET",
      "From": "62nd Avenue",
      "To": "Apex Place",
      "Direction": "NB",
      "Date": "2020-10-13",
      "flow": 0.052830188679245285,
      "Latitude": "40.7941983",
      "Longitude": "-73.9468558"
    },
    {
      "SegmentID": "82326",
      "RoadwayName": "108 STREET",
      "From": "62nd Avenue",
      "To": "Apex Place",
      "Direction": "SB",
      "Date": "2020-10-13",
      "flow": 0.2490566037735849,
      "Latitude": "40.7941983",
      "Longitude": "-73.9468558"
    },
    {
      "SegmentID": "63023",
      "RoadwayName": "120 AVENUE",
      "From": "191th Street",
      "To": "192th Street",
      "Direction": "EB",
      "Date": "2020-10-13",
      "flow": 0.18490566037735848,
      "Latitude": "40.7340069",
      "Longitude": "-73.7801978"
    },
    {
      "SegmentID": "63023",
      "RoadwayName": "120 AVENUE",
      "From": "191th Street",
      "To": "192th Street",
      "Direction": "WB",
      "Date": "2020-10-13",
      "flow": 0.1169811320754717,
      "Latitude": "40.7340069",
      "Longitude": "-73.7801978"
    },
    {
      "SegmentID": "19653",
      "RoadwayName": "13th AVENUE",
      "From": "71st Street",
      "To": "72nd Street",
      "Direction": "EB",
      "Date": "2020-10-13",
      "flow": 0.052830188679245285,
      "Latitude": "40.6193283",
      "Longitude": "-73.9989445"
    },
    {
      "SegmentID": "19653",
      "RoadwayName": "13th AVENUE",
      "From": "71st Street",
      "To": "72nd Street",
      "Direction": "WB",
      "Date": "2020-10-13",
      "flow": 0.09433962264150944,
      "Latitude": "40.6193283",
      "Longitude": "-73.9989445"
    },
    {
      "SegmentID": "19762",
      "RoadwayName": "14th AVENUE",
      "From": "71st Street",
      "To": "72nd Street",
      "Direction": "NB",
      "Date": "2020-10-13",
      "flow": 0.08679245283018867,
      "Latitude": "40.6193283",
      "Longitude": "-73.9989445"
    },
    {
      "SegmentID": "19762",
      "RoadwayName": "14th AVENUE",
      "From": "71st Street",
      "To": "72nd Street",
      "Direction": "SB",
      "Date": "2020-10-13",
      "flow": 0.06792452830188679,
      "Latitude": "40.6193283",
      "Longitude": "-73.9989445"
    },
    {
      "SegmentID": "21018",
      "RoadwayName": "3rd AVENUE",
      "From": "30th Street",
      "To": "31st Street",
      "Direction": "SB",
      "Date": "2020-10-13",
      "flow": 0.18867924528301888,
      "Latitude": "40.7599886",
      "Longitude": "-73.9281136"
    },
    {
      "SegmentID": "21022",
      "RoadwayName": "3rd AVENUE",
      "From": "30th Street",
      "To": "31st Street",
      "Direction": "NB",
      "Date": "2020-10-13",
      "flow": 0.36981132075471695,
      "Latitude": "40.7599886",
      "Longitude": "-73.9281136"
    },
    {
      "SegmentID": "22806",
      "RoadwayName": "3rd AVENUE",
      "From": "Baltic Street",
      "To": "Butler Street",
      "Direction": "NB",
      "Date": "2020-10-13",
      "flow": 0.05660377358490566,
      "Latitude": "40.6884386",
      "Longitude": "-74.0011557"
    },
    {
      "SegmentID": "22806",
      "RoadwayName": "3rd AVENUE",
      "From": "Baltic Street",
      "To": "Butler Street",
      "Direction": "SB",
      "Date": "2020-10-13",
      "flow": 0.10566037735849057,
      "Latitude": "40.6884386",
      "Longitude": "-74.0011557"
    },
    {
      "SegmentID": "133942",
      "RoadwayName": "65th Street",
      "From": "5th Avenue",
      "To": "6th Avenue",
      "Direction": "EB",
      "Date": "2020-10-13",
      "flow": 0.09811320754716982,
      "Latitude": "40.7647467",
      "Longitude": "-73.9726829"
    },
    {
      "SegmentID": "133942",
      "RoadwayName": "65th Street",
      "From": "5th Avenue",
      "To": "6th Avenue",
      "Direction": "WB",
      "Date": "2020-10-13",
      "flow": 0.24528301886792453,
      "Latitude": "40.7647467",
      "Longitude": "-73.9726829"
    },
    {
      "SegmentID": "33850",
      "RoadwayName": "9TH AVENUE",
      "From": "West 46th Street",
      "To": "West 47th Street",
      "Direction": "SB",
      "Date": "2020-10-13",
      "flow": 0.6981132075471698,
      "Latitude": "40.7582569",
      "Longitude": "-73.9842778"
    },
    {
      "SegmentID": "9003670",
      "RoadwayName": "ASTOR AVENUE",
      "From": "Wallace Avenue",
      "To": "Barnes Avenue",
      "Direction": "EB",
      "Date": "2020-10-13",
      "flow": 0.06792452830188679,
      "Latitude": "40.8543854",
      "Longitude": "-73.8648158"
    },
    {
      "SegmentID": "9003670",
      "RoadwayName": "ASTOR AVENUE",
      "From": "Wallace Avenue",
      "To": "Barnes Avenue",
      "Direction": "WB",
      "Date": "2020-10-13",
      "flow": 0.06037735849056604,
      "Latitude": "40.8543854",
      "Longitude": "-73.8648158"
    },
    {
      "SegmentID": "157870",
      "RoadwayName": "ATLANTIC AVENUE",
      "From": "Crescent Street",
      "To": "Autumn Avenue",
      "Direction": "EB",
      "Date": "2020-10-13",
      "flow": 0.4339622641509434,
      "Latitude": "40.6833496",
      "Longitude": "-73.873286"
    },
    {
      "SegmentID": "158264",
      "RoadwayName": "ATLANTIC AVENUE",
      "From": "Hemlock Street",
      "To": "Autumn Avenue",
      "Direction": "WB",
      "Date": "2020-10-13",
      "flow": 0.3018867924528302,
      "Latitude": "40.684704",
      "Longitude": "-73.8713701"
    },
    {
      "SegmentID": "41720",
      "RoadwayName": "AVENUE D",
      "From": "Brooklyn Avenue",
      "To": "East 37th Street",
      "Direction": "EB",
      "Date": "2020-10-13",
      "flow": 0.1320754716981132,
      "Latitude": "40.6313796",
      "Longitude": "-73.9416905"
    },
    {
      "SegmentID": "41720",
      "RoadwayName": "AVENUE D",
      "From": "Brooklyn Avenue",
      "To": "East 37th Street",
      "Direction": "WB",
      "Date": "2020-10-13",
      "flow": 0.15849056603773584,
      "Latitude": "40.6313796",
      "Longitude": "-73.9416905"
    },
    {
      "SegmentID": "41040",
      "RoadwayName": "AVENUE J",
      "From": "Schenectady Avenue",
      "To": "East 48th Street",
      "Direction": "EB",
      "Date": "2020-10-13",
      "flow": 0.07169811320754717,
      "Latitude": "40.625039",
      "Longitude": "-73.960803"
    },
    {
      "SegmentID": "41040",
      "RoadwayName": "AVENUE J",
      "From": "Schenectady Avenue",
      "To": "East 48th Street",
      "Direction": "WB",
      "Date": "2020-10-13",
      "flow": 0.06415094339622641,
      "Latitude": "40.625039",
      "Longitude": "-73.960803"
    },
    {
      "SegmentID": "27139",
      "RoadwayName": "AVENUE M",
      "From": "East 15th Street",
      "To": "Buckingham Road",
      "Direction": "EB",
      "Date": "2020-10-13",
      "flow": 0.1509433962264151,
      "Latitude": "40.6178971",
      "Longitude": "-73.959474"
    },
    {
      "SegmentID": "27139",
      "RoadwayName": "AVENUE M",
      "From": "East 15th Street",
      "To": "Buckingham Road",
      "Direction": "WB",
      "Date": "2020-10-13",
      "flow": 0.10943396226415095,
      "Latitude": "40.6178971",
      "Longitude": "-73.959474"
    },
    {
      "SegmentID": "41000",
      "RoadwayName": "AVENUE M",
      "From": "East 45th Street",
      "To": "East 46th Street",
      "Direction": "WB",
      "Date": "2020-10-13",
      "flow": 0.06415094339622641,
      "Latitude": "40.6178971",
      "Longitude": "-73.959474"
    },
    {
      "SegmentID": "27121",
      "RoadwayName": "AVENUE N",
      "From": "Brington Line",
      "To": "East 16th Street",
      "Direction": "EB",
      "Date": "2020-10-13",
      "flow": 0.24528301886792453,
      "Latitude": "40.5873782",
      "Longitude": "-73.9532845"
    },
    {
      "SegmentID": "34188",
      "RoadwayName": "6TH AVENUE",
      "From": "West 45th Street",
      "To": "West 46th Street",
      "Direction": "NB",
      "Date": "2020-10-13",
      "flow": 0.8339622641509434,
      "Latitude": "40.761801",
      "Longitude": "-73.994646"
    },
    {
      "SegmentID": "20337",
      "RoadwayName": "AVENUE P",
      "From": "West 10th Street",
      "To": "West 9th Street",
      "Direction": "EB",
      "Date": "2020-10-13",
      "flow": 0.09811320754716982,
      "Latitude": "40.608944",
      "Longitude": "-73.973022"
    },
    {
      "SegmentID": "20337",
      "RoadwayName": "AVENUE P",
      "From": "West 10th Street",
      "To": "West 9th Street",
      "Direction": "WB",
      "Date": "2020-10-13",
      "flow": 0.09811320754716982,
      "Latitude": "40.608944",
      "Longitude": "-73.973022"
    },
    {
      "SegmentID": "41312",
      "RoadwayName": "AVENUE U",
      "From": "East 56th Street",
      "To": "Pearson Street",
      "Direction": "EB",
      "Date": "2020-10-13",
      "flow": 0.2037735849056604,
      "Latitude": "40.6478985",
      "Longitude": "-73.9241338"
    },
    {
      "SegmentID": "41312",
      "RoadwayName": "AVENUE U",
      "From": "East 56th Street",
      "To": "Pearson Street",
      "Direction": "WB",
      "Date": "2020-10-13",
      "flow": 0.18490566037735848,
      "Latitude": "40.6478985",
      "Longitude": "-73.9241338"
    },
    {
      "SegmentID": "41667",
      "RoadwayName": "AVENUE U",
      "From": "East 71st Street",
      "To": "Veterans Avenue",
      "Direction": "EB",
      "Date": "2020-10-13",
      "flow": 0.06037735849056604,
      "Latitude": "40.6166869",
      "Longitude": "-73.9039399"
    },
    {
      "SegmentID": "41667",
      "RoadwayName": "AVENUE U",
      "From": "East 71st Street",
      "To": "Veterans Avenue",
      "Direction": "WB",
      "Date": "2020-10-13",
      "flow": 0.04150943396226415,
      "Latitude": "40.6166869",
      "Longitude": "-73.9039399"
    },
    {
      "SegmentID": "19550",
      "RoadwayName": "BAY RIDGE AVENUE",
      "From": "11th Avenue",
      "To": "12th Avenue",
      "Direction": "EB",
      "Date": "2020-10-13",
      "flow": 0.05660377358490566,
      "Latitude": "40.7444306",
      "Longitude": "-74.0084954"
    },
    {
      "SegmentID": "19550",
      "RoadwayName": "BAY RIDGE AVENUE",
      "From": "11th Avenue",
      "To": "12th Avenue",
      "Direction": "WB",
      "Date": "2020-10-13",
      "flow": 0.022641509433962263,
      "Latitude": "40.7444306",
      "Longitude": "-74.0084954"
    },
    {
      "SegmentID": "20149",
      "RoadwayName": "BAY RIDGE AVENUE",
      "From": "18th Avenue",
      "To": "19th Avenue",
      "Direction": "EB",
      "Date": "2020-10-13",
      "flow": 0.033962264150943396,
      "Latitude": "40.620671",
      "Longitude": "-73.990414"
    },
    {
      "SegmentID": "132816",
      "RoadwayName": "BAYCHESTER AVENUE",
      "From": "Bay Plaza Boulevard",
      "To": "Hutchinson River Parkway",
      "Direction": "NB",
      "Date": "2020-10-13",
      "flow": 0.05660377358490566,
      "Latitude": "40.8670077",
      "Longitude": "-73.8306367"
    },
    {
      "SegmentID": "254353",
      "RoadwayName": "BEDFORD AVENUE",
      "From": "Lorimer Street",
      "To": "Union Avenue",
      "Direction": "EB",
      "Date": "2020-10-13",
      "flow": 0.10943396226415095,
      "Latitude": "40.7174046",
      "Longitude": "-73.9570004"
    },
    {
      "SegmentID": "27462",
      "RoadwayName": "BEDFORD AVENUE",
      "From": "Quentin Road",
      "To": "Avenue R",
      "Direction": "NB",
      "Date": "2020-10-13",
      "flow": 0.033962264150943396,
      "Latitude": "40.7174046",
      "Longitude": "-73.9570004"
    },
    {
      "SegmentID": "27462",
      "RoadwayName": "BEDFORD AVENUE",
      "From": "Quentin Road",
      "To": "Avenue R",
      "Direction": "SB",
      "Date": "2020-10-13",
      "flow": 0.12830188679245283,
      "Latitude": "40.7174046",
      "Longitude": "-73.9570004"
    },
    {
      "SegmentID": "176365",
      "RoadwayName": "BEDFORD PARK BOULEVARD",
      "From": "Grand Concourse",
      "To": "Briggs Avenue",
      "Direction": "NB",
      "Date": "2020-10-13",
      "flow": 0.07169811320754717,
      "Latitude": "40.8510934",
      "Longitude": "-73.9046308"
    },
    {
      "SegmentID": "176365",
      "RoadwayName": "BEDFORD PARK BOULEVARD",
      "From": "Grand Concourse",
      "To": "Briggs Avenue",
      "Direction": "SB",
      "Date": "2020-10-13",
      "flow": 0.14339622641509434,
      "Latitude": "40.8510934",
      "Longitude": "-73.9046308"
    },
    {
      "SegmentID": "154787",
      "RoadwayName": "BEDFORD PARK BOULEVARD",
      "From": "Grand Concourse",
      "To": "Briggs Avenue",
      "Direction": "NB",
      "Date": "2020-10-13",
      "flow": 0.17735849056603772,
      "Latitude": "40.8510934",
      "Longitude": "-73.9046308"
    },
    {
      "SegmentID": "154501",
      "RoadwayName": "BEDFORD PARK BOULEVARD",
      "From": "Grand Concourse",
      "To": "Briggs Avenue",
      "Direction": "SB",
      "Date": "2020-10-13",
      "flow": 0.1660377358490566,
      "Latitude": "40.8510934",
      "Longitude": "-73.9046308"
    },
    {
      "SegmentID": "148978",
      "RoadwayName": "BELL BOULEVARD",
      "From": "67th Avenue",
      "To": "67th Avenue",
      "Direction": "NB",
      "Date": "2020-10-13",
      "flow": 0.03018867924528302,
      "Latitude": "40.7267968",
      "Longitude": "-73.8532472"
    },
    {
      "SegmentID": "148980",
      "RoadwayName": "BELL BOULEVARD",
      "From": "67th Avenue",
      "To": "67th Avenue",
      "Direction": "SB",
      "Date": "2020-10-13",
      "flow": 0.03018867924528302,
      "Latitude": "40.7267968",
      "Longitude": "-73.8532472"
    },
    {
      "SegmentID": "87808",
      "RoadwayName": "BRONXWOOD AVENUE",
      "From": "Mace Avenue",
      "To": "Allerton Avenue",
      "Direction": "NB",
      "Date": "2020-10-13",
      "flow": 0.007547169811320755,
      "Latitude": "40.8709169",
      "Longitude": "-73.8613921"
    },
    {
      "SegmentID": "87808",
      "RoadwayName": "BRONXWOOD AVENUE",
      "From": "Mace Avenue",
      "To": "Allerton Avenue",
      "Direction": "SB",
      "Date": "2020-10-13",
      "flow": 0.045283018867924525,
      "Latitude": "40.8709169",
      "Longitude": "-73.8613921"
    },
    {
      "SegmentID": "70364",
      "RoadwayName": "BROOK AVENUE",
      "From": "East 152nd Street",
      "To": "East 153rd Street",
      "Direction": "SB",
      "Date": "2020-10-13",
      "flow": 0.13584905660377358,
      "Latitude": "40.807555",
      "Longitude": "-73.9192429"
    },
    {
      "SegmentID": "47359",
      "RoadwayName": "BUSHWICK AVENUE",
      "From": "Cemetery Of Evergrns Boundary",
      "To": "Highland Boulevard",
      "Direction": "EB",
      "Date": "2020-10-13",
      "flow": 0.7509433962264151,
      "Latitude": "40.6815336",
      "Longitude": "-73.8943809"
    },
    {
      "SegmentID": "47359",
      "RoadwayName": "BUSHWICK AVENUE",
      "From": "Cemetery Of Evergrns Boundary",
      "To": "Highland Boulevard",
      "Direction": "WB",
      "Date": "2020-10-13",
      "flow": 0.7358490566037735,
      "Latitude": "40.6815336",
      "Longitude": "-73.8943809"
    },
    {
      "SegmentID": "28234",
      "RoadwayName": "CATON AVENUE",
      "From": "East 18th Street",
      "To": "St Pauls Place",
      "Direction": "EB",
      "Date": "2020-10-13",
      "flow": 0.27169811320754716,
      "Latitude": "40.6475964",
      "Longitude": "-73.9733121"
    },
    {
      "SegmentID": "28234",
      "RoadwayName": "CATON AVENUE",
      "From": "East 18th Street",
      "To": "St Pauls Place",
      "Direction": "WB",
      "Date": "2020-10-13",
      "flow": 0.23018867924528302,
      "Latitude": "40.6475964",
      "Longitude": "-73.9733121"
    },
    {
      "SegmentID": "28015",
      "RoadwayName": "CONEY ISLAND AVENUE",
      "From": "Friel Place",
      "To": "Church Avenue",
      "Direction": "NB",
      "Date": "2020-10-13",
      "flow": 0.1660377358490566,
      "Latitude": "40.6299377",
      "Longitude": "-73.9661411"
    },
    {
      "SegmentID": "28015",
      "RoadwayName": "CONEY ISLAND AVENUE",
      "From": "Friel Place",
      "To": "Church Avenue",
      "Direction": "SB",
      "Date": "2020-10-13",
      "flow": 0.2679245283018868,
      "Latitude": "40.6299377",
      "Longitude": "-73.9661411"
    },
    {
      "SegmentID": "26932",
      "RoadwayName": "CONEY ISLAND AVENUE",
      "From": "Parkville Avenue",
      "To": "Foster Avenue",
      "Direction": "NB",
      "Date": "2020-10-13",
      "flow": 0.2188679245283019,
      "Latitude": "40.6299377",
      "Longitude": "-73.9661411"
    },
    {
      "SegmentID": "26932",
      "RoadwayName": "CONEY ISLAND AVENUE",
      "From": "Parkville Avenue",
      "To": "Foster Avenue",
      "Direction": "SB",
      "Date": "2020-10-13",
      "flow": 0.39245283018867927,
      "Latitude": "40.6299377",
      "Longitude": "-73.9661411"
    },
    {
      "SegmentID": "217716",
      "RoadwayName": "COURTLANDT AVENUE",
      "From": "East 153rd Street",
      "To": "East 154th Street",
      "Direction": "NB",
      "Date": "2020-10-13",
      "flow": 0.14339622641509434,
      "Latitude": "40.8180575",
      "Longitude": "-73.9133408"
    },
    {
      "SegmentID": "150549",
      "RoadwayName": "CROSS BAY BOULEVARD",
      "From": "165th Avenue",
      "To": "East 6th Rd",
      "Direction": "NB",
      "Date": "2020-10-13",
      "flow": 0.2679245283018868,
      "Latitude": "40.6491463",
      "Longitude": "-73.8372764"
    },
    {
      "SegmentID": "121069",
      "RoadwayName": "CROTONA AVENUE",
      "From": "Claremont Parkway",
      "To": "Crotona Park North",
      "Direction": "NB",
      "Date": "2020-10-13",
      "flow": 0.1018867924528302,
      "Latitude": "40.8394904",
      "Longitude": "-73.9045399"
    },
    {
      "SegmentID": "121069",
      "RoadwayName": "CROTONA AVENUE",
      "From": "Claremont Parkway",
      "To": "Crotona Park North",
      "Direction": "SB",
      "Date": "2020-10-13",
      "flow": 0.15471698113207547,
      "Latitude": "40.8394904",
      "Longitude": "-73.9045399"
    },
    {
      "SegmentID": "35257",
      "RoadwayName": "DRIGGS AVENUE",
      "From": "Lorimer Street",
      "To": "Union Avenue",
      "Direction": "WB",
      "Date": "2020-10-13",
      "flow": 0.12452830188679245,
      "Latitude": "40.7200011",
      "Longitude": "-73.9532534"
    },
    {
      "SegmentID": "70360",
      "RoadwayName": "EAST 149th STREET",
      "From": "Eagle Avenue",
      "To": "Cauldwell Avenue",
      "Direction": "EB",
      "Date": "2020-10-13",
      "flow": 0.27547169811320754,
      "Latitude": "40.822181",
      "Longitude": "-73.908418"
    },
    {
      "SegmentID": "70360",
      "RoadwayName": "EAST 149TH STREET",
      "From": "Eagle Avenue",
      "To": "Cauldwell Avenue",
      "Direction": "WB",
      "Date": "2020-10-13",
      "flow": 0.25660377358490566,
      "Latitude": "40.822181",
      "Longitude": "-73.908418"
    },
    {
      "SegmentID": "70586",
      "RoadwayName": "EAST 161st STREET",
      "From": "Eagle Avenue",
      "To": "Cauldwell Avenue",
      "Direction": "EB",
      "Date": "2020-10-13",
      "flow": 0.07924528301886792,
      "Latitude": "40.822181",
      "Longitude": "-73.908418"
    },
    {
      "SegmentID": "70607",
      "RoadwayName": "EAST 163rd STREET",
      "From": "Eagle Avenue",
      "To": "Cauldwell Avenue",
      "Direction": "EB",
      "Date": "2020-10-13",
      "flow": 0.39245283018867927,
      "Latitude": "40.822181",
      "Longitude": "-73.908418"
    },
    {
      "SegmentID": "70607",
      "RoadwayName": "EAST 163rd STREET",
      "From": "Eagle Avenue",
      "To": "Cauldwell Avenue",
      "Direction": "WB",
      "Date": "2020-10-13",
      "flow": 0.3660377358490566,
      "Latitude": "40.822181",
      "Longitude": "-73.908418"
    },
    {
      "SegmentID": "77429",
      "RoadwayName": "EAST 163rd STREET",
      "From": "Intervale Avenue",
      "To": "Kelly Street",
      "Direction": "EB",
      "Date": "2020-10-13",
      "flow": 0.42641509433962266,
      "Latitude": "40.8221585",
      "Longitude": "-73.8967991"
    },
    {
      "SegmentID": "77429",
      "RoadwayName": "EAST 163rd STREET",
      "From": "Intervale Avenue",
      "To": "Kelly Street",
      "Direction": "WB",
      "Date": "2020-10-13",
      "flow": 0.30943396226415093,
      "Latitude": "40.8221585",
      "Longitude": "-73.8967991"
    },
    {
      "SegmentID": "9009765",
      "RoadwayName": "EAST 169th STREET",
      "From": "Tinton Avenue",
      "To": "Union Avenue",
      "Direction": "EB",
      "Date": "2020-10-13",
      "flow": 0.15471698113207547,
      "Latitude": "40.8178792",
      "Longitude": "-73.9050078"
    },
    {
      "SegmentID": "9009765",
      "RoadwayName": "EAST 169th STREET",
      "From": "Tinton Avenue",
      "To": "Union Avenue",
      "Direction": "WB",
      "Date": "2020-10-13",
      "flow": 0.2679245283018868,
      "Latitude": "40.8178792",
      "Longitude": "-73.9050078"
    },
    {
      "SegmentID": "174360",
      "RoadwayName": "EAST 170th STREET",
      "From": "Grant Avenue",
      "To": "Walton Avenue",
      "Direction": "EB",
      "Date": "2020-10-13",
      "flow": 0.10566037735849057,
      "Latitude": "40.6768466",
      "Longitude": "-73.8653952"
    },
    {
      "SegmentID": "174360",
      "RoadwayName": "EAST 170th STREET",
      "From": "Grant Avenue",
      "To": "Morris Avenue",
      "Direction": "WB",
      "Date": "2020-10-13",
      "flow": 0.1660377358490566,
      "Latitude": "40.6768466",
      "Longitude": "-73.8653952"
    },
    {
      "SegmentID": "146865",
      "RoadwayName": "EAST 170th STREET",
      "From": "Grant Avenue",
      "To": "Morris Avenue",
      "Direction": "EB",
      "Date": "2020-10-13",
      "flow": 0.15471698113207547,
      "Latitude": "40.6768466",
      "Longitude": "-73.8653952"
    },
    {
      "SegmentID": "146864",
      "RoadwayName": "EAST 170th STREET",
      "From": "Grant Avenue",
      "To": "Morris Avenue",
      "Direction": "WB",
      "Date": "2020-10-13",
      "flow": 0.17358490566037735,
      "Latitude": "40.6768466",
      "Longitude": "-73.8653952"
    },
    {
      "SegmentID": "78940",
      "RoadwayName": "EAST 174th STREET",
      "From": "Hoe Avenue",
      "To": "Vyse Avenue",
      "Direction": "EB",
      "Date": "2020-10-13",
      "flow": 0.07924528301886792,
      "Latitude": "40.833738",
      "Longitude": "-73.888802"
    },
    {
      "SegmentID": "78940",
      "RoadwayName": "EAST 174th STREET",
      "From": "Hoe Avenue",
      "To": "Vyse Avenue",
      "Direction": "WB",
      "Date": "2020-10-13",
      "flow": 0.15849056603773584,
      "Latitude": "40.833738",
      "Longitude": "-73.888802"
    },
    {
      "SegmentID": "79377",
      "RoadwayName": "EAST 177th STREET",
      "From": "East Tremont Avenue",
      "To": "Devoe Avenue",
      "Direction": "NB",
      "Date": "2020-10-13",
      "flow": 0.2037735849056604,
      "Latitude": "40.8418573",
      "Longitude": "-73.8583296"
    },
    {
      "SegmentID": "79377",
      "RoadwayName": "EAST 177th STREET",
      "From": "East Tremont Avenue",
      "To": "Devoe Avenue",
      "Direction": "SB",
      "Date": "2020-10-13",
      "flow": 0.3320754716981132,
      "Latitude": "40.8418573",
      "Longitude": "-73.8583296"
    },
    {
      "SegmentID": "146887",
      "RoadwayName": "EAST BURNSIDE AVENUE",
      "From": "Creston Avenue",
      "To": "Grand Concourse",
      "Direction": "EB",
      "Date": "2020-10-13",
      "flow": 0.10943396226415095,
      "Latitude": "40.8641451",
      "Longitude": "-73.8971816"
    },
    {
      "SegmentID": "146888",
      "RoadwayName": "EAST BURNSIDE AVENUE",
      "From": "Grand Concourse",
      "To": "Valentine Avenue",
      "Direction": "WB",
      "Date": "2020-10-13",
      "flow": 0.1509433962264151,
      "Latitude": "40.8510934",
      "Longitude": "-73.9046308"
    },
    {
      "SegmentID": "146886",
      "RoadwayName": "EAST BURNSIDE AVENUE",
      "From": "Grand Concourse",
      "To": "Valentine Avenue",
      "Direction": "EB",
      "Date": "2020-10-13",
      "flow": 0.15849056603773584,
      "Latitude": "40.8510934",
      "Longitude": "-73.9046308"
    },
    {
      "SegmentID": "146496",
      "RoadwayName": "EAST BURNSIDE AVENUE",
      "From": "Grand Concourse",
      "To": "Valentine Avenue",
      "Direction": "WB",
      "Date": "2020-10-13",
      "flow": 0.19622641509433963,
      "Latitude": "40.8510934",
      "Longitude": "-73.9046308"
    },
    {
      "SegmentID": "146547",
      "RoadwayName": "EAST FORDHAM ROAD",
      "From": "Bronx River Shoreline",
      "To": "Bronx River Parkway",
      "Direction": "WB",
      "Date": "2020-10-13",
      "flow": 0.7773584905660378,
      "Latitude": "40.8554124",
      "Longitude": "-73.8767367"
    },
    {
      "SegmentID": "178396",
      "RoadwayName": "EAST GUN HILL ROAD",
      "From": "Bronx Boulevard",
      "To": "Bronx River Parkway",
      "Direction": "EB",
      "Date": "2020-10-13",
      "flow": 0.6754716981132075,
      "Latitude": "40.8640107",
      "Longitude": "-73.8339775"
    },
    {
      "SegmentID": "178396",
      "RoadwayName": "EAST GUN HILL ROAD",
      "From": "Bronx Boulevard",
      "To": "Bronx River Parkway",
      "Direction": "WB",
      "Date": "2020-10-13",
      "flow": 1,
      "Latitude": "40.8640107",
      "Longitude": "-73.8339775"
    },
    {
      "SegmentID": "9014434",
      "RoadwayName": "EAST TREMONT AVENUE",
      "From": "Bronx River Shoreline",
      "To": "East 177th Street",
      "Direction": "EB",
      "Date": "2020-10-13",
      "flow": 0.41509433962264153,
      "Latitude": "40.8363101",
      "Longitude": "-73.874253"
    },
    {
      "SegmentID": "9014434",
      "RoadwayName": "EAST TREMONT AVENUE",
      "From": "Bronx River Shoreline",
      "To": "East 177th Street",
      "Direction": "WB",
      "Date": "2020-10-13",
      "flow": 0.32452830188679244,
      "Latitude": "40.8363101",
      "Longitude": "-73.874253"
    },
    {
      "SegmentID": "145229",
      "RoadwayName": "EASTERN PARKWAY",
      "From": "Broadway",
      "To": "Cooke Ct",
      "Direction": "SB",
      "Date": "2020-10-13",
      "flow": 0.43018867924528303,
      "Latitude": "40.8028269",
      "Longitude": "-73.9675054"
    },
    {
      "SegmentID": "157872",
      "RoadwayName": "EASTERN PARKWAY",
      "From": "Broadway",
      "To": "Cooke Ct",
      "Direction": "NB",
      "Date": "2020-10-13",
      "flow": 0.2792452830188679,
      "Latitude": "40.8028269",
      "Longitude": "-73.9675054"
    },
    {
      "SegmentID": "28637",
      "RoadwayName": "FLATBUSH AVENUE",
      "From": "Glenwood Road",
      "To": "East 29th Street",
      "Direction": "NB",
      "Date": "2020-10-13",
      "flow": 0.6226415094339622,
      "Latitude": "40.6031817",
      "Longitude": "-73.9152853"
    },
    {
      "SegmentID": "28637",
      "RoadwayName": "FLATBUSH AVENUE",
      "From": "Glenwood Road",
      "To": "East 29th Street",
      "Direction": "SB",
      "Date": "2020-10-13",
      "flow": 0.4641509433962264,
      "Latitude": "40.6031817",
      "Longitude": "-73.9152853"
    },
    {
      "SegmentID": "9005719",
      "RoadwayName": "FLATLANDS AVENUE",
      "From": "East 108th Street",
      "To": "Williams Avenue",
      "Direction": "NB",
      "Date": "2020-10-13",
      "flow": 0.3283018867924528,
      "Latitude": "40.651881",
      "Longitude": "-73.895861"
    },
    {
      "SegmentID": "9005717",
      "RoadwayName": "FLATLANDS AVENUE",
      "From": "East 108th Street",
      "To": "Williams Avenue",
      "Direction": "SB",
      "Date": "2020-10-13",
      "flow": 0.38113207547169814,
      "Latitude": "40.651881",
      "Longitude": "-73.895861"
    },
    {
      "SegmentID": "42542",
      "RoadwayName": "FLATLANDS AVENUE",
      "From": "East 78th Street",
      "To": "East 79th Street",
      "Direction": "EB",
      "Date": "2020-10-13",
      "flow": 0.3018867924528302,
      "Latitude": "40.637847",
      "Longitude": "-73.918436"
    },
    {
      "SegmentID": "42542",
      "RoadwayName": "FLATLANDS AVENUE",
      "From": "East 78th Street",
      "To": "East 79th Street",
      "Direction": "WB",
      "Date": "2020-10-13",
      "flow": 0.4226415094339623,
      "Latitude": "40.637847",
      "Longitude": "-73.918436"
    },
    {
      "SegmentID": "150110",
      "RoadwayName": "FRANCIS LEWIS BOULEVARD",
      "From": "Horace Harding Expy",
      "To": "73rd Avenue",
      "Direction": "SB",
      "Date": "2020-10-13",
      "flow": 0.052830188679245285,
      "Latitude": "40.77318",
      "Longitude": "-73.7958221"
    },
    {
      "SegmentID": "156785",
      "RoadwayName": "FRANCIS LEWIS BOULEVARD",
      "From": "Horace Harding Expy",
      "To": "73rd Avenue",
      "Direction": "NB",
      "Date": "2020-10-13",
      "flow": 0.022641509433962263,
      "Latitude": "40.77318",
      "Longitude": "-73.7958221"
    },
    {
      "SegmentID": "19559",
      "RoadwayName": "FT HAMILTON PARKWAY",
      "From": "66th Street",
      "To": "67th Street",
      "Direction": "EB",
      "Date": "2020-10-13",
      "flow": 0.19622641509433963,
      "Latitude": "40.7249332",
      "Longitude": "-73.8985833"
    },
    {
      "SegmentID": "19559",
      "RoadwayName": "FT HAMILTON PARKWAY",
      "From": "66th Street",
      "To": "67th Street",
      "Direction": "WB",
      "Date": "2020-10-13",
      "flow": 0.22264150943396227,
      "Latitude": "40.7249332",
      "Longitude": "-73.8985833"
    },
    {
      "SegmentID": "110263",
      "RoadwayName": "GLEN STREET",
      "From": "Lois Lane",
      "To": "Fahy Avenue",
      "Direction": "NB",
      "Date": "2020-10-13",
      "flow": 0.03773584905660377,
      "Latitude": "40.612213",
      "Longitude": "-74.175561"
    },
    {
      "SegmentID": "176279",
      "RoadwayName": "GRAND CONCOURSE",
      "From": "East 188th Street",
      "To": "East 184th Street",
      "Direction": "NB",
      "Date": "2020-10-13",
      "flow": 0.22264150943396227,
      "Latitude": "40.8510934",
      "Longitude": "-73.9046308"
    },
    {
      "SegmentID": "176279",
      "RoadwayName": "GRAND CONCOURSE",
      "From": "East 188th Street",
      "To": "East 184th Street",
      "Direction": "SB",
      "Date": "2020-10-13",
      "flow": 0.15471698113207547,
      "Latitude": "40.8510934",
      "Longitude": "-73.9046308"
    },
    {
      "SegmentID": "148198",
      "RoadwayName": "GRAND CONCOURSE",
      "From": "East 184th Street",
      "To": "East 187th Street",
      "Direction": "SB",
      "Date": "2020-10-13",
      "flow": 0.27169811320754716,
      "Latitude": "40.8510934",
      "Longitude": "-73.9046308"
    },
    {
      "SegmentID": "148197",
      "RoadwayName": "GRAND CONCOURSE",
      "From": "East 184th Street",
      "To": "East 187th Street",
      "Direction": "NB",
      "Date": "2020-10-13",
      "flow": 0.3660377358490566,
      "Latitude": "40.8510934",
      "Longitude": "-73.9046308"
    },
    {
      "SegmentID": "184562",
      "RoadwayName": "GRAND CONCOURSE",
      "From": "East Mt Eve Avenue",
      "To": "Hawkstone Street",
      "Direction": "NB",
      "Date": "2020-10-13",
      "flow": 0.24528301886792453,
      "Latitude": "40.8510934",
      "Longitude": "-73.9046308"
    },
    {
      "SegmentID": "184562",
      "RoadwayName": "GRAND CONCOURSE",
      "From": "East Mt Eve Avenue",
      "To": "Hawkstone Street",
      "Direction": "SB",
      "Date": "2020-10-13",
      "flow": 0.2641509433962264,
      "Latitude": "40.8510934",
      "Longitude": "-73.9046308"
    },
    {
      "SegmentID": "144881",
      "RoadwayName": "GRAND CONCOURSE",
      "From": "Hawkstone Street",
      "To": "East Mt Eden Avenue",
      "Direction": "SB",
      "Date": "2020-10-13",
      "flow": 0.23773584905660378,
      "Latitude": "40.8510934",
      "Longitude": "-73.9046308"
    },
    {
      "SegmentID": "149759",
      "RoadwayName": "GRAND CONCOURSE",
      "From": "Hawkstone Street",
      "To": "Mt Eden Parkway",
      "Direction": "NB",
      "Date": "2020-10-13",
      "flow": 0.2792452830188679,
      "Latitude": "40.8510934",
      "Longitude": "-73.9046308"
    },
    {
      "SegmentID": "31123",
      "RoadwayName": "GRAND STREET",
      "From": "Union Avenue",
      "To": "Lorimer Street",
      "Direction": "EB",
      "Date": "2020-10-13",
      "flow": 0.20754716981132076,
      "Latitude": "40.7132751",
      "Longitude": "-73.9776678"
    },
    {
      "SegmentID": "31123",
      "RoadwayName": "GRAND STREET",
      "From": "Union Avenue",
      "To": "Lorimer Street",
      "Direction": "WB",
      "Date": "2020-10-13",
      "flow": 0.2943396226415094,
      "Latitude": "40.7132751",
      "Longitude": "-73.9776678"
    },
    {
      "SegmentID": "9004434",
      "RoadwayName": "HARROD AVENUE",
      "From": "Cross Bronx River Expressway",
      "To": "East 174th Street",
      "Direction": "NB",
      "Date": "2020-10-13",
      "flow": 0.04150943396226415,
      "Latitude": "40.8447476",
      "Longitude": "-73.9117036"
    },
    {
      "SegmentID": "9004434",
      "RoadwayName": "HARROD AVENUE",
      "From": "Cross Bronx River Expressway",
      "To": "East 174th Street",
      "Direction": "SB",
      "Date": "2020-10-13",
      "flow": 0.06037735849056604,
      "Latitude": "40.8447476",
      "Longitude": "-73.9117036"
    },
    {
      "SegmentID": "157603",
      "RoadwayName": "JAMAICA AVENUE",
      "From": "Georgia Avenue",
      "To": "Sheffied Avenue",
      "Direction": "EB",
      "Date": "2020-10-13",
      "flow": 0.5245283018867924,
      "Latitude": "40.6521022",
      "Longitude": "-73.887989"
    },
    {
      "SegmentID": "157676",
      "RoadwayName": "JAMAICA AVENUE",
      "From": "Georgia Avenue",
      "To": "Fanchon Place",
      "Direction": "WB",
      "Date": "2020-10-13",
      "flow": 0.39245283018867927,
      "Latitude": "40.6521022",
      "Longitude": "-73.887989"
    },
    {
      "SegmentID": "49572",
      "RoadwayName": "JAMAICA AVENUE",
      "From": "Hemlock Street",
      "To": "Autumn Avenue",
      "Direction": "EB",
      "Date": "2020-10-13",
      "flow": 0.19245283018867926,
      "Latitude": "40.684704",
      "Longitude": "-73.8713701"
    },
    {
      "SegmentID": "49572",
      "RoadwayName": "JAMAICA AVENUE",
      "From": "Hemlock Street",
      "To": "Autumn Avenue",
      "Direction": "WB",
      "Date": "2020-10-13",
      "flow": 0.2,
      "Latitude": "40.684704",
      "Longitude": "-73.8713701"
    },
    {
      "SegmentID": "236204",
      "RoadwayName": "JEROME AVENUE",
      "From": "Jerome Avenue Line",
      "To": "Jerome Avenue Line",
      "Direction": "EB",
      "Date": "2020-10-13",
      "flow": 0.23018867924528302,
      "Latitude": "40.8665331",
      "Longitude": "-73.8981713"
    },
    {
      "SegmentID": "236204",
      "RoadwayName": "JEROME AVENUE",
      "From": "Jerome Avenue Line",
      "To": "Jerome Avenue Line",
      "Direction": "WB",
      "Date": "2020-10-13",
      "flow": 0.30943396226415093,
      "Latitude": "40.8665331",
      "Longitude": "-73.8981713"
    },
    {
      "SegmentID": "167027",
      "RoadwayName": "KINGS HIGHWAY",
      "From": "Avenue J",
      "To": "Avenue I",
      "Direction": "NB",
      "Date": "2020-10-13",
      "flow": 0.1320754716981132,
      "Latitude": "40.625039",
      "Longitude": "-73.960803"
    },
    {
      "SegmentID": "167027",
      "RoadwayName": "KINGS HIGHWAY",
      "From": "Avenue J",
      "To": "Avenue I",
      "Direction": "SB",
      "Date": "2020-10-13",
      "flow": 0.15849056603773584,
      "Latitude": "40.625039",
      "Longitude": "-73.960803"
    },
    {
      "SegmentID": "228792",
      "RoadwayName": "KINGS HIGHWAY",
      "From": "Avenue J",
      "To": "Avenue I",
      "Direction": "SB",
      "Date": "2020-10-13",
      "flow": 0.04905660377358491,
      "Latitude": "40.625039",
      "Longitude": "-73.960803"
    },
    {
      "SegmentID": "228794",
      "RoadwayName": "KINGS HIGHWAY",
      "From": "Avenue J",
      "To": "Avenue I",
      "Direction": "NB",
      "Date": "2020-10-13",
      "flow": 0.033962264150943396,
      "Latitude": "40.625039",
      "Longitude": "-73.960803"
    },
    {
      "SegmentID": "167264",
      "RoadwayName": "KINGS HIGHWAY",
      "From": "Remsen Avenue",
      "To": "East 91st Street",
      "Direction": "NB",
      "Date": "2020-10-13",
      "flow": 0.47924528301886793,
      "Latitude": "40.6449389",
      "Longitude": "-73.9112164"
    },
    {
      "SegmentID": "167264",
      "RoadwayName": "KINGS HIGHWAY",
      "From": "Remsen Avenue",
      "To": "East 91st Street",
      "Direction": "SB",
      "Date": "2020-10-13",
      "flow": 0.39622641509433965,
      "Latitude": "40.6449389",
      "Longitude": "-73.9112164"
    },
    {
      "SegmentID": "148033",
      "RoadwayName": "KINGS HIGHWAY",
      "From": "Linden Boulevard",
      "To": "East 91st Street",
      "Direction": "NB",
      "Date": "2020-10-13",
      "flow": 0.09433962264150944,
      "Latitude": "40.6747473",
      "Longitude": "-73.8368685"
    },
    {
      "SegmentID": "148124",
      "RoadwayName": "KINGS HIGHWAY",
      "From": "Linden Boulevard",
      "To": "East 91st Street",
      "Direction": "SB",
      "Date": "2020-10-13",
      "flow": 0.12830188679245283,
      "Latitude": "40.6747473",
      "Longitude": "-73.8368685"
    },
    {
      "SegmentID": "88106",
      "RoadwayName": "LACONIA AVENUE",
      "From": "Adee Avenue",
      "To": "Burke Avenue",
      "Direction": "NB",
      "Date": "2020-10-13",
      "flow": 0.011320754716981131,
      "Latitude": "40.8697",
      "Longitude": "-73.8665611"
    },
    {
      "SegmentID": "88106",
      "RoadwayName": "LACONIA AVENUE",
      "From": "Adee Avenue",
      "To": "Burke Avenue",
      "Direction": "SB",
      "Date": "2020-10-13",
      "flow": 0.007547169811320755,
      "Latitude": "40.8697",
      "Longitude": "-73.8665611"
    },
    {
      "SegmentID": "9005484",
      "RoadwayName": "LAFAYETTE AVENUE",
      "From": "Classon Avenue",
      "To": "Franklin Avenue",
      "Direction": "EB",
      "Date": "2020-10-13",
      "flow": 0.16981132075471697,
      "Latitude": "40.6863074",
      "Longitude": "-73.9744304"
    },
    {
      "SegmentID": "57192",
      "RoadwayName": "LIBERTY AVENUE",
      "From": "Waltham Street",
      "To": "146th Street",
      "Direction": "EB",
      "Date": "2020-10-13",
      "flow": 0.32075471698113206,
      "Latitude": "40.6744049",
      "Longitude": "-73.8965126"
    },
    {
      "SegmentID": "57192",
      "RoadwayName": "LIBERTY AVENUE",
      "From": "Waltham Street",
      "To": "146th Street",
      "Direction": "WB",
      "Date": "2020-10-13",
      "flow": 0.3622641509433962,
      "Latitude": "40.6744049",
      "Longitude": "-73.8965126"
    },
    {
      "SegmentID": "51124",
      "RoadwayName": "LINDEN BOULEVARD",
      "From": "Amber Street",
      "To": "79th Street",
      "Direction": "EB",
      "Date": "2020-10-13",
      "flow": 0.5320754716981132,
      "Latitude": "40.6747473",
      "Longitude": "-73.8368685"
    },
    {
      "SegmentID": "156596",
      "RoadwayName": "LINDEN BOULEVARD",
      "From": "Sapphire Street",
      "To": "79th Street",
      "Direction": "WB",
      "Date": "2020-10-13",
      "flow": 0.5735849056603773,
      "Latitude": "40.6747473",
      "Longitude": "-73.8368685"
    },
    {
      "SegmentID": "184850",
      "RoadwayName": "LINDEN BOULEVARD",
      "From": "Sapphire Street",
      "To": "79th Street",
      "Direction": "WB",
      "Date": "2020-10-13",
      "flow": 0.17735849056603772,
      "Latitude": "40.6747473",
      "Longitude": "-73.8368685"
    },
    {
      "SegmentID": "145550",
      "RoadwayName": "LINDEN BOULEVARD",
      "From": "Sapphire Street",
      "To": "79th Street",
      "Direction": "EB",
      "Date": "2020-10-13",
      "flow": 0.06037735849056604,
      "Latitude": "40.6747473",
      "Longitude": "-73.8368685"
    },
    {
      "SegmentID": "21490",
      "RoadwayName": "MC DONALD AVENUE",
      "From": "Albemarle Road",
      "To": "Church Avenue",
      "Direction": "NB",
      "Date": "2020-10-13",
      "flow": 0.1320754716981132,
      "Latitude": "40.6478739",
      "Longitude": "-73.9556227"
    },
    {
      "SegmentID": "21490",
      "RoadwayName": "MC DONALD AVENUE",
      "From": "Albemarle Road",
      "To": "Church Avenue",
      "Direction": "SB",
      "Date": "2020-10-13",
      "flow": 0.08679245283018867,
      "Latitude": "40.6478739",
      "Longitude": "-73.9556227"
    },
    {
      "SegmentID": "31248",
      "RoadwayName": "MESEROLE STREET",
      "From": "Lorimer Street",
      "To": "Leonard Street",
      "Direction": "WB",
      "Date": "2020-10-13",
      "flow": 0.07924528301886792,
      "Latitude": "40.7038293",
      "Longitude": "-73.9473618"
    },
    {
      "SegmentID": "251085",
      "RoadwayName": "MONTROSE AVENUE",
      "From": "Union Avenue",
      "To": "Lorimer Street",
      "Direction": "EB",
      "Date": "2020-10-13",
      "flow": 0.09811320754716982,
      "Latitude": "40.7187096",
      "Longitude": "-73.9523721"
    },
    {
      "SegmentID": "72317",
      "RoadwayName": "MORRIS AVENUE",
      "From": "Mt Eden Parkway",
      "To": "East 173rd Street",
      "Direction": "NB",
      "Date": "2020-10-13",
      "flow": 0.10943396226415095,
      "Latitude": "40.840197",
      "Longitude": "-73.910094"
    },
    {
      "SegmentID": "72317",
      "RoadwayName": "MORRIS AVENUE",
      "From": "Mt Eden Parkway",
      "To": "East 173rd Street",
      "Direction": "SB",
      "Date": "2020-10-13",
      "flow": 0.17358490566037735,
      "Latitude": "40.840197",
      "Longitude": "-73.910094"
    },
    {
      "SegmentID": "9003578",
      "RoadwayName": "MORRIS AVENUE",
      "From": "East 156th Street",
      "To": "Concourse Village",
      "Direction": "NB",
      "Date": "2020-10-13",
      "flow": 0.4377358490566038,
      "Latitude": "40.840197",
      "Longitude": "-73.910094"
    },
    {
      "SegmentID": "9003578",
      "RoadwayName": "MORRIS AVENUE",
      "From": "East 156th Street",
      "To": "Concourse Village",
      "Direction": "SB",
      "Date": "2020-10-13",
      "flow": 0.2339622641509434,
      "Latitude": "40.840197",
      "Longitude": "-73.910094"
    },
    {
      "SegmentID": "9009379",
      "RoadwayName": "MYRTLE AVENUE",
      "From": "Throop Avenue",
      "To": "Tompkins Avenue",
      "Direction": "EB",
      "Date": "2020-10-13",
      "flow": 0.23018867924528302,
      "Latitude": "40.7004288",
      "Longitude": "-73.9443862"
    },
    {
      "SegmentID": "9009379",
      "RoadwayName": "MYRTLE AVENUE",
      "From": "Throop Avenue",
      "To": "Tompkins Avenue",
      "Direction": "WB",
      "Date": "2020-10-13",
      "flow": 0.49056603773584906,
      "Latitude": "40.7004288",
      "Longitude": "-73.9443862"
    },
    {
      "SegmentID": "21139",
      "RoadwayName": "NEW UTRECHT AVENUE",
      "From": "52nd Street",
      "To": "53rd Street",
      "Direction": "NB",
      "Date": "2020-10-13",
      "flow": 0.15849056603773584,
      "Latitude": "40.624842",
      "Longitude": "-73.996353"
    },
    {
      "SegmentID": "21139",
      "RoadwayName": "NEW UTRECHT AVENUE",
      "From": "52nd Street",
      "To": "53rd Street",
      "Direction": "SB",
      "Date": "2020-10-13",
      "flow": 0.2037735849056604,
      "Latitude": "40.624842",
      "Longitude": "-73.996353"
    },
    {
      "SegmentID": "19874",
      "RoadwayName": "NEW UTRECHT AVENUE",
      "From": "71st Street",
      "To": "72nd Street",
      "Direction": "NB",
      "Date": "2020-10-13",
      "flow": 0.08679245283018867,
      "Latitude": "40.624842",
      "Longitude": "-73.996353"
    },
    {
      "SegmentID": "19874",
      "RoadwayName": "NEW UTRECHT AVENUE",
      "From": "71st Street",
      "To": "72nd Street",
      "Direction": "SB",
      "Date": "2020-10-13",
      "flow": 0.09811320754716982,
      "Latitude": "40.624842",
      "Longitude": "-73.996353"
    },
    {
      "SegmentID": "50683",
      "RoadwayName": "NORTH CONDUIT AVENUE",
      "From": "Glenmore Avenue",
      "To": "Lincoln Avenue",
      "Direction": "WB",
      "Date": "2020-10-13",
      "flow": 0.7056603773584905,
      "Latitude": "40.6711683",
      "Longitude": "-73.9096274"
    },
    {
      "SegmentID": "97306",
      "RoadwayName": "NORTHERN BOULEVARD",
      "From": "190th Street",
      "To": "191th Street",
      "Direction": "EB",
      "Date": "2020-10-13",
      "flow": 0.19622641509433963,
      "Latitude": "40.7530794",
      "Longitude": "-73.9062074"
    },
    {
      "SegmentID": "97306",
      "RoadwayName": "NORTHERN BOULEVARD",
      "From": "190th Street",
      "To": "191th Street",
      "Direction": "WB",
      "Date": "2020-10-13",
      "flow": 0.24150943396226415,
      "Latitude": "40.7530794",
      "Longitude": "-73.9062074"
    },
    {
      "SegmentID": "157298",
      "RoadwayName": "NORTHERN BOULEVARD",
      "From": "College Point Boulevard",
      "To": "Prince Street",
      "Direction": "WB",
      "Date": "2020-10-13",
      "flow": 0.6188679245283019,
      "Latitude": "40.7530794",
      "Longitude": "-73.9062074"
    },
    {
      "SegmentID": "133152",
      "RoadwayName": "NORTHERN BOULEVARD",
      "From": "College Point Boulevard",
      "To": "Prince Street",
      "Direction": "EB",
      "Date": "2020-10-13",
      "flow": 0.46037735849056605,
      "Latitude": "40.7530794",
      "Longitude": "-73.9062074"
    },
    {
      "SegmentID": "111646",
      "RoadwayName": "NOSTRAND AVENUE",
      "From": "Foster Avenue",
      "To": "Farragut Road",
      "Direction": "SB",
      "Date": "2020-10-13",
      "flow": 0.27547169811320754,
      "Latitude": "40.6311231",
      "Longitude": "-73.9692209"
    },
    {
      "SegmentID": "25484",
      "RoadwayName": "OCEAN PARKWAY",
      "From": "Avenue S",
      "To": "AvenueT",
      "Direction": "NB",
      "Date": "2020-10-13",
      "flow": 0.3471698113207547,
      "Latitude": "40.610228",
      "Longitude": "-73.9306"
    },
    {
      "SegmentID": "25484",
      "RoadwayName": "OCEAN PARKWAY",
      "From": "Avenue S",
      "To": "AvenueT",
      "Direction": "SB",
      "Date": "2020-10-13",
      "flow": 0.6188679245283019,
      "Latitude": "40.610228",
      "Longitude": "-73.9306"
    },
    {
      "SegmentID": "136481",
      "RoadwayName": "OCEAN PARKWAY",
      "From": "Avenue S",
      "To": "AvenueT",
      "Direction": "NB",
      "Date": "2020-10-13",
      "flow": 0.033962264150943396,
      "Latitude": "40.610228",
      "Longitude": "-73.9306"
    },
    {
      "SegmentID": "136482",
      "RoadwayName": "OCEAN PARKWAY",
      "From": "Avenue S",
      "To": "AvenueT",
      "Direction": "SB",
      "Date": "2020-10-13",
      "flow": 0.03018867924528302,
      "Latitude": "40.610228",
      "Longitude": "-73.9306"
    },
    {
      "SegmentID": "9003584",
      "RoadwayName": "PARK AVENUE",
      "From": "Delmonico Pl",
      "To": "Tompkins Avenue",
      "Direction": "EB",
      "Date": "2020-10-13",
      "flow": 0.10566037735849057,
      "Latitude": "40.7514645",
      "Longitude": "-73.9779934"
    },
    {
      "SegmentID": "9003584",
      "RoadwayName": "PARK AVENUE",
      "From": "Delmonico Pl",
      "To": "Tompkins Avenue",
      "Direction": "WB",
      "Date": "2020-10-13",
      "flow": 0.19622641509433963,
      "Latitude": "40.7514645",
      "Longitude": "-73.9779934"
    },
    {
      "SegmentID": "30321",
      "RoadwayName": "PARK AVENUE",
      "From": "Ryerson Street",
      "To": "Grand Avenue",
      "Direction": "EB",
      "Date": "2020-10-13",
      "flow": 0.13584905660377358,
      "Latitude": "40.7514645",
      "Longitude": "-73.9779934"
    },
    {
      "SegmentID": "246365",
      "RoadwayName": "PARK ROW",
      "From": "Beekman Street",
      "To": "Broadway",
      "Direction": "WB",
      "Date": "2020-10-13",
      "flow": 0.2792452830188679,
      "Latitude": "40.628881",
      "Longitude": "-74.139772"
    },
    {
      "SegmentID": "162351",
      "RoadwayName": "PARK ROW",
      "From": "Beekman Street",
      "To": "Broadway",
      "Direction": "EB",
      "Date": "2020-10-13",
      "flow": 0.16981132075471697,
      "Latitude": "40.628881",
      "Longitude": "-74.139772"
    },
    {
      "SegmentID": "190316",
      "RoadwayName": "QUEENS BOULEVARD",
      "From": "57th Ave",
      "To": "Woodhaven Boulevard",
      "Direction": "EB",
      "Date": "2020-10-13",
      "flow": 0.16981132075471697,
      "Latitude": "40.727634",
      "Longitude": "-73.854941"
    },
    {
      "SegmentID": "151751",
      "RoadwayName": "QUEENS BOULEVARD",
      "From": "Union Turnpike",
      "To": "78th Avenue",
      "Direction": "EB",
      "Date": "2020-10-13",
      "flow": 0.05660377358490566,
      "Latitude": "40.727634",
      "Longitude": "-73.854941"
    },
    {
      "SegmentID": "134372",
      "RoadwayName": "QUEENS BOULEVARD",
      "From": "Union Turnpike",
      "To": "80th Rd",
      "Direction": "EB",
      "Date": "2020-10-13",
      "flow": 0.18867924528301888,
      "Latitude": "40.727634",
      "Longitude": "-73.854941"
    },
    {
      "SegmentID": "157226",
      "RoadwayName": "QUEENS BOULEVARD",
      "From": "Union Turnpike",
      "To": "80th Rd",
      "Direction": "WB",
      "Date": "2020-10-13",
      "flow": 0.24150943396226415,
      "Latitude": "40.727634",
      "Longitude": "-73.854941"
    },
    {
      "SegmentID": "42389",
      "RoadwayName": "RALPH AVENUE",
      "From": "Glenwood Road",
      "To": "Flatlands Avenue",
      "Direction": "NB",
      "Date": "2020-10-13",
      "flow": 0.15849056603773584,
      "Latitude": "40.6788802",
      "Longitude": "-73.9216651"
    },
    {
      "SegmentID": "42389",
      "RoadwayName": "RALPH AVENUE",
      "From": "Glenwood Road",
      "To": "Flatlands Avenue",
      "Direction": "SB",
      "Date": "2020-10-13",
      "flow": 0.27547169811320754,
      "Latitude": "40.6788802",
      "Longitude": "-73.9216651"
    },
    {
      "SegmentID": "128674",
      "RoadwayName": "REMSEN AVENUE",
      "From": "Stillwell Pl",
      "To": "Avenue L",
      "Direction": "NB",
      "Date": "2020-10-13",
      "flow": 0.16981132075471697,
      "Latitude": "40.6449389",
      "Longitude": "-73.9112164"
    },
    {
      "SegmentID": "128674",
      "RoadwayName": "REMSEN AVENUE",
      "From": "Stillwell Pl",
      "To": "Avenue L",
      "Direction": "SB",
      "Date": "2020-10-13",
      "flow": 0.1509433962264151,
      "Latitude": "40.6449389",
      "Longitude": "-73.9112164"
    },
    {
      "SegmentID": "128667",
      "RoadwayName": "REMSEN AVENUE",
      "From": "Flatlands Avenue",
      "To": "Avenue J",
      "Direction": "NB",
      "Date": "2020-10-13",
      "flow": 0.2528301886792453,
      "Latitude": "40.6449389",
      "Longitude": "-73.9112164"
    },
    {
      "SegmentID": "128667",
      "RoadwayName": "REMSEN AVENUE",
      "From": "Flatlands Avenue",
      "To": "Avenue J",
      "Direction": "SB",
      "Date": "2020-10-13",
      "flow": 0.22264150943396227,
      "Latitude": "40.6449389",
      "Longitude": "-73.9112164"
    },
    {
      "SegmentID": "46514",
      "RoadwayName": "ROCKAWAY PARKWAY",
      "From": "Avenue J",
      "To": "Avenue K",
      "Direction": "SB",
      "Date": "2020-10-13",
      "flow": 0.3169811320754717,
      "Latitude": "40.625039",
      "Longitude": "-73.960803"
    },
    {
      "SegmentID": "155745",
      "RoadwayName": "SEAGIRT BOULEVARD",
      "From": "Beach 6th Street",
      "To": "Beach 9th Street",
      "Direction": "WB",
      "Date": "2020-10-13",
      "flow": 0.16981132075471697,
      "Latitude": "40.5955565",
      "Longitude": "-73.7410999"
    },
    {
      "SegmentID": "148407",
      "RoadwayName": "SEAGIRT BOULEVARD",
      "From": "Beach 6th Street",
      "To": "Beach 9th Street",
      "Direction": "EB",
      "Date": "2020-10-13",
      "flow": 0.2528301886792453,
      "Latitude": "40.5955565",
      "Longitude": "-73.7410999"
    },
    {
      "SegmentID": "113134",
      "RoadwayName": "SEDGWICK AVENUE",
      "From": "West 183rd Street",
      "To": "West Fordham Road",
      "Direction": "NB",
      "Date": "2020-10-13",
      "flow": 0.1018867924528302,
      "Latitude": "40.8825571",
      "Longitude": "-73.887063"
    },
    {
      "SegmentID": "113134",
      "RoadwayName": "SEDGWICK AVENUE",
      "From": "West 183rd Street",
      "To": "West Fordham Road",
      "Direction": "SB",
      "Date": "2020-10-13",
      "flow": 0.1320754716981132,
      "Latitude": "40.8825571",
      "Longitude": "-73.887063"
    },
    {
      "SegmentID": "119816",
      "RoadwayName": "SOUTHERN BOULEVARD",
      "From": "Crotona Park East",
      "To": "East 175th Street",
      "Direction": "NB",
      "Date": "2020-10-13",
      "flow": 0.1660377358490566,
      "Latitude": "40.8101526",
      "Longitude": "-73.9070982"
    },
    {
      "SegmentID": "119816",
      "RoadwayName": "SOUTHERN BOULEVARD",
      "From": "Crotona Park East",
      "To": "East 175th Street",
      "Direction": "SB",
      "Date": "2020-10-13",
      "flow": 0.23018867924528302,
      "Latitude": "40.8101526",
      "Longitude": "-73.9070982"
    },
    {
      "SegmentID": "107111",
      "RoadwayName": "SOUTHERN BOULEVARD",
      "From": "East 163rd Street",
      "To": "Aldus Street",
      "Direction": "NB",
      "Date": "2020-10-13",
      "flow": 0.23773584905660378,
      "Latitude": "40.8101526",
      "Longitude": "-73.9070982"
    },
    {
      "SegmentID": "107111",
      "RoadwayName": "SOUTHERN BOULEVARD",
      "From": "East 163rd Street",
      "To": "Aldus Street",
      "Direction": "SB",
      "Date": "2020-10-13",
      "flow": 0.33962264150943394,
      "Latitude": "40.8101526",
      "Longitude": "-73.9070982"
    },
    {
      "SegmentID": "134461",
      "RoadwayName": "SOUTHERN BOULEVARD",
      "From": "Bronx Park Road",
      "To": "East Fordham Road",
      "Direction": "SB",
      "Date": "2020-10-13",
      "flow": 0.21509433962264152,
      "Latitude": "40.8101526",
      "Longitude": "-73.9070982"
    },
    {
      "SegmentID": "146666",
      "RoadwayName": "SOUTHERN BOULEVARD",
      "From": "Bronx Park Road",
      "To": "East Fordham Road",
      "Direction": "NB",
      "Date": "2020-10-13",
      "flow": 0.2339622641509434,
      "Latitude": "40.8101526",
      "Longitude": "-73.9070982"
    },
    {
      "SegmentID": "19163",
      "RoadwayName": "STILLWELL AVENUE",
      "From": "Avenue W",
      "To": "28th Avenue",
      "Direction": "NB",
      "Date": "2020-10-13",
      "flow": 0.10566037735849057,
      "Latitude": "40.5923096",
      "Longitude": "-73.9738908"
    },
    {
      "SegmentID": "19163",
      "RoadwayName": "STILLWELL AVENUE",
      "From": "Avenue W",
      "To": "28th Avenue",
      "Direction": "SB",
      "Date": "2020-10-13",
      "flow": 0.11320754716981132,
      "Latitude": "40.5923096",
      "Longitude": "-73.9738908"
    },
    {
      "SegmentID": "77209",
      "RoadwayName": "TINTON AVENUE",
      "From": "East 150th Street",
      "To": "East 151st Street",
      "Direction": "SB",
      "Date": "2020-10-13",
      "flow": 0.09056603773584905,
      "Latitude": "40.824666",
      "Longitude": "-73.902331"
    },
    {
      "SegmentID": "107126",
      "RoadwayName": "TINTON AVENUE",
      "From": "Home Street",
      "To": "East 168th Street",
      "Direction": "NB",
      "Date": "2020-10-13",
      "flow": 0.07924528301886792,
      "Latitude": "40.824666",
      "Longitude": "-73.902331"
    },
    {
      "SegmentID": "107126",
      "RoadwayName": "TINTON AVENUE",
      "From": "Home Street",
      "To": "East 168th Street",
      "Direction": "SB",
      "Date": "2020-10-13",
      "flow": 0.10943396226415095,
      "Latitude": "40.824666",
      "Longitude": "-73.902331"
    },
    {
      "SegmentID": "146375",
      "RoadwayName": "UNION TURNPIKE",
      "From": "Langdale Street",
      "To": "Hewlett Street",
      "Direction": "EB",
      "Date": "2020-10-13",
      "flow": 0.08679245283018867,
      "Latitude": "40.7454151",
      "Longitude": "-73.715169"
    },
    {
      "SegmentID": "146374",
      "RoadwayName": "UNION TURNPIKE",
      "From": "Hewlett Street",
      "To": "Langdale Street",
      "Direction": "WB",
      "Date": "2020-10-13",
      "flow": 0.04905660377358491,
      "Latitude": "40.7454151",
      "Longitude": "-73.715169"
    },
    {
      "SegmentID": "41144",
      "RoadwayName": "UTICA AVENUE",
      "From": "Avenue K",
      "To": "Avenue L",
      "Direction": "NB",
      "Date": "2020-10-13",
      "flow": 0.19622641509433963,
      "Latitude": "40.637901",
      "Longitude": "-73.900838"
    },
    {
      "SegmentID": "41144",
      "RoadwayName": "UTICA AVENUE",
      "From": "Avenue K",
      "To": "Avenue L",
      "Direction": "SB",
      "Date": "2020-10-13",
      "flow": 0.2037735849056604,
      "Latitude": "40.637901",
      "Longitude": "-73.900838"
    },
    {
      "SegmentID": "42098",
      "RoadwayName": "UTICA AVENUE",
      "From": "Lenox Road",
      "To": "Linden Boulevard",
      "Direction": "NB",
      "Date": "2020-10-13",
      "flow": 0.38113207547169814,
      "Latitude": "40.6553529",
      "Longitude": "-73.9306307"
    },
    {
      "SegmentID": "42098",
      "RoadwayName": "UTICA AVENUE",
      "From": "Lenox Road",
      "To": "Linden Boulevard",
      "Direction": "SB",
      "Date": "2020-10-13",
      "flow": 0.4339622641509434,
      "Latitude": "40.6553529",
      "Longitude": "-73.9306307"
    },
    {
      "SegmentID": "31909",
      "RoadwayName": "VARICK STREET",
      "From": "Charlton Street",
      "To": "Vandam Street",
      "Direction": "SB",
      "Date": "2020-10-13",
      "flow": 0.8905660377358491,
      "Latitude": "40.726941",
      "Longitude": "-74.003278"
    },
    {
      "SegmentID": "41663",
      "RoadwayName": "VETERANS AVENUE",
      "From": "East 71st Street",
      "To": "Avenue U",
      "Direction": "WB",
      "Date": "2020-10-13",
      "flow": 0.03018867924528302,
      "Latitude": "40.6166869",
      "Longitude": "-73.9039399"
    },
    {
      "SegmentID": "78177",
      "RoadwayName": "WEBSTER AVENUE",
      "From": "East Mt Eden Avenue",
      "To": "East 173rd Street",
      "Direction": "NB",
      "Date": "2020-10-13",
      "flow": 0.539622641509434,
      "Latitude": "40.8435761",
      "Longitude": "-73.9130722"
    },
    {
      "SegmentID": "78177",
      "RoadwayName": "WEBSTER AVENUE",
      "From": "East Mt Eden Avenue",
      "To": "East 173rd Street",
      "Direction": "SB",
      "Date": "2020-10-13",
      "flow": 0.49056603773584906,
      "Latitude": "40.8435761",
      "Longitude": "-73.9130722"
    },
    {
      "SegmentID": "262242",
      "RoadwayName": "WEST BROADWAY",
      "From": "Worth Street",
      "To": "Leonard Street",
      "Direction": "SB",
      "Date": "2020-10-13",
      "flow": 0.4,
      "Latitude": "40.7152194",
      "Longitude": "-74.0022433"
    },
    {
      "SegmentID": "121148",
      "RoadwayName": "WEST GUN HILL ROAD",
      "From": "West Mosholu Parkway North",
      "To": "Mosholu Parkway",
      "Direction": "EB",
      "Date": "2020-10-13",
      "flow": 0.28679245283018867,
      "Latitude": "40.881968",
      "Longitude": "-73.884692"
    },
    {
      "SegmentID": "121148",
      "RoadwayName": "WEST GUN HILL ROAD",
      "From": "West Mosholu Parkway North",
      "To": "Mosholu Parkway",
      "Direction": "WB",
      "Date": "2020-10-13",
      "flow": 0.2792452830188679,
      "Latitude": "40.881968",
      "Longitude": "-73.884692"
    },
    {
      "SegmentID": "78877",
      "RoadwayName": "WESTCHESTER AVENUE",
      "From": "East 167th Street",
      "To": "Home Street",
      "Direction": "EB",
      "Date": "2020-10-13",
      "flow": 0.2981132075471698,
      "Latitude": "40.8263976",
      "Longitude": "-73.8989844"
    },
    {
      "SegmentID": "78877",
      "RoadwayName": "WESTCHESTER AVENUE",
      "From": "East 167th Street",
      "To": "Home Street",
      "Direction": "WB",
      "Date": "2020-10-13",
      "flow": 0.4377358490566038,
      "Latitude": "40.8263976",
      "Longitude": "-73.8989844"
    },
    {
      "SegmentID": "151663",
      "RoadwayName": "WOODHAVEN BOULEVARD",
      "From": "97th Avenue",
      "To": "101st Avenue",
      "Direction": "NB",
      "Date": "2020-10-13",
      "flow": 0.37735849056603776,
      "Latitude": "40.7332625",
      "Longitude": "-73.8697005"
    },
    {
      "SegmentID": "156005",
      "RoadwayName": "WOODHAVEN BOULEVARD",
      "From": "97th Avenue",
      "To": "101st Avenue",
      "Direction": "SB",
      "Date": "2020-10-13",
      "flow": 0.4075471698113208,
      "Latitude": "40.7332625",
      "Longitude": "-73.8697005"
    },
    {
      "SegmentID": "151662",
      "RoadwayName": "WOODHAVEN BOULEVARD",
      "From": "97th Avenue",
      "To": "101st Avenue",
      "Direction": "NB",
      "Date": "2020-10-13",
      "flow": 0.1169811320754717,
      "Latitude": "40.7332625",
      "Longitude": "-73.8697005"
    },
    {
      "SegmentID": "151664",
      "RoadwayName": "WOODHAVEN BOULEVARD",
      "From": "97th Avenue",
      "To": "101st Avenue",
      "Direction": "SB",
      "Date": "2020-10-13",
      "flow": 0.12830188679245283,
      "Latitude": "40.7332625",
      "Longitude": "-73.8697005"
    },
    {
      "SegmentID": "134660",
      "RoadwayName": "WOODHAVEN BOULEVARD",
      "From": "Union Turnpike",
      "To": "79th Avenue",
      "Direction": "NB",
      "Date": "2020-10-13",
      "flow": 0.5735849056603773,
      "Latitude": "40.7332625",
      "Longitude": "-73.8697005"
    },
    {
      "SegmentID": "134660",
      "RoadwayName": "WOODHAVEN BOULEVARD",
      "From": "Union Turnpike",
      "To": "79th Avenue",
      "Direction": "NB",
      "Date": "2020-10-13",
      "flow": 0.01509433962264151,
      "Latitude": "40.7332625",
      "Longitude": "-73.8697005"
    },
    {
      "SegmentID": "151704",
      "RoadwayName": "WOODHAVEN BOULEVARD",
      "From": "73rd Avenue",
      "To": "74th Avenue",
      "Direction": "SB",
      "Date": "2020-10-13",
      "flow": 0.29056603773584905,
      "Latitude": "40.7332625",
      "Longitude": "-73.8697005"
    },
    {
      "SegmentID": "151704",
      "RoadwayName": "WOODHAVEN BOULEVARD",
      "From": "73rd Avenue",
      "To": "74th Avenue",
      "Direction": "SB",
      "Date": "2020-10-13",
      "flow": 0,
      "Latitude": "40.7332625",
      "Longitude": "-73.8697005"
    },
    {
      "SegmentID": "36517",
      "RoadwayName": "YORK AVENUE",
      "From": "East 60th Street",
      "To": "East 61st Street",
      "Direction": "NB",
      "Date": "2020-10-13",
      "flow": 0.26037735849056604,
      "Latitude": "40.7603138",
      "Longitude": "-73.9616495"
    },
    {
      "SegmentID": "36517",
      "RoadwayName": "YORK AVENUE",
      "From": "East 61st Street",
      "To": "East 60th Street",
      "Direction": "SB",
      "Date": "2020-10-13",
      "flow": 0.17358490566037735,
      "Latitude": "40.616553",
      "Longitude": "-73.916486"
    }
  ],
  "2:00-3:00AM": [
    {
      "SegmentID": "33758",
      "RoadwayName": "10TH AVENUE",
      "From": "West 45th Street",
      "To": "West 46th Street",
      "Direction": "NB",
      "Date": "2020-10-13",
      "flow": 1,
      "Latitude": "40.761801",
      "Longitude": "-73.994646"
    },
    {
      "SegmentID": "57189",
      "RoadwayName": "101 AVENUE",
      "From": "Waltham Street",
      "To": "146th Street",
      "Direction": "WB",
      "Date": "2020-10-13",
      "flow": 0.06481481481481481,
      "Latitude": "40.7127281",
      "Longitude": "-74.0060152"
    },
    {
      "SegmentID": "82326",
      "RoadwayName": "108 STREET",
      "From": "62nd Avenue",
      "To": "Apex Place",
      "Direction": "NB",
      "Date": "2020-10-13",
      "flow": 0.041666666666666664,
      "Latitude": "40.7941983",
      "Longitude": "-73.9468558"
    },
    {
      "SegmentID": "82326",
      "RoadwayName": "108 STREET",
      "From": "62nd Avenue",
      "To": "Apex Place",
      "Direction": "SB",
      "Date": "2020-10-13",
      "flow": 0.14351851851851852,
      "Latitude": "40.7941983",
      "Longitude": "-73.9468558"
    },
    {
      "SegmentID": "63023",
      "RoadwayName": "120 AVENUE",
      "From": "191th Street",
      "To": "192th Street",
      "Direction": "EB",
      "Date": "2020-10-13",
      "flow": 0.10648148148148148,
      "Latitude": "40.7340069",
      "Longitude": "-73.7801978"
    },
    {
      "SegmentID": "63023",
      "RoadwayName": "120 AVENUE",
      "From": "191th Street",
      "To": "192th Street",
      "Direction": "WB",
      "Date": "2020-10-13",
      "flow": 0.06481481481481481,
      "Latitude": "40.7340069",
      "Longitude": "-73.7801978"
    },
    {
      "SegmentID": "19653",
      "RoadwayName": "13th AVENUE",
      "From": "71st Street",
      "To": "72nd Street",
      "Direction": "EB",
      "Date": "2020-10-13",
      "flow": 0.027777777777777776,
      "Latitude": "40.6193283",
      "Longitude": "-73.9989445"
    },
    {
      "SegmentID": "19653",
      "RoadwayName": "13th AVENUE",
      "From": "71st Street",
      "To": "72nd Street",
      "Direction": "WB",
      "Date": "2020-10-13",
      "flow": 0.07407407407407407,
      "Latitude": "40.6193283",
      "Longitude": "-73.9989445"
    },
    {
      "SegmentID": "19762",
      "RoadwayName": "14th AVENUE",
      "From": "71st Street",
      "To": "72nd Street",
      "Direction": "NB",
      "Date": "2020-10-13",
      "flow": 0.06944444444444445,
      "Latitude": "40.6193283",
      "Longitude": "-73.9989445"
    },
    {
      "SegmentID": "19762",
      "RoadwayName": "14th AVENUE",
      "From": "71st Street",
      "To": "72nd Street",
      "Direction": "SB",
      "Date": "2020-10-13",
      "flow": 0.046296296296296294,
      "Latitude": "40.6193283",
      "Longitude": "-73.9989445"
    },
    {
      "SegmentID": "21018",
      "RoadwayName": "3rd AVENUE",
      "From": "30th Street",
      "To": "31st Street",
      "Direction": "SB",
      "Date": "2020-10-13",
      "flow": 0.2361111111111111,
      "Latitude": "40.7599886",
      "Longitude": "-73.9281136"
    },
    {
      "SegmentID": "21022",
      "RoadwayName": "3rd AVENUE",
      "From": "30th Street",
      "To": "31st Street",
      "Direction": "NB",
      "Date": "2020-10-13",
      "flow": 0.37962962962962965,
      "Latitude": "40.7599886",
      "Longitude": "-73.9281136"
    },
    {
      "SegmentID": "22806",
      "RoadwayName": "3rd AVENUE",
      "From": "Baltic Street",
      "To": "Butler Street",
      "Direction": "NB",
      "Date": "2020-10-13",
      "flow": 0.032407407407407406,
      "Latitude": "40.6884386",
      "Longitude": "-74.0011557"
    },
    {
      "SegmentID": "22806",
      "RoadwayName": "3rd AVENUE",
      "From": "Baltic Street",
      "To": "Butler Street",
      "Direction": "SB",
      "Date": "2020-10-13",
      "flow": 0.07407407407407407,
      "Latitude": "40.6884386",
      "Longitude": "-74.0011557"
    },
    {
      "SegmentID": "133942",
      "RoadwayName": "65th Street",
      "From": "5th Avenue",
      "To": "6th Avenue",
      "Direction": "EB",
      "Date": "2020-10-13",
      "flow": 0.09259259259259259,
      "Latitude": "40.7647467",
      "Longitude": "-73.9726829"
    },
    {
      "SegmentID": "133942",
      "RoadwayName": "65th Street",
      "From": "5th Avenue",
      "To": "6th Avenue",
      "Direction": "WB",
      "Date": "2020-10-13",
      "flow": 0.17592592592592593,
      "Latitude": "40.7647467",
      "Longitude": "-73.9726829"
    },
    {
      "SegmentID": "33850",
      "RoadwayName": "9TH AVENUE",
      "From": "West 46th Street",
      "To": "West 47th Street",
      "Direction": "SB",
      "Date": "2020-10-13",
      "flow": 0.7685185185185185,
      "Latitude": "40.7582569",
      "Longitude": "-73.9842778"
    },
    {
      "SegmentID": "9003670",
      "RoadwayName": "ASTOR AVENUE",
      "From": "Wallace Avenue",
      "To": "Barnes Avenue",
      "Direction": "EB",
      "Date": "2020-10-13",
      "flow": 0.09259259259259259,
      "Latitude": "40.8543854",
      "Longitude": "-73.8648158"
    },
    {
      "SegmentID": "9003670",
      "RoadwayName": "ASTOR AVENUE",
      "From": "Wallace Avenue",
      "To": "Barnes Avenue",
      "Direction": "WB",
      "Date": "2020-10-13",
      "flow": 0.08796296296296297,
      "Latitude": "40.8543854",
      "Longitude": "-73.8648158"
    },
    {
      "SegmentID": "157870",
      "RoadwayName": "ATLANTIC AVENUE",
      "From": "Crescent Street",
      "To": "Autumn Avenue",
      "Direction": "EB",
      "Date": "2020-10-13",
      "flow": 0.37037037037037035,
      "Latitude": "40.6833496",
      "Longitude": "-73.873286"
    },
    {
      "SegmentID": "158264",
      "RoadwayName": "ATLANTIC AVENUE",
      "From": "Hemlock Street",
      "To": "Autumn Avenue",
      "Direction": "WB",
      "Date": "2020-10-13",
      "flow": 0.3425925925925926,
      "Latitude": "40.684704",
      "Longitude": "-73.8713701"
    },
    {
      "SegmentID": "41720",
      "RoadwayName": "AVENUE D",
      "From": "Brooklyn Avenue",
      "To": "East 37th Street",
      "Direction": "EB",
      "Date": "2020-10-13",
      "flow": 0.10648148148148148,
      "Latitude": "40.6313796",
      "Longitude": "-73.9416905"
    },
    {
      "SegmentID": "41720",
      "RoadwayName": "AVENUE D",
      "From": "Brooklyn Avenue",
      "To": "East 37th Street",
      "Direction": "WB",
      "Date": "2020-10-13",
      "flow": 0.1111111111111111,
      "Latitude": "40.6313796",
      "Longitude": "-73.9416905"
    },
    {
      "SegmentID": "41040",
      "RoadwayName": "AVENUE J",
      "From": "Schenectady Avenue",
      "To": "East 48th Street",
      "Direction": "EB",
      "Date": "2020-10-13",
      "flow": 0.041666666666666664,
      "Latitude": "40.625039",
      "Longitude": "-73.960803"
    },
    {
      "SegmentID": "41040",
      "RoadwayName": "AVENUE J",
      "From": "Schenectady Avenue",
      "To": "East 48th Street",
      "Direction": "WB",
      "Date": "2020-10-13",
      "flow": 0.032407407407407406,
      "Latitude": "40.625039",
      "Longitude": "-73.960803"
    },
    {
      "SegmentID": "27139",
      "RoadwayName": "AVENUE M",
      "From": "East 15th Street",
      "To": "Buckingham Road",
      "Direction": "EB",
      "Date": "2020-10-13",
      "flow": 0.1388888888888889,
      "Latitude": "40.6178971",
      "Longitude": "-73.959474"
    },
    {
      "SegmentID": "27139",
      "RoadwayName": "AVENUE M",
      "From": "East 15th Street",
      "To": "Buckingham Road",
      "Direction": "WB",
      "Date": "2020-10-13",
      "flow": 0.10648148148148148,
      "Latitude": "40.6178971",
      "Longitude": "-73.959474"
    },
    {
      "SegmentID": "41000",
      "RoadwayName": "AVENUE M",
      "From": "East 45th Street",
      "To": "East 46th Street",
      "Direction": "WB",
      "Date": "2020-10-13",
      "flow": 0.032407407407407406,
      "Latitude": "40.6178971",
      "Longitude": "-73.959474"
    },
    {
      "SegmentID": "27121",
      "RoadwayName": "AVENUE N",
      "From": "Brington Line",
      "To": "East 16th Street",
      "Direction": "EB",
      "Date": "2020-10-13",
      "flow": 0.19444444444444445,
      "Latitude": "40.5873782",
      "Longitude": "-73.9532845"
    },
    {
      "SegmentID": "34188",
      "RoadwayName": "6TH AVENUE",
      "From": "West 45th Street",
      "To": "West 46th Street",
      "Direction": "NB",
      "Date": "2020-10-13",
      "flow": 0.9583333333333334,
      "Latitude": "40.761801",
      "Longitude": "-73.994646"
    },
    {
      "SegmentID": "20337",
      "RoadwayName": "AVENUE P",
      "From": "West 10th Street",
      "To": "West 9th Street",
      "Direction": "EB",
      "Date": "2020-10-13",
      "flow": 0.046296296296296294,
      "Latitude": "40.608944",
      "Longitude": "-73.973022"
    },
    {
      "SegmentID": "20337",
      "RoadwayName": "AVENUE P",
      "From": "West 10th Street",
      "To": "West 9th Street",
      "Direction": "WB",
      "Date": "2020-10-13",
      "flow": 0.10185185185185185,
      "Latitude": "40.608944",
      "Longitude": "-73.973022"
    },
    {
      "SegmentID": "41312",
      "RoadwayName": "AVENUE U",
      "From": "East 56th Street",
      "To": "Pearson Street",
      "Direction": "EB",
      "Date": "2020-10-13",
      "flow": 0.18518518518518517,
      "Latitude": "40.6478985",
      "Longitude": "-73.9241338"
    },
    {
      "SegmentID": "41312",
      "RoadwayName": "AVENUE U",
      "From": "East 56th Street",
      "To": "Pearson Street",
      "Direction": "WB",
      "Date": "2020-10-13",
      "flow": 0.10185185185185185,
      "Latitude": "40.6478985",
      "Longitude": "-73.9241338"
    },
    {
      "SegmentID": "41667",
      "RoadwayName": "AVENUE U",
      "From": "East 71st Street",
      "To": "Veterans Avenue",
      "Direction": "EB",
      "Date": "2020-10-13",
      "flow": 0.013888888888888888,
      "Latitude": "40.6166869",
      "Longitude": "-73.9039399"
    },
    {
      "SegmentID": "41667",
      "RoadwayName": "AVENUE U",
      "From": "East 71st Street",
      "To": "Veterans Avenue",
      "Direction": "WB",
      "Date": "2020-10-13",
      "flow": 0.018518518518518517,
      "Latitude": "40.6166869",
      "Longitude": "-73.9039399"
    },
    {
      "SegmentID": "19550",
      "RoadwayName": "BAY RIDGE AVENUE",
      "From": "11th Avenue",
      "To": "12th Avenue",
      "Direction": "EB",
      "Date": "2020-10-13",
      "flow": 0.027777777777777776,
      "Latitude": "40.7444306",
      "Longitude": "-74.0084954"
    },
    {
      "SegmentID": "19550",
      "RoadwayName": "BAY RIDGE AVENUE",
      "From": "11th Avenue",
      "To": "12th Avenue",
      "Direction": "WB",
      "Date": "2020-10-13",
      "flow": 0.004629629629629629,
      "Latitude": "40.7444306",
      "Longitude": "-74.0084954"
    },
    {
      "SegmentID": "20149",
      "RoadwayName": "BAY RIDGE AVENUE",
      "From": "18th Avenue",
      "To": "19th Avenue",
      "Direction": "EB",
      "Date": "2020-10-13",
      "flow": 0.041666666666666664,
      "Latitude": "40.620671",
      "Longitude": "-73.990414"
    },
    {
      "SegmentID": "132816",
      "RoadwayName": "BAYCHESTER AVENUE",
      "From": "Bay Plaza Boulevard",
      "To": "Hutchinson River Parkway",
      "Direction": "NB",
      "Date": "2020-10-13",
      "flow": 0.032407407407407406,
      "Latitude": "40.8670077",
      "Longitude": "-73.8306367"
    },
    {
      "SegmentID": "254353",
      "RoadwayName": "BEDFORD AVENUE",
      "From": "Lorimer Street",
      "To": "Union Avenue",
      "Direction": "EB",
      "Date": "2020-10-13",
      "flow": 0.0787037037037037,
      "Latitude": "40.7174046",
      "Longitude": "-73.9570004"
    },
    {
      "SegmentID": "27462",
      "RoadwayName": "BEDFORD AVENUE",
      "From": "Quentin Road",
      "To": "Avenue R",
      "Direction": "NB",
      "Date": "2020-10-13",
      "flow": 0.037037037037037035,
      "Latitude": "40.7174046",
      "Longitude": "-73.9570004"
    },
    {
      "SegmentID": "27462",
      "RoadwayName": "BEDFORD AVENUE",
      "From": "Quentin Road",
      "To": "Avenue R",
      "Direction": "SB",
      "Date": "2020-10-13",
      "flow": 0.07407407407407407,
      "Latitude": "40.7174046",
      "Longitude": "-73.9570004"
    },
    {
      "SegmentID": "176365",
      "RoadwayName": "BEDFORD PARK BOULEVARD",
      "From": "Grand Concourse",
      "To": "Briggs Avenue",
      "Direction": "NB",
      "Date": "2020-10-13",
      "flow": 0.0787037037037037,
      "Latitude": "40.8510934",
      "Longitude": "-73.9046308"
    },
    {
      "SegmentID": "176365",
      "RoadwayName": "BEDFORD PARK BOULEVARD",
      "From": "Grand Concourse",
      "To": "Briggs Avenue",
      "Direction": "SB",
      "Date": "2020-10-13",
      "flow": 0.1388888888888889,
      "Latitude": "40.8510934",
      "Longitude": "-73.9046308"
    },
    {
      "SegmentID": "154787",
      "RoadwayName": "BEDFORD PARK BOULEVARD",
      "From": "Grand Concourse",
      "To": "Briggs Avenue",
      "Direction": "NB",
      "Date": "2020-10-13",
      "flow": 0.11574074074074074,
      "Latitude": "40.8510934",
      "Longitude": "-73.9046308"
    },
    {
      "SegmentID": "154501",
      "RoadwayName": "BEDFORD PARK BOULEVARD",
      "From": "Grand Concourse",
      "To": "Briggs Avenue",
      "Direction": "SB",
      "Date": "2020-10-13",
      "flow": 0.1111111111111111,
      "Latitude": "40.8510934",
      "Longitude": "-73.9046308"
    },
    {
      "SegmentID": "148978",
      "RoadwayName": "BELL BOULEVARD",
      "From": "67th Avenue",
      "To": "67th Avenue",
      "Direction": "NB",
      "Date": "2020-10-13",
      "flow": 0.032407407407407406,
      "Latitude": "40.7267968",
      "Longitude": "-73.8532472"
    },
    {
      "SegmentID": "148980",
      "RoadwayName": "BELL BOULEVARD",
      "From": "67th Avenue",
      "To": "67th Avenue",
      "Direction": "SB",
      "Date": "2020-10-13",
      "flow": 0.013888888888888888,
      "Latitude": "40.7267968",
      "Longitude": "-73.8532472"
    },
    {
      "SegmentID": "87808",
      "RoadwayName": "BRONXWOOD AVENUE",
      "From": "Mace Avenue",
      "To": "Allerton Avenue",
      "Direction": "NB",
      "Date": "2020-10-13",
      "flow": 0,
      "Latitude": "40.8709169",
      "Longitude": "-73.8613921"
    },
    {
      "SegmentID": "87808",
      "RoadwayName": "BRONXWOOD AVENUE",
      "From": "Mace Avenue",
      "To": "Allerton Avenue",
      "Direction": "SB",
      "Date": "2020-10-13",
      "flow": 0.018518518518518517,
      "Latitude": "40.8709169",
      "Longitude": "-73.8613921"
    },
    {
      "SegmentID": "70364",
      "RoadwayName": "BROOK AVENUE",
      "From": "East 152nd Street",
      "To": "East 153rd Street",
      "Direction": "SB",
      "Date": "2020-10-13",
      "flow": 0.1111111111111111,
      "Latitude": "40.807555",
      "Longitude": "-73.9192429"
    },
    {
      "SegmentID": "47359",
      "RoadwayName": "BUSHWICK AVENUE",
      "From": "Cemetery Of Evergrns Boundary",
      "To": "Highland Boulevard",
      "Direction": "EB",
      "Date": "2020-10-13",
      "flow": 0.7083333333333334,
      "Latitude": "40.6815336",
      "Longitude": "-73.8943809"
    },
    {
      "SegmentID": "47359",
      "RoadwayName": "BUSHWICK AVENUE",
      "From": "Cemetery Of Evergrns Boundary",
      "To": "Highland Boulevard",
      "Direction": "WB",
      "Date": "2020-10-13",
      "flow": 0.7268518518518519,
      "Latitude": "40.6815336",
      "Longitude": "-73.8943809"
    },
    {
      "SegmentID": "28234",
      "RoadwayName": "CATON AVENUE",
      "From": "East 18th Street",
      "To": "St Pauls Place",
      "Direction": "EB",
      "Date": "2020-10-13",
      "flow": 0.3333333333333333,
      "Latitude": "40.6475964",
      "Longitude": "-73.9733121"
    },
    {
      "SegmentID": "28234",
      "RoadwayName": "CATON AVENUE",
      "From": "East 18th Street",
      "To": "St Pauls Place",
      "Direction": "WB",
      "Date": "2020-10-13",
      "flow": 0.17592592592592593,
      "Latitude": "40.6475964",
      "Longitude": "-73.9733121"
    },
    {
      "SegmentID": "28015",
      "RoadwayName": "CONEY ISLAND AVENUE",
      "From": "Friel Place",
      "To": "Church Avenue",
      "Direction": "NB",
      "Date": "2020-10-13",
      "flow": 0.1388888888888889,
      "Latitude": "40.6299377",
      "Longitude": "-73.9661411"
    },
    {
      "SegmentID": "28015",
      "RoadwayName": "CONEY ISLAND AVENUE",
      "From": "Friel Place",
      "To": "Church Avenue",
      "Direction": "SB",
      "Date": "2020-10-13",
      "flow": 0.23148148148148148,
      "Latitude": "40.6299377",
      "Longitude": "-73.9661411"
    },
    {
      "SegmentID": "26932",
      "RoadwayName": "CONEY ISLAND AVENUE",
      "From": "Parkville Avenue",
      "To": "Foster Avenue",
      "Direction": "NB",
      "Date": "2020-10-13",
      "flow": 0.2916666666666667,
      "Latitude": "40.6299377",
      "Longitude": "-73.9661411"
    },
    {
      "SegmentID": "26932",
      "RoadwayName": "CONEY ISLAND AVENUE",
      "From": "Parkville Avenue",
      "To": "Foster Avenue",
      "Direction": "SB",
      "Date": "2020-10-13",
      "flow": 0.4027777777777778,
      "Latitude": "40.6299377",
      "Longitude": "-73.9661411"
    },
    {
      "SegmentID": "217716",
      "RoadwayName": "COURTLANDT AVENUE",
      "From": "East 153rd Street",
      "To": "East 154th Street",
      "Direction": "NB",
      "Date": "2020-10-13",
      "flow": 0.11574074074074074,
      "Latitude": "40.8180575",
      "Longitude": "-73.9133408"
    },
    {
      "SegmentID": "150549",
      "RoadwayName": "CROSS BAY BOULEVARD",
      "From": "165th Avenue",
      "To": "East 6th Rd",
      "Direction": "NB",
      "Date": "2020-10-13",
      "flow": 0.2777777777777778,
      "Latitude": "40.6491463",
      "Longitude": "-73.8372764"
    },
    {
      "SegmentID": "121069",
      "RoadwayName": "CROTONA AVENUE",
      "From": "Claremont Parkway",
      "To": "Crotona Park North",
      "Direction": "NB",
      "Date": "2020-10-13",
      "flow": 0.06944444444444445,
      "Latitude": "40.8394904",
      "Longitude": "-73.9045399"
    },
    {
      "SegmentID": "121069",
      "RoadwayName": "CROTONA AVENUE",
      "From": "Claremont Parkway",
      "To": "Crotona Park North",
      "Direction": "SB",
      "Date": "2020-10-13",
      "flow": 0.1574074074074074,
      "Latitude": "40.8394904",
      "Longitude": "-73.9045399"
    },
    {
      "SegmentID": "35257",
      "RoadwayName": "DRIGGS AVENUE",
      "From": "Lorimer Street",
      "To": "Union Avenue",
      "Direction": "WB",
      "Date": "2020-10-13",
      "flow": 0.0787037037037037,
      "Latitude": "40.7200011",
      "Longitude": "-73.9532534"
    },
    {
      "SegmentID": "70360",
      "RoadwayName": "EAST 149th STREET",
      "From": "Eagle Avenue",
      "To": "Cauldwell Avenue",
      "Direction": "EB",
      "Date": "2020-10-13",
      "flow": 0.25925925925925924,
      "Latitude": "40.822181",
      "Longitude": "-73.908418"
    },
    {
      "SegmentID": "70360",
      "RoadwayName": "EAST 149TH STREET",
      "From": "Eagle Avenue",
      "To": "Cauldwell Avenue",
      "Direction": "WB",
      "Date": "2020-10-13",
      "flow": 0.2824074074074074,
      "Latitude": "40.822181",
      "Longitude": "-73.908418"
    },
    {
      "SegmentID": "70586",
      "RoadwayName": "EAST 161st STREET",
      "From": "Eagle Avenue",
      "To": "Cauldwell Avenue",
      "Direction": "EB",
      "Date": "2020-10-13",
      "flow": 0.032407407407407406,
      "Latitude": "40.822181",
      "Longitude": "-73.908418"
    },
    {
      "SegmentID": "70607",
      "RoadwayName": "EAST 163rd STREET",
      "From": "Eagle Avenue",
      "To": "Cauldwell Avenue",
      "Direction": "EB",
      "Date": "2020-10-13",
      "flow": 0.4351851851851852,
      "Latitude": "40.822181",
      "Longitude": "-73.908418"
    },
    {
      "SegmentID": "70607",
      "RoadwayName": "EAST 163rd STREET",
      "From": "Eagle Avenue",
      "To": "Cauldwell Avenue",
      "Direction": "WB",
      "Date": "2020-10-13",
      "flow": 0.32407407407407407,
      "Latitude": "40.822181",
      "Longitude": "-73.908418"
    },
    {
      "SegmentID": "77429",
      "RoadwayName": "EAST 163rd STREET",
      "From": "Intervale Avenue",
      "To": "Kelly Street",
      "Direction": "EB",
      "Date": "2020-10-13",
      "flow": 0.4074074074074074,
      "Latitude": "40.8221585",
      "Longitude": "-73.8967991"
    },
    {
      "SegmentID": "77429",
      "RoadwayName": "EAST 163rd STREET",
      "From": "Intervale Avenue",
      "To": "Kelly Street",
      "Direction": "WB",
      "Date": "2020-10-13",
      "flow": 0.2916666666666667,
      "Latitude": "40.8221585",
      "Longitude": "-73.8967991"
    },
    {
      "SegmentID": "9009765",
      "RoadwayName": "EAST 169th STREET",
      "From": "Tinton Avenue",
      "To": "Union Avenue",
      "Direction": "EB",
      "Date": "2020-10-13",
      "flow": 0.1527777777777778,
      "Latitude": "40.8178792",
      "Longitude": "-73.9050078"
    },
    {
      "SegmentID": "9009765",
      "RoadwayName": "EAST 169th STREET",
      "From": "Tinton Avenue",
      "To": "Union Avenue",
      "Direction": "WB",
      "Date": "2020-10-13",
      "flow": 0.23148148148148148,
      "Latitude": "40.8178792",
      "Longitude": "-73.9050078"
    },
    {
      "SegmentID": "174360",
      "RoadwayName": "EAST 170th STREET",
      "From": "Grant Avenue",
      "To": "Walton Avenue",
      "Direction": "EB",
      "Date": "2020-10-13",
      "flow": 0.07407407407407407,
      "Latitude": "40.6768466",
      "Longitude": "-73.8653952"
    },
    {
      "SegmentID": "174360",
      "RoadwayName": "EAST 170th STREET",
      "From": "Grant Avenue",
      "To": "Morris Avenue",
      "Direction": "WB",
      "Date": "2020-10-13",
      "flow": 0.12037037037037036,
      "Latitude": "40.6768466",
      "Longitude": "-73.8653952"
    },
    {
      "SegmentID": "146865",
      "RoadwayName": "EAST 170th STREET",
      "From": "Grant Avenue",
      "To": "Morris Avenue",
      "Direction": "EB",
      "Date": "2020-10-13",
      "flow": 0.10185185185185185,
      "Latitude": "40.6768466",
      "Longitude": "-73.8653952"
    },
    {
      "SegmentID": "146864",
      "RoadwayName": "EAST 170th STREET",
      "From": "Grant Avenue",
      "To": "Morris Avenue",
      "Direction": "WB",
      "Date": "2020-10-13",
      "flow": 0.125,
      "Latitude": "40.6768466",
      "Longitude": "-73.8653952"
    },
    {
      "SegmentID": "78940",
      "RoadwayName": "EAST 174th STREET",
      "From": "Hoe Avenue",
      "To": "Vyse Avenue",
      "Direction": "EB",
      "Date": "2020-10-13",
      "flow": 0.07407407407407407,
      "Latitude": "40.833738",
      "Longitude": "-73.888802"
    },
    {
      "SegmentID": "78940",
      "RoadwayName": "EAST 174th STREET",
      "From": "Hoe Avenue",
      "To": "Vyse Avenue",
      "Direction": "WB",
      "Date": "2020-10-13",
      "flow": 0.12037037037037036,
      "Latitude": "40.833738",
      "Longitude": "-73.888802"
    },
    {
      "SegmentID": "79377",
      "RoadwayName": "EAST 177th STREET",
      "From": "East Tremont Avenue",
      "To": "Devoe Avenue",
      "Direction": "NB",
      "Date": "2020-10-13",
      "flow": 0.18518518518518517,
      "Latitude": "40.8418573",
      "Longitude": "-73.8583296"
    },
    {
      "SegmentID": "79377",
      "RoadwayName": "EAST 177th STREET",
      "From": "East Tremont Avenue",
      "To": "Devoe Avenue",
      "Direction": "SB",
      "Date": "2020-10-13",
      "flow": 0.2222222222222222,
      "Latitude": "40.8418573",
      "Longitude": "-73.8583296"
    },
    {
      "SegmentID": "146887",
      "RoadwayName": "EAST BURNSIDE AVENUE",
      "From": "Creston Avenue",
      "To": "Grand Concourse",
      "Direction": "EB",
      "Date": "2020-10-13",
      "flow": 0.08796296296296297,
      "Latitude": "40.8641451",
      "Longitude": "-73.8971816"
    },
    {
      "SegmentID": "146888",
      "RoadwayName": "EAST BURNSIDE AVENUE",
      "From": "Grand Concourse",
      "To": "Valentine Avenue",
      "Direction": "WB",
      "Date": "2020-10-13",
      "flow": 0.09722222222222222,
      "Latitude": "40.8510934",
      "Longitude": "-73.9046308"
    },
    {
      "SegmentID": "146886",
      "RoadwayName": "EAST BURNSIDE AVENUE",
      "From": "Grand Concourse",
      "To": "Valentine Avenue",
      "Direction": "EB",
      "Date": "2020-10-13",
      "flow": 0.12037037037037036,
      "Latitude": "40.8510934",
      "Longitude": "-73.9046308"
    },
    {
      "SegmentID": "146496",
      "RoadwayName": "EAST BURNSIDE AVENUE",
      "From": "Grand Concourse",
      "To": "Valentine Avenue",
      "Direction": "WB",
      "Date": "2020-10-13",
      "flow": 0.09259259259259259,
      "Latitude": "40.8510934",
      "Longitude": "-73.9046308"
    },
    {
      "SegmentID": "146547",
      "RoadwayName": "EAST FORDHAM ROAD",
      "From": "Bronx River Shoreline",
      "To": "Bronx River Parkway",
      "Direction": "WB",
      "Date": "2020-10-13",
      "flow": 0.9212962962962963,
      "Latitude": "40.8554124",
      "Longitude": "-73.8767367"
    },
    {
      "SegmentID": "178396",
      "RoadwayName": "EAST GUN HILL ROAD",
      "From": "Bronx Boulevard",
      "To": "Bronx River Parkway",
      "Direction": "EB",
      "Date": "2020-10-13",
      "flow": 0.5925925925925926,
      "Latitude": "40.8640107",
      "Longitude": "-73.8339775"
    },
    {
      "SegmentID": "178396",
      "RoadwayName": "EAST GUN HILL ROAD",
      "From": "Bronx Boulevard",
      "To": "Bronx River Parkway",
      "Direction": "WB",
      "Date": "2020-10-13",
      "flow": 0.9351851851851852,
      "Latitude": "40.8640107",
      "Longitude": "-73.8339775"
    },
    {
      "SegmentID": "9014434",
      "RoadwayName": "EAST TREMONT AVENUE",
      "From": "Bronx River Shoreline",
      "To": "East 177th Street",
      "Direction": "EB",
      "Date": "2020-10-13",
      "flow": 0.4398148148148148,
      "Latitude": "40.8363101",
      "Longitude": "-73.874253"
    },
    {
      "SegmentID": "9014434",
      "RoadwayName": "EAST TREMONT AVENUE",
      "From": "Bronx River Shoreline",
      "To": "East 177th Street",
      "Direction": "WB",
      "Date": "2020-10-13",
      "flow": 0.21296296296296297,
      "Latitude": "40.8363101",
      "Longitude": "-73.874253"
    },
    {
      "SegmentID": "145229",
      "RoadwayName": "EASTERN PARKWAY",
      "From": "Broadway",
      "To": "Cooke Ct",
      "Direction": "SB",
      "Date": "2020-10-13",
      "flow": 0.5277777777777778,
      "Latitude": "40.8028269",
      "Longitude": "-73.9675054"
    },
    {
      "SegmentID": "157872",
      "RoadwayName": "EASTERN PARKWAY",
      "From": "Broadway",
      "To": "Cooke Ct",
      "Direction": "NB",
      "Date": "2020-10-13",
      "flow": 0.2175925925925926,
      "Latitude": "40.8028269",
      "Longitude": "-73.9675054"
    },
    {
      "SegmentID": "28637",
      "RoadwayName": "FLATBUSH AVENUE",
      "From": "Glenwood Road",
      "To": "East 29th Street",
      "Direction": "NB",
      "Date": "2020-10-13",
      "flow": 0.5555555555555556,
      "Latitude": "40.6031817",
      "Longitude": "-73.9152853"
    },
    {
      "SegmentID": "28637",
      "RoadwayName": "FLATBUSH AVENUE",
      "From": "Glenwood Road",
      "To": "East 29th Street",
      "Direction": "SB",
      "Date": "2020-10-13",
      "flow": 0.4305555555555556,
      "Latitude": "40.6031817",
      "Longitude": "-73.9152853"
    },
    {
      "SegmentID": "9005719",
      "RoadwayName": "FLATLANDS AVENUE",
      "From": "East 108th Street",
      "To": "Williams Avenue",
      "Direction": "NB",
      "Date": "2020-10-13",
      "flow": 0.3194444444444444,
      "Latitude": "40.651881",
      "Longitude": "-73.895861"
    },
    {
      "SegmentID": "9005717",
      "RoadwayName": "FLATLANDS AVENUE",
      "From": "East 108th Street",
      "To": "Williams Avenue",
      "Direction": "SB",
      "Date": "2020-10-13",
      "flow": 0.3287037037037037,
      "Latitude": "40.651881",
      "Longitude": "-73.895861"
    },
    {
      "SegmentID": "42542",
      "RoadwayName": "FLATLANDS AVENUE",
      "From": "East 78th Street",
      "To": "East 79th Street",
      "Direction": "EB",
      "Date": "2020-10-13",
      "flow": 0.25925925925925924,
      "Latitude": "40.637847",
      "Longitude": "-73.918436"
    },
    {
      "SegmentID": "42542",
      "RoadwayName": "FLATLANDS AVENUE",
      "From": "East 78th Street",
      "To": "East 79th Street",
      "Direction": "WB",
      "Date": "2020-10-13",
      "flow": 0.33796296296296297,
      "Latitude": "40.637847",
      "Longitude": "-73.918436"
    },
    {
      "SegmentID": "150110",
      "RoadwayName": "FRANCIS LEWIS BOULEVARD",
      "From": "Horace Harding Expy",
      "To": "73rd Avenue",
      "Direction": "SB",
      "Date": "2020-10-13",
      "flow": 0.027777777777777776,
      "Latitude": "40.77318",
      "Longitude": "-73.7958221"
    },
    {
      "SegmentID": "156785",
      "RoadwayName": "FRANCIS LEWIS BOULEVARD",
      "From": "Horace Harding Expy",
      "To": "73rd Avenue",
      "Direction": "NB",
      "Date": "2020-10-13",
      "flow": 0.032407407407407406,
      "Latitude": "40.77318",
      "Longitude": "-73.7958221"
    },
    {
      "SegmentID": "19559",
      "RoadwayName": "FT HAMILTON PARKWAY",
      "From": "66th Street",
      "To": "67th Street",
      "Direction": "EB",
      "Date": "2020-10-13",
      "flow": 0.23148148148148148,
      "Latitude": "40.7249332",
      "Longitude": "-73.8985833"
    },
    {
      "SegmentID": "19559",
      "RoadwayName": "FT HAMILTON PARKWAY",
      "From": "66th Street",
      "To": "67th Street",
      "Direction": "WB",
      "Date": "2020-10-13",
      "flow": 0.12037037037037036,
      "Latitude": "40.7249332",
      "Longitude": "-73.8985833"
    },
    {
      "SegmentID": "110263",
      "RoadwayName": "GLEN STREET",
      "From": "Lois Lane",
      "To": "Fahy Avenue",
      "Direction": "NB",
      "Date": "2020-10-13",
      "flow": 0.027777777777777776,
      "Latitude": "40.612213",
      "Longitude": "-74.175561"
    },
    {
      "SegmentID": "176279",
      "RoadwayName": "GRAND CONCOURSE",
      "From": "East 188th Street",
      "To": "East 184th Street",
      "Direction": "NB",
      "Date": "2020-10-13",
      "flow": 0.21296296296296297,
      "Latitude": "40.8510934",
      "Longitude": "-73.9046308"
    },
    {
      "SegmentID": "176279",
      "RoadwayName": "GRAND CONCOURSE",
      "From": "East 188th Street",
      "To": "East 184th Street",
      "Direction": "SB",
      "Date": "2020-10-13",
      "flow": 0.14814814814814814,
      "Latitude": "40.8510934",
      "Longitude": "-73.9046308"
    },
    {
      "SegmentID": "148198",
      "RoadwayName": "GRAND CONCOURSE",
      "From": "East 184th Street",
      "To": "East 187th Street",
      "Direction": "SB",
      "Date": "2020-10-13",
      "flow": 0.2222222222222222,
      "Latitude": "40.8510934",
      "Longitude": "-73.9046308"
    },
    {
      "SegmentID": "148197",
      "RoadwayName": "GRAND CONCOURSE",
      "From": "East 184th Street",
      "To": "East 187th Street",
      "Direction": "NB",
      "Date": "2020-10-13",
      "flow": 0.25462962962962965,
      "Latitude": "40.8510934",
      "Longitude": "-73.9046308"
    },
    {
      "SegmentID": "184562",
      "RoadwayName": "GRAND CONCOURSE",
      "From": "East Mt Eve Avenue",
      "To": "Hawkstone Street",
      "Direction": "NB",
      "Date": "2020-10-13",
      "flow": 0.14814814814814814,
      "Latitude": "40.8510934",
      "Longitude": "-73.9046308"
    },
    {
      "SegmentID": "184562",
      "RoadwayName": "GRAND CONCOURSE",
      "From": "East Mt Eve Avenue",
      "To": "Hawkstone Street",
      "Direction": "SB",
      "Date": "2020-10-13",
      "flow": 0.1712962962962963,
      "Latitude": "40.8510934",
      "Longitude": "-73.9046308"
    },
    {
      "SegmentID": "144881",
      "RoadwayName": "GRAND CONCOURSE",
      "From": "Hawkstone Street",
      "To": "East Mt Eden Avenue",
      "Direction": "SB",
      "Date": "2020-10-13",
      "flow": 0.18055555555555555,
      "Latitude": "40.8510934",
      "Longitude": "-73.9046308"
    },
    {
      "SegmentID": "149759",
      "RoadwayName": "GRAND CONCOURSE",
      "From": "Hawkstone Street",
      "To": "Mt Eden Parkway",
      "Direction": "NB",
      "Date": "2020-10-13",
      "flow": 0.33796296296296297,
      "Latitude": "40.8510934",
      "Longitude": "-73.9046308"
    },
    {
      "SegmentID": "31123",
      "RoadwayName": "GRAND STREET",
      "From": "Union Avenue",
      "To": "Lorimer Street",
      "Direction": "EB",
      "Date": "2020-10-13",
      "flow": 0.1527777777777778,
      "Latitude": "40.7132751",
      "Longitude": "-73.9776678"
    },
    {
      "SegmentID": "31123",
      "RoadwayName": "GRAND STREET",
      "From": "Union Avenue",
      "To": "Lorimer Street",
      "Direction": "WB",
      "Date": "2020-10-13",
      "flow": 0.3055555555555556,
      "Latitude": "40.7132751",
      "Longitude": "-73.9776678"
    },
    {
      "SegmentID": "9004434",
      "RoadwayName": "HARROD AVENUE",
      "From": "Cross Bronx River Expressway",
      "To": "East 174th Street",
      "Direction": "NB",
      "Date": "2020-10-13",
      "flow": 0.032407407407407406,
      "Latitude": "40.8447476",
      "Longitude": "-73.9117036"
    },
    {
      "SegmentID": "9004434",
      "RoadwayName": "HARROD AVENUE",
      "From": "Cross Bronx River Expressway",
      "To": "East 174th Street",
      "Direction": "SB",
      "Date": "2020-10-13",
      "flow": 0.046296296296296294,
      "Latitude": "40.8447476",
      "Longitude": "-73.9117036"
    },
    {
      "SegmentID": "157603",
      "RoadwayName": "JAMAICA AVENUE",
      "From": "Georgia Avenue",
      "To": "Sheffied Avenue",
      "Direction": "EB",
      "Date": "2020-10-13",
      "flow": 0.4166666666666667,
      "Latitude": "40.6521022",
      "Longitude": "-73.887989"
    },
    {
      "SegmentID": "157676",
      "RoadwayName": "JAMAICA AVENUE",
      "From": "Georgia Avenue",
      "To": "Fanchon Place",
      "Direction": "WB",
      "Date": "2020-10-13",
      "flow": 0.4074074074074074,
      "Latitude": "40.6521022",
      "Longitude": "-73.887989"
    },
    {
      "SegmentID": "49572",
      "RoadwayName": "JAMAICA AVENUE",
      "From": "Hemlock Street",
      "To": "Autumn Avenue",
      "Direction": "EB",
      "Date": "2020-10-13",
      "flow": 0.2638888888888889,
      "Latitude": "40.684704",
      "Longitude": "-73.8713701"
    },